     2.11           OBSERVATION DATA    G (GPS)             RINEX VERSION / TYPE
teqc  2018Dec12     gpsops              20200902 00:56:46UTCPGM / RUN BY / DATE
Linux 2.6.32-573.12.1.x86_64|x86_64|gcc -static|Linux 64|=+ COMMENT
BIT 2 OF LLI FLAGS DATA COLLECTED UNDER A/S CONDITION       COMMENT
TIDB                                                        MARKER NAME
50103M108                                                   MARKER NUMBER
GGN                 JPL                                     OBSERVER / AGENCY
UC2200524011        ASHTECH UZ-12       CQ00                REC # / TYPE / VERS
402                 AOAD/M_T        NONE                    ANT # / TYPE
 -4460996.4047  2682557.0885 -3674443.3930                  APPROX POSITION XYZ
        0.0614        0.0000        0.0000                  ANTENNA: DELTA H/E/N
     1     1                                                WAVELENGTH FACT L1/2
     7    L1    L2    P1    P2    C1    S1    S2            # / TYPES OF OBSERV
    30.0000                                                 INTERVAL
Forced Modulo Decimation to 30 seconds                      COMMENT
                                                            COMMENT
This data is provided as a public service by NASA/JPL.      COMMENT
No warranty is expressed or implied regarding suitability   COMMENT
for use.  For further information, contact:                 COMMENT
Dave Stowers, NASA/JPL m/s 238-600                          COMMENT
4800 Oak Grove Drive, Pasadena CA 91109 USA                 COMMENT
                                                            COMMENT
 SNR is mapped to RINEX snr flag value [0-9]                COMMENT
  L1 & L2: min(max(int(snr_dBHz/6), 0), 9)                  COMMENT
pseudorange smoothing corrections not applied               COMMENT
  2020     9     1     0     0    0.0000000     GPS         TIME OF FIRST OBS
                                                            END OF HEADER
 20  9  1  0  0  0.0000000  0  7G09G07G27G30G08G04G16
 -24221349.08749 -18836754.78648  20596814.3314   20596818.0054   20596813.931
        57.0004         52.0004
 -20319078.39549 -15788181.17848  20990626.7814   20990627.8744   20990626.369
        54.0004         50.0004
  -5802280.95747  -4492184.21947  23906880.6814   23906886.1554   23906880.601
        46.0004         42.0004
  -9378505.37648  -7266458.19248  23065884.2414   23065888.9494   23065884.201
        53.0004         49.0004
  -6456498.53347  -5018734.66847  23661089.8804   23661095.9024   23661090.270
        46.0004         42.0004
 -18124145.31948 -14076956.39948  21403870.4434   21403873.7324   21403870.177
        53.0004         48.0004
  -8866573.22247  -6863187.35647  23130158.8404   23130160.8354   23130159.260
        47.0004         42.0004
 20  9  1  0  0 30.0000000  0  7G09G07G27G30G08G04G16
 -24239257.71449 -18850709.56548  20593406.4624   20593409.9184   20593405.867
        56.0004         52.0004
 -20349167.12049 -15811626.94048  20984901.2024   20984902.0124   20984900.633
        54.0004         50.0004
  -5831600.46047  -4515030.58247  23901301.9414   23901306.9814   23901301.896
        46.0004         42.0004
  -9445371.22749  -7318561.42648  23053159.9674   23053164.7984   23053160.153
        54.0004         49.0004
  -6527999.48747  -5074449.64247  23647484.4004   23647491.1934   23647484.023
        46.0004         42.0004
 -18074881.57048 -14038569.08648  21413245.2084   21413247.8784   21413244.772
        53.0004         48.0004
  -8788935.36747  -6802690.33147  23144932.3654   23144934.7904   23144933.343
        47.0004         43.0004
 20  9  1  0  1  0.0000000  0  7G09G07G27G30G08G04G16
 -24256776.21549 -18864360.34648  20590072.8994   20590076.5604   20590072.302
        56.0004         52.0004
 -20378967.16049 -15834847.74748  20979230.4274   20979231.4154   20979229.774
        54.0004         50.0004
  -5860470.67747  -4537526.83646  23895807.5254   23895811.2884   23895806.890
        46.0004         41.0004
  -9512064.34449  -7370530.06548  23040468.8064   23040473.4894   23040468.852
        54.0004         49.0004
  -6599253.44947  -5129972.16147  23633924.5124   23633929.8194   23633924.624
        46.0004         42.0004
 -18025254.93548 -13999898.99748  21422689.0124   21422691.6084   21422688.467
        53.0004         48.0004
  -8710993.67147  -6741956.55747  23159765.0854   23159766.8414   23159765.395
        47.0004         42.0004
 20  9  1  0  1 30.0000000  0  7G09G07G27G30G08G04G16
 -24273903.22649 -18877706.07148  20586813.5914   20586817.1104   20586812.915
        56.0004         52.0004
 -20408478.92149 -15857843.92248  20973614.4364   20973615.4744   20973614.148
        54.0004         50.0004
  -5888890.00547  -4559671.76347  23890399.3044   23890404.5684   23890399.152
        46.0004         42.0004
  -9578584.83249  -7422364.18348  23027809.7944   23027814.9404   23027809.603
        54.0004         49.0004
  -6670257.94047  -5185300.28147  23620414.1094   23620418.7174   23620413.855
        46.0004         42.0004
 -17975265.62648 -13960946.31948  21432201.6834   21432204.0294   21432200.842
        53.0004         48.0004
  -8632750.45947  -6680987.82847  23174654.1504   23174656.0404   23174654.385
        47.0004         43.0004
 20  9  1  0  2  0.0000000  0  7G09G07G27G30G08G04G16
 -24290637.28549 -18890745.59948  20583629.3494   20583632.9324   20583629.048
        56.0004         52.0004
 -20437702.43449 -15880615.49148  20968053.4764   20968054.6834   20968052.974
        54.0004         50.0004
  -5916856.56447  -4581463.87447  23885077.9334   23885082.6294   23885077.960
        46.0004         42.0004
  -9644932.64749  -7474063.75948  23015184.8944   23015189.4764   23015185.003
        54.0004         49.0004
  -6741009.62347  -5240431.43447  23606948.1434   23606953.9904   23606949.303
        46.0004         42.0004
 -17924913.73648 -13921711.10648  21441783.4744   21441786.6814   21441782.742
        53.0004         48.0004
  -8554208.01547  -6619785.94847  23189599.9244   23189601.9434   23189600.370
        47.0004         42.0004
 20  9  1  0  2 30.0000000  0  7G09G07G27G30G08G04G16
 -24306976.86149 -18903477.74148  20580519.9664   20580523.5024   20580519.438
        56.0004         52.0004
 -20466638.11349 -15903162.76948  20962547.2084   20962548.1784   20962546.824
        54.0004         50.0004
  -5944368.45547  -4602901.69347  23879842.5304   23879846.2614   23879842.528
        47.0004         42.0004
  -9711107.69349  -7525628.71148  23002591.9114   23002596.6914   23002591.564
        54.0004         49.0004
  -6811505.20847  -5295363.02047  23593536.2944   23593540.6024   23593535.464
        46.0004         42.0004
 -17874199.18348 -13882193.30548  21451434.2764   21451437.2114   21451433.464
        53.0004         48.0004
  -8475368.97947  -6558352.93747  23204602.9084   23204604.1644   23204603.770
        47.0004         42.0004
 20  9  1  0  3  0.0000000  0  7G09G07G27G30G08G04G16
 -24322920.53849 -18915901.39048  20577485.7994   20577489.5664   20577485.607
        56.0004         52.0004
 -20495286.42249 -15925486.12148  20957095.5664   20957096.6524   20957095.211
        54.0004         50.0004
  -5971424.01247  -4623983.92147  23874694.1574   23874699.2614   23874693.397
        47.0004         42.0004
  -9777109.99749  -7577059.05248  22990032.1434   22990036.9784   22990032.582
        54.0004         49.0004
  -6881741.82347  -5350092.80647  23580169.9224   23580176.1024   23580169.251
        47.0004         42.0004
 -17823122.11348 -13842393.02148  21461153.8474   21461156.5674   21461153.136
        53.0004         48.0004
  -8396235.68047  -6496690.64047  23219661.8754   23219662.8964   23219661.567
        47.0004         42.0004
 20  9  1  0  3 30.0000000  0  7G09G07G27G30G08G04G16
 -24338466.94949 -18928015.47948  20574527.5944   20574531.0574   20574527.390
        56.0004         52.0004
 -20523647.60249 -15947585.73848  20951698.3404   20951699.6274   20951698.086
        54.0004         50.0004
  -5998021.54547  -4644709.25747  23869632.8644   23869637.0634   23869632.601
        47.0004         42.0004
  -9842939.60549  -7628354.83748  22977505.1244   22977509.7854   22977505.240
        54.0004         49.0004
  -6951716.74447  -5404618.69347  23566853.6934   23566859.2404   23566852.903
        47.0004         42.0004
 -17771682.73248 -13802310.40348  21470941.9934   21470945.1284   21470941.796
        53.0004         48.0004
  -8316810.20147  -6434800.66747  23234776.2674   23234777.3554   23234775.421
        47.0004         42.0004
 20  9  1  0  4  0.0000000  0  7G09G07G27G30G08G04G16
 -24353614.70449 -18939818.92648  20571645.0354   20571648.7704   20571644.697
        56.0004         52.0004
 -20551722.21349 -15969462.05248  20946356.1384   20946357.4084   20946355.617
        54.0004         50.0004
  -6024159.30447  -4665076.32847  23864659.1864   23864662.3724   23864658.526
        47.0004         42.0004
  -9908596.52749  -7679516.04548  22965010.9824   22965015.4044   22965010.876
        54.0004         49.0004
  -7021426.67047  -5458938.07347  23553588.3064   23553593.3094   23553588.600
        46.0004         42.0004
 -17719881.17248 -13761945.57948  21480799.4704   21480802.7904   21480799.224
        53.0004         48.0004
  -8237095.02747  -6372684.96447  23249944.4364   23249946.3094   23249944.739
        47.0004         42.0004
 20  9  1  0  4 30.0000000  0  7G09G07G27G30G08G04G16
 -24368362.26149 -18951310.53048  20568838.5594   20568842.0064   20568838.369
        56.0004         52.0004
 -20579510.21249 -15991115.03348  20941068.3234   20941069.5304   20941067.862
        54.0004         50.0004
  -6049835.48947  -4685083.74147  23859772.5434   23859778.5834   23859771.676
        47.0004         42.0004
  -9974080.65849  -7730542.61548  22952549.5844   22952554.1674   22952550.080
        54.0004         49.0004
  -7090868.82947  -5513048.81847  23540373.8584   23540378.9124   23540373.657
        46.0004         42.0004
 -17667717.45248 -13721298.55048  21490726.4584   21490729.4504   21490725.690
        53.0004         48.0004
  -8157092.75647  -6310345.54847  23265169.1434   23265170.2874   23265168.904
        47.0004         42.0004
 20  9  1  0  5  0.0000000  0  7G09G07G27G30G08G04G16
 -24382708.30549 -18962489.26948  20566108.9434   20566112.2404   20566108.342
        57.0004         52.0004
 -20607012.13849 -16012545.09748  20935835.0014   20935836.1604   20935834.438
        54.0004         50.0004
  -6075048.47647  -4704730.20447  23854975.3234   23854978.7154   23854975.279
        47.0004         42.0004
 -10039392.04149  -7781434.58648  22940121.3964   22940125.5884   22940120.994
        54.0004         49.0004
  -7160040.10447  -5566948.47447  23527210.6814   23527215.5894   23527209.936
        46.0004         42.0004
 -17615191.78848 -13680369.49248  21500721.6334   21500724.6944   21500721.135
        53.0004         48.0004
  -8076805.44147  -6247784.01947  23280446.9144   23280448.9474   23280446.608
        47.0004         42.0004
 20  9  1  0  5 30.0000000  0  7G09G07G27G30G08G04G16
 -24396651.46249 -18973354.07248  20563455.3694   20563459.0704   20563455.032
        57.0004         52.0004
 -20634228.50849 -16033752.65548  20930655.6824   20930656.8794   20930655.235
        54.0004         50.0004
  -6099796.67647  -4724014.49547  23850266.3834   23850270.4904   23850265.495
        47.0004         42.0004
 -10104530.77849  -7832192.01648  22927726.0744   22927730.4904   22927725.760
        54.0004         49.0004
  -7228937.39447  -5620634.64147  23514100.1464   23514105.9914   23514100.020
        47.0004         42.0004
 -17562304.36948 -13639158.54648  21510785.8474   21510788.7924   21510785.040
        53.0004         48.0004
  -7996235.44047  -6185002.21547  23295778.9184   23295780.7804   23295779.040
        47.0004         42.0004
 20  9  1  0  6  0.0000000  0  7G09G07G27G30G08G04G16
 -24410190.31949 -18983903.83648  20560879.0704   20560882.5624   20560878.730
        57.0004         52.0004
 -20661159.76249 -16054738.03948  20925531.0684   20925532.2874   20925530.281
        54.0004         50.0004
  -6124078.37647  -4742935.29347  23845645.6844   23845650.6864   23845644.853
        47.0004         42.0004
 -10169496.75549  -7882814.83948  22915363.1694   22915367.5154   22915363.570
        54.0004         49.0004
  -7297558.04847  -5674105.24947  23501041.6784   23501048.3814   23501040.710
        47.0004         42.0004
 -17509055.35148 -13597665.82948  21520918.7164   21520921.6794   21520918.102
        53.0004         48.0004
  -7915385.49647  -6122002.27947  23311164.3574   23311166.4334   23311164.314
        47.0004         42.0004
 20  9  1  0  6 30.0000000  0  7G09G07G27G30G08G04G16
 -24423323.48949 -18994137.48148  20558379.8264   20558383.5134   20558379.376
        57.0004         52.0004
 -20687805.94049 -16075501.29048  20920460.4524   20920461.4334   20920459.701
        54.0004         50.0004
  -6147891.94447  -4761491.29747  23841112.8254   23841116.6314   23841112.249
        47.0004         42.0004
 -10234290.01149  -7933303.06448  22903033.6274   22903038.0284   22903032.949
        54.0004         49.0004
  -7365899.25447  -5727358.09347  23488037.0214   23488042.2824   23488036.347
        47.0004         42.0004
 -17455444.89248 -13555891.47148  21531120.4284   21531123.4204   21531119.862
        53.0004         48.0004
  -7834257.71947  -6058785.85047  23326602.5684   23326604.6504   23326602.586
        47.0004         42.0004
 20  9  1  0  7  0.0000000  0  7G09G07G27G30G08G04G16
 -24436049.55649 -19004053.90248  20555958.0514   20555961.8964   20555957.684
        57.0004         52.0004
 -20714167.49449 -16096042.75948  20915443.6674   20915445.0544   20915443.168
        54.0004         50.0004
  -6171235.69147  -4779681.23047  23836670.8644   23836675.8114   23836670.515
        47.0004         42.0004
 -10298910.50749  -7983656.68248  22890736.6954   22890741.4244   22890736.973
        54.0004         49.0004
  -7433957.66047  -5780390.59047  23475085.4844   23475091.7384   23475085.259
        47.0004         42.0004
 -17401473.14448 -13513835.59448  21541390.8414   21541393.9494   21541390.326
        53.0004         48.0004
  -7752854.70147  -5995354.94547  23342092.7624   23342094.3834   23342092.420
        47.0004         42.0004
 20  9  1  0  7 30.0000000  0  7G09G07G27G30G08G04G16
 -24448367.27049 -19013652.12648  20553614.2254   20553617.9174   20553613.921
        57.0004         52.0004
 -20740244.84349 -16116362.77048  20910481.6524   20910482.8574   20910480.921
        54.0004         50.0004
  -6194108.18947  -4797503.96647  23832318.7634   23832323.1164   23832318.038
        47.0004         42.0004
 -10363358.35849  -8033875.77548  22878472.8194   22878477.0324   22878472.898
        54.0004         49.0004
  -7501730.96747  -5833200.90947  23462189.3134   23462195.0574   23462189.026
        47.0004         42.0004
 -17347140.43748 -13471498.44948  21551730.1144   21551733.2974   21551729.229
        53.0004         48.0004
  -7671178.64147  -5931711.28447  23357634.8494   23357637.3624   23357635.680
        47.0004         42.0004
 20  9  1  0  8  0.0000000  0  7G09G07G27G30G08G04G16
 -24460275.15649 -19022931.00348  20551348.1574   20551351.8764   20551347.853
        57.0004         52.0004
 -20766038.30149 -16136461.56348  20905572.8664   20905574.0604   20905572.698
        54.0004         50.0004
  -6216507.69247  -4814958.11747  23828056.4284   23828060.4164   23828056.328
        47.0004         42.0004
 -10427633.42649  -8083960.21448  22866241.5494   22866246.1114   22866241.900
        54.0004         49.0004
  -7569215.23247  -5885786.02347  23449346.4884   23449353.4494   23449346.675
        47.0004         42.0004
 -17292446.81548 -13428880.06948  21562138.0604   21562140.4744   21562137.471
        53.0004         48.0004
  -7589231.83447  -5867856.64147  23373228.9574   23373231.0584   23373229.162
        47.0004         42.0004
 20  9  1  0  8 30.0000000  0  7G09G07G27G30G08G04G16
 -24471772.03449 -19031889.61548  20549160.4674   20549163.9424   20549160.116
        57.0004         52.0004
 -20791548.26949 -16156339.46148  20900718.7074   20900719.8174   20900718.221
        54.0004         50.0004
  -6238432.86147  -4832042.64647  23823884.4454   23823888.7614   23823884.021
        47.0004         42.0004
 -10491735.91849  -8133910.18648  22854043.3984   22854047.8964   22854043.323
        54.0004         49.0004
  -7636408.13447  -5938144.09547  23436561.5104   23436566.4634   23436561.460
        47.0004         42.0004
 -17237392.72548 -13385980.81048  21572614.4394   21572617.5534   21572613.905
        53.0004         48.0004
  -7507017.04047  -5803793.19247  23388873.6474   23388876.0504   23388874.568
        46.0004         42.0004
 20  9  1  0  9  0.0000000  0  7G09G07G27G30G08G04G16
 -24482856.42249 -19040526.80648  20547051.0594   20547054.7944   20547050.657
        57.0004         52.0004
 -20816775.14649 -16175996.76548  20895918.2314   20895919.6554   20895917.669
        54.0004         50.0004
  -6259881.99347  -4848756.24647  23819801.6994   23819807.6824   23819801.723
        47.0004         42.0004
 -10555665.66649  -8183725.55248  22841877.6064   22841882.2664   22841877.765
        54.0004         49.0004
  -7703306.81447  -5990272.89147  23423830.3644   23423836.3074   23423829.288
        47.0004         42.0004
 -17181978.20948 -13342800.69548  21583159.4244   21583162.2004   21583158.733
        52.0004         48.0004
  -7424536.40647  -5739522.59147  23404569.7214   23404571.3144   23404570.740
        46.0004         42.0004
 20  9  1  0  9 30.0000000  0  7G09G07G27G30G08G04G16
 -24493527.13249 -19048841.64848  20545020.6894   20545024.2614   20545020.248
        57.0004         52.0004
 -20841719.29349 -16195433.76348  20891171.7284   20891172.8424   20891170.909
        54.0004         50.0004
  -6280853.64647  -4865097.78947  23815812.1684   23815815.7584   23815811.935
        47.0004         42.0004
 -10619422.84049  -8233406.44448  22829745.0634   22829749.7484   22829745.090
        54.0004         49.0004
  -7769908.29947  -6042170.10947  23411156.2564   23411161.5354   23411157.014
        47.0004         42.0004
 -17126203.68248 -13299340.04248  21593772.8464   21593775.7364   21593772.493
        52.0004         48.0004
  -7341792.03747  -5675046.47447  23420314.9054   23420317.8574   23420315.118
        46.0004         42.0004
 20  9  1  0 10  0.0000000  0  7G09G07G27G30G08G04G16
 -24503782.64449 -19056832.96048  20543069.0604   20543072.6924   20543068.634
        57.0004         52.0004
 -20866380.92149 -16214650.61548  20886478.6014   20886479.8334   20886478.068
        54.0004         50.0004
  -6301346.22147  -4881066.01047  23811911.3444   23811916.8944   23811910.991
        47.0004         42.0004
 -10683007.25749  -8282952.72148  22817645.2084   22817650.0744   22817645.342
        54.0004         49.0004
  -7836209.38347  -6093833.25547  23398540.0984   23398544.7934   23398539.358
        47.0004         42.0004
 -17070069.21948 -13255598.92748  21604455.5684   21604457.9434   21604454.544
        52.0004         48.0004
  -7258786.86347  -5610367.14147  23436110.5584   23436112.1604   23436110.778
        46.0004         42.0004
 20  9  1  0 10 30.0000000  0  7G09G07G27G30G08G04G16
 -24513621.85449 -19064499.88148  20541196.7854   20541200.4774   20541196.360
        57.0004         52.0004
 -20890760.68149 -16233647.83248  20881839.2234   20881840.6044   20881838.784
        54.0004         50.0004
  -6321358.38647  -4896659.90047  23808103.9934   23808108.0584   23808103.995
        47.0004         42.0004
 -10746419.11749  -8332364.53448  22805578.4584   22805583.1114   22805578.767
        54.0004         49.0004
  -7902207.22147  -6145260.10547  23385981.1414   23385986.5874   23385981.182
        47.0004         42.0004
 -17013575.25248 -13211577.67848  21615205.7884   21615208.1844   21615205.143
        52.0004         48.0004
  -7175522.64747  -5545485.95946  23451955.4754   23451957.3704   23451955.763
        46.0004         41.0004
 20  9  1  0 11  0.0000000  0  7G09G07G27G30G08G04G16
 -24523043.36649 -19071841.32048  20539403.8364   20539407.5214   20539403.535
        57.0004         52.0004
 -20914858.50249 -16252425.35248  20877253.6004   20877254.8404   20877252.934
        54.0004         50.0004
  -6340888.57147  -4911878.21047  23804386.8494   23804391.5854   23804386.198
        47.0004         42.0004
 -10809658.33149  -8381641.82448  22793544.4414   22793548.8104   22793544.278
        54.0004         49.0004
  -7967899.33147  -6196448.72247  23373479.9624   23373485.3754   23373479.363
        47.0004         42.0004
 -16956721.98548 -13167276.45248  21626024.5184   21626027.4894   21626024.076
        52.0004         48.0004
  -7092002.24547  -5480405.13546  23467849.4464   23467851.2294   23467848.851
        46.0004         41.0004
 20  9  1  0 11 30.0000000  0  7G09G07G27G30G08G04G16
 -24532045.88549 -19078856.27248  20537690.7474   20537694.3424   20537690.465
        57.0004         52.0004
 -20938674.98949 -16270983.64948  20872721.6764   20872722.6044   20872721.029
        55.0004         50.0004
  -6359935.33147  -4926719.82747  23800762.7534   23800766.4674   23800762.459
        47.0004         43.0004
 -10872724.88149  -8430784.57248  22781543.1664   22781547.8584   22781543.011
        54.0004         49.0004
  -8033282.41747  -6247396.52547  23361038.3514   23361042.7564   23361038.141
        47.0004         42.0004
 -16899509.67948 -13122695.46348  21636911.4784   21636914.4734   21636910.933
        52.0004         48.0004
  -7008227.94747  -5415126.49247  23483791.0254   23483792.4074   23483790.518
        46.0004         42.0004
 20  9  1  0 12  0.0000000  0  7G09G07G27G30G08G04G16
 -24540628.29649 -19085543.87248  20536057.6844   20536061.0384   20536057.255
        57.0004         52.0004
 -20962210.65649 -16289323.12748  20868242.7664   20868244.1064   20868242.351
        54.0004         50.0004
  -6378497.45647  -4941183.79747  23797230.6434   23797235.5564   23797230.038
        47.0004         43.0004
 -10935618.96949  -8479792.92448  22769574.4264   22769579.3264   22769575.136
        54.0004         49.0004
  -8098353.89847  -6298101.54347  23348655.2764   23348660.3204   23348655.338
        47.0004         42.0004
 -16841938.83648 -13077835.09647  21647866.7334   21647869.7904   21647866.596
        52.0004         47.0004
  -6924202.28347  -5349651.97546  23499780.2554   23499781.3994   23499779.982
        46.0004         41.0004
 20  9  1  0 12 30.0000000  0  7G09G07G27G30G08G04G16
 -24548789.13449 -19091902.97148  20534504.7134   20534508.1704   20534504.326
        57.0004         52.0004
 -20985465.67249 -16307443.91448  20863817.3214   20863818.6714   20863816.749
        54.0004         50.0004
  -6396573.30947  -4955268.87447  23793790.5524   23793796.0334   23793790.178
        47.0004         43.0004
 -10998340.44549  -8528666.77848  22757639.1234   22757643.8794   22757638.641
        54.0004         49.0004
  -8163110.82747  -6348561.45147  23336332.0934   23336337.4524   23336331.415
        47.0004         42.0004
 -16784009.54148 -13032695.41247  21658890.6294   21658893.8254   21658890.033
        52.0004         47.0004
  -6839927.25047  -5283983.14546  23515817.5624   23515819.2184   23515818.382
        46.0004         41.0004
 20  9  1  0 13  0.0000000  0  8G09G07G27G30G08G05G04G16
 -24556527.28549 -19097932.70648  20533032.1674   20533035.6494   20533031.808
        56.0004         52.0004
 -21008440.31649 -16325346.23048  20859445.5674   20859446.7434   20859445.319
        54.0004         50.0004
  -6414161.67247  -4968974.08247  23790444.5634   23790447.8054   23790443.907
        47.0004         43.0004
 -11060889.46049  -8577406.24448  22745736.4374   22745741.3504   22745736.939
        54.0004         49.0004
  -8227550.34047  -6398774.01547  23324070.4774   23324075.8104   23324069.214
        47.0004         42.0004
   -164483.87848    -89415.65447  25244923.5284   25244924.7154   25244922.874
        52.0004         43.0004
 -16725722.31148 -12987276.81948  21669982.4224   21669985.4744   21669981.718
        52.0004         48.0004
  -6755405.25347  -5218121.86646  23531900.8554   23531904.0784   23531901.176
        46.0004         41.0004
 20  9  1  0 13 30.0000000  0  8G09G07G27G30G08G05G04G16
 -24563841.37949 -19103632.00248  20531640.1454   20531643.9194   20531639.779
        57.0004         52.0004
 -21031135.24649 -16343030.58748  20855126.7624   20855128.3254   20855126.427
        55.0004         50.0004
  -6431261.09648  -4982298.27347  23787189.8364   23787194.6564   23787189.947
        48.0004         43.0004
 -11123265.86049  -8626011.21548  22733866.7464   22733871.5314   22733866.828
        54.0004         49.0004
  -8291669.15947  -6448736.68147  23311868.2244   23311873.7704   23311866.899
        47.0004         42.0004
   -244428.09548   -151709.78347  25229710.8904   25229712.9294   25229709.857
        49.0004         42.0004
 -16667077.32948 -12941579.46347  21681142.3504   21681145.1764   21681141.572
        52.0004         47.0004
  -6670638.88247  -5152070.17746  23548031.0374   23548033.7044   23548031.286
        46.0004         41.0004
 20  9  1  0 14  0.0000000  0  8G09G07G27G30G08G05G04G16
 -24570730.38349 -19109000.06448  20530329.4364   20530333.0314   20530329.017
        57.0004         52.0004
 -21053550.72249 -16360497.19448  20850861.6324   20850862.7064   20850860.596
        55.0004         50.0004
  -6447870.38947  -4995240.57947  23784030.1524   23784033.5334   23784029.702
        47.0004         43.0004
 -11185469.93249  -8674481.90148  22722029.4724   22722034.3794   22722029.376
        54.0004         49.0004
  -8355464.58547  -6498447.37547  23299728.6134   23299734.2824   23299727.931
        47.0004         42.0004
   -324033.16747   -213739.69747  25214563.0194   25214564.2314   25214561.934
        47.0004         42.0004
 -16608075.12848 -12895603.75747  21692369.5234   21692373.0274   21692369.249
        52.0004         47.0004
  -6585630.67947  -5085830.03946  23564207.6114   23564210.7634   23564208.743
        46.0004         41.0004
 20  9  1  0 14 30.0000000  0  8G09G07G27G30G08G05G04G16
 -24577192.85049 -19114035.75948  20529099.7134   20529103.2284   20529099.335
        57.0004         52.0004
 -21075686.79649 -16377746.07148  20846648.8464   20846650.3114   20846648.398
        55.0004         50.0004
  -6463988.07148  -5007799.78347  23780963.1664   23780966.3394   23780963.305
        48.0004         43.0004
 -11247501.41449  -8722818.09148  22710225.4494   22710229.9174   22710225.235
        54.0004         50.0004
  -8418934.54047  -6547904.44247  23287650.4174   23287656.1074   23287650.559
        47.0004         42.0004
   -403296.37147   -275503.23247  25199478.4964   25199479.6964   25199477.591
        47.0004         42.0004
 -16548715.86648 -12849349.81747  21703665.5024   21703668.7174   21703664.840
        52.0004         47.0004
  -6500382.70547  -5019403.07546  23580430.8334   23580432.2184   23580431.243
        46.0004         41.0004
 20  9  1  0 15  0.0000000  0  8G09G07G27G30G08G05G04G16
 -24583227.72149 -19118738.26148  20527951.2214   20527954.8634   20527950.713
        57.0004         52.0004
 -21097544.34649 -16394777.92248  20842489.8404   20842490.9634   20842489.099
        55.0004         50.0004
  -6479612.94748  -5019974.99447  23777989.0634   23777991.7394   23777988.762
        48.0004         43.0004
 -11309360.48449  -8771019.93748  22698454.3534   22698458.4694   22698454.266
        54.0004         50.0004
  -8482074.96747  -6597104.74847  23275635.3164   23275640.2024   23275635.704
        47.0004         42.0004
   -482215.52347   -336998.66347  25184461.3934   25184463.1664   25184460.565
        47.0004         42.0004
 -16489000.09148 -12802818.07647  21715029.4124   21715032.6804   21715028.274
        52.0004         47.0004
  -6414897.40947  -4952791.18546  23596697.9944   23596699.4554   23596698.568
        46.0004         41.0004
 20  9  1  0 15 30.0000000  0  8G09G07G27G30G08G05G04G16
 -24588833.71649 -19123106.57448  20526884.3844   20526888.1664   20526884.122
        57.0004         52.0004
 -21119123.58449 -16411592.91048  20838383.2454   20838384.2824   20838382.665
        55.0004         50.0004
  -6494743.75348  -5031765.20247  23775110.1004   23775115.3844   23775109.678
        48.0004         43.0004
 -11371047.13549  -8819087.42848  22686715.5294   22686719.9324   22686715.375
        54.0004         50.0004
  -8544883.95447  -6646046.78047  23263682.5564   23263688.7474   23263682.954
        47.0004         42.0004
   -560788.32447   -398224.18147  25169509.6664   25169510.7294   25169509.929
        46.0004         42.0004
 -16428928.13548 -12756008.78947  21726460.2524   21726463.1824   21726459.796
        52.0004         47.0004
  -6329177.14447  -4885996.19446  23613009.9544   23613011.0344   23613009.365
        46.0004         41.0004
 20  9  1  0 16  0.0000000  0  8G09G07G27G30G08G05G04G16
 -24594009.69749 -19127139.81048  20525899.6264   20525903.0964   20525898.978
        57.0004         52.0004
 -21140424.87249 -16428191.31348  20834329.8464   20834331.0384   20834329.148
        55.0004         50.0004
  -6509379.23048  -5043169.45547  23772324.4364   23772327.9774   23772324.471
        48.0004         43.0004
 -11432561.45249  -8867020.63948  22675009.8554   22675014.0654   22675009.962
        54.0004         50.0004
  -8607358.13547  -6694727.93247  23251794.4714   23251799.5184   23251794.139
        47.0004         42.0004
   -639013.08847   -459178.53846  25154622.9444   25154624.8474   25154623.337
        46.0004         41.0004
 -16368500.40048 -12708922.26947  21737959.5304   21737962.9214   21737958.792
        52.0004         47.0004
  -6243224.41647  -4819020.05746  23629365.9674   23629368.0914   23629366.213
        45.0004         41.0004
 20  9  1  0 16 30.0000000  0  8G09G07G27G30G08G05G04G16
 -24598754.48749 -19130837.05048  20524996.6034   20525000.2984   20524996.170
        57.0004         52.0004
 -21161448.44549 -16444573.31248  20830329.0734   20830330.3524   20830328.619
        55.0004         50.0004
  -6523518.10748  -5054186.73647  23769634.2914   23769638.5094   23769633.976
        48.0004         43.0004
 -11493903.38849  -8914819.52448  22663337.0214   22663341.1164   22663336.843
        55.0004         50.0004
  -8669494.92147  -6743146.18547  23239970.6134   23239975.6894   23239970.293
        47.0004         43.0004
   -716887.49947   -519859.89247  25139803.7124   25139805.7294   25139802.925
        46.0004         42.0004
 -16307717.30748 -12661558.85347  21749526.2994   21749528.9134   21749525.636
        52.0004         47.0004
  -6157041.51147  -4751864.58446  23645766.7674   23645767.8074   23645766.937
        45.0004         41.0004
 20  9  1  0 17  0.0000000  0  8G09G07G27G30G08G05G04G16
 -24603066.82749 -19134197.32348  20524176.0774   20524179.4604   20524175.735
        57.0004         52.0004
 -21182194.66249 -16460739.19248  20826381.2274   20826382.3474   20826380.743
        55.0004         50.0004
  -6537159.17548  -5064816.11947  23767037.8724   23767042.7234   23767037.821
        48.0004         43.0004
 -11555072.94049  -8962484.08748  22651696.8684   22651700.9414   22651696.754
        55.0004         50.0004
  -8731291.67647  -6791299.46647  23228211.1494   23228216.8064   23228209.811
        47.0004         43.0004
   -794408.24847   -580265.63147  25125051.9844   25125052.9854   25125052.284
        46.0004         42.0004
 -16246579.18948 -12613918.78747  21761160.1234   21761163.2304   21761160.087
        52.0004         47.0004
  -6070630.69547  -4684531.50146  23662209.1494   23662210.9284   23662210.572
        45.0004         41.0004
 20  9  1  0 17 30.0000000  0  8G09G07G27G30G08G05G04G16
 -24606945.70149 -19137219.82548  20523437.7534   20523441.5444   20523437.329
        57.0004         52.0004
 -21202664.03849 -16476689.35048  20822485.9444   20822487.1774   20822485.393
        55.0004         50.0004
  -6550301.29947  -5075056.71247  23764537.3204   23764540.9974   23764536.629
        47.0004         43.0004
 -11616070.24949  -9010014.43248  22640089.3124   22640093.7634   22640089.064
        55.0004         50.0004
  -8792745.50647  -6839185.55047  23216516.8004   23216521.8024   23216516.161
        47.0004         43.0004
   -871573.48747   -640394.38747  25110369.2894   25110370.6194   25110368.640
        47.0004         42.0004
 -16185086.62148 -12566002.52947  21772862.2194   21772865.0064   21772861.537
        52.0004         47.0004
  -5983994.50147  -4617022.79146  23678696.9264   23678698.1774   23678695.458
        45.0004         41.0004
 20  9  1  0 18  0.0000000  0  8G09G07G27G30G08G05G04G16
 -24610389.85549 -19139903.58748  20522782.3824   20522786.1294   20522781.965
        57.0004         52.0004
 -21222856.83449 -16492423.99448  20818643.3944   20818644.9144   20818643.005
        55.0004         50.0004
  -6562943.30048  -5084907.59947  23762131.0254   23762136.2974   23762131.362
        48.0004         43.0004
 -11676895.21049  -9057410.48348  22628514.6654   22628519.0634   22628514.552
        55.0004         50.0004
  -8853853.35948  -6886802.03647  23204888.4374   23204894.0404   23204887.936
        48.0004         43.0004
   -948381.12347   -700244.46447  25095751.0104   25095753.6294   25095749.843
        47.0004         42.0004
 -16123239.96248 -12517810.35547  21784631.0094   21784634.6584   21784630.478
        52.0004         47.0004
  -5897135.36147  -4549340.36446  23695224.6724   23695227.2954   23695225.030
        45.0004         41.0004
 20  9  1  0 18 30.0000000  0  8G09G07G27G30G08G05G04G16
 -24613398.22449 -19142247.77948  20522209.8304   20522213.5334   20522209.732
        57.0004         52.0004
 -21242773.55049 -16507943.51448  20814853.3964   20814854.5824   20814852.992
        55.0004         50.0004
  -6575084.06647  -5094367.93547  23759821.4054   23759825.3454   23759820.407
        47.0004         43.0004
 -11737548.00149  -9104672.38548  22616972.7894   22616977.1254   22616973.188
        55.0004         50.0004
  -8914612.87748  -6934147.09247  23193326.1614   23193330.8364   23193326.172
        48.0004         43.0004
  -1024829.12547   -759814.34047  25081206.2224   25081207.8574   25081205.352
        47.0004         42.0004
 -16061039.72648 -12469342.66747  21796467.5744   21796470.6134   21796466.874
        52.0004         47.0004
  -5810055.19747  -4481485.71746  23711796.0074   23711797.1814   23711797.112
        45.0004         41.0004
 20  9  1  0 19  0.0000000  0  8G09G07G27G30G08G05G04G16
 -24615969.64349 -19144251.48648  20521720.6044   20521724.2404   20521720.219
        57.0004         52.0004
 -21262414.37449 -16523248.05048  20811115.9834   20811117.0064   20811115.361
        55.0004         50.0004
  -6586722.41747  -5103436.76147  23757606.7014   23757609.8554   23757606.734
        47.0004         43.0004
 -11798028.56449  -9151800.07348  22605463.3714   22605467.9804   22605463.681
        55.0004         50.0004
  -8975020.91948  -6981218.28047  23181830.8604   23181836.6154   23181830.949
        48.0004         43.0004
  -1100915.07947   -819102.05947  25066726.0934   25066728.5154   25066724.349
        46.0004         42.0004
 -15998486.33648 -12420599.79447  21808370.7944   21808374.2934   21808370.562
        52.0004         47.0004
  -5722756.74747  -4413460.97446  23728408.8494   23728410.1344   23728408.601
        45.0004         41.0004
 20  9  1  0 19 30.0000000  0  8G09G07G27G30G08G05G04G16
 -24618103.03149 -19145913.87248  20521314.5484   20521318.4184   20521314.350
        57.0004         52.0004
 -21281779.70849 -16538337.91648  20807430.7284   20807431.9164   20807430.252
        55.0004         50.0004
  -6597857.30147  -5112113.26247  23755488.5744   23755492.2474   23755488.657
        47.0004         43.0004
 -11858336.95849  -9198793.60248  22593987.1134   22593991.5774   22593986.964
        55.0004         50.0004
  -9035074.92948  -7028013.58747  23170402.8864   23170407.9324   23170402.499
        48.0004         43.0004
  -1176636.74247   -878105.94247  25052317.2684   25052319.1554   25052316.024
        47.0004         42.0004
 -15935580.32548 -12371582.14847  21820341.3624   21820344.3834   21820341.147
        52.0004         47.0004
  -5635242.40747  -4345267.99746  23745062.3014   23745064.3244   23745061.252
        45.0004         40.0004
 20  9  1  0 20  0.0000000  0  8G09G07G27G30G08G05G04G16
 -24619797.29849 -19147234.08548  20520992.2394   20520995.9534   20520991.809
        57.0004         52.0004
 -21300870.09149 -16553213.53848  20803798.2384   20803799.0944   20803797.610
        55.0004         50.0004
  -6608487.62847  -5120396.62847  23753464.4874   23753469.5974   23753464.871
        47.0004         43.0004
 -11918473.18749  -9245652.98148  22582543.6094   22582548.2324   22582543.756
        55.0004         51.0004
  -9094772.39248  -7074531.08047  23159042.6074   23159048.5504   23159042.879
        48.0004         44.0004
  -1251991.88547   -936824.19647  25037977.0694   25037978.3114   25037978.161
        46.0004         42.0004
 -15872322.13248 -12322290.07547  21832379.4044   21832382.2134   21832378.888
        52.0004         47.0004
  -5547514.37347  -4276908.50746  23761755.8224   23761757.7664   23761755.785
        45.0004         41.0004
 20  9  1  0 20 30.0000000  0  8G09G07G27G30G08G05G04G16
 -24621051.31949 -19148211.24848  20520753.7214   20520757.3824   20520753.127
        57.0004         52.0004
 -21319685.86049 -16567875.17448  20800217.6914   20800218.6344   20800216.867
        55.0004         50.0004
  -6618612.28747  -5128285.96747  23751538.2844   23751542.7484   23751537.853
        47.0004         42.0004
 -11978437.28049  -9292378.23748  22571132.9444   22571137.4694   22571132.995
        55.0004         51.0004
  -9154109.71248  -7120767.93447  23147751.1134   23147756.1954   23147751.033
        48.0004         44.0004
  -1326978.58247   -995255.37047  25023707.9394   25023709.5924   25023707.410
        46.0004         42.0004
 -15808712.26748 -12272723.97047  21844484.1584   21844486.7454   21844483.207
        52.0004         47.0004
  -5459574.94047  -4208384.30346  23778491.1914   23778492.3774   23778489.430
        45.0004         40.0004
 20  9  1  0 21  0.0000000  0  8G09G07G27G30G08G05G04G16
 -24621864.10749 -19148844.59448  20520598.8584   20520602.4924   20520598.528
        57.0004         52.0004
 -21338227.05649 -16582322.86048  20796689.4314   20796690.3614   20796688.767
        55.0004         50.0004
  -6628230.37647  -5135780.57047  23749708.2024   23749711.6154   23749707.675
        47.0004         43.0004
 -12038229.32949  -9338969.41948  22559754.7084   22559759.4294   22559754.499
        55.0004         51.0004
  -9213084.95448  -7166722.64747  23136528.3984   23136533.4284   23136528.216
        48.0004         44.0004
  -1401594.24047  -1053397.43747  25009508.5864   25009511.0434   25009506.437
        47.0004         42.0004
 -15744751.33648 -12222884.30747  21856655.4874   21856658.5344   21856654.792
        52.0004         47.0004
  -5371426.80847  -4139697.45546  23795264.5654   23795265.4584   23795263.830
        45.0004         41.0004
 20  9  1  0 21 30.0000000  0  8G09G07G27G30G08G05G04G16
 -24622234.47549 -19149133.19448  20520528.4214   20520532.0734   20520528.247
        57.0004         52.0004
 -21356494.24549 -16596557.03048  20793213.0824   20793214.2854   20793212.293
        55.0004         50.0004
  -6637340.72647  -5142879.53247  23747974.3394   23747977.7024   23747973.713
        47.0004         42.0004
 -12097849.25249  -9385426.47948  22548409.4194   22548414.3674   22548409.588
        55.0004         51.0004
  -9271695.27748  -7212393.02147  23125375.6024   23125380.5944   23125375.337
        48.0004         44.0004
  -1475836.81047  -1111248.77747  24995380.5184   24995382.5304   24995381.076
        47.0004         42.0004
 -15680439.73848 -12172771.39947  21868893.5364   21868895.9974   21868892.758
        52.0004         47.0004
  -5283071.82447  -4070849.43446  23812077.6684   23812079.8964   23812077.308
        45.0004         40.0004
 20  9  1  0 22  0.0000000  0  8G09G07G27G30G08G05G04G16
 -24622161.46049 -19149076.30848  20520542.2524   20520546.0974   20520542.082
        57.0004         52.0004
 -21374488.06949 -16610578.19048  20789789.0044   20789790.0924   20789788.400
        55.0004         50.0004
  -6645942.38847  -5149582.12347  23746337.1224   23746341.0074   23746336.740
        47.0004         42.0004
 -12157297.15249  -9431749.49948  22537096.7214   22537101.5474   22537097.029
        55.0004         51.0004
  -9329937.95148  -7257776.91147  23114292.6564   23114297.9074   23114291.885
        48.0004         44.0004
  -1549703.61547  -1168807.32347  24981324.1124   24981325.9774   24981324.156
        47.0004         42.0004
 -15615778.09548 -12122385.73347  21881198.2494   21881201.1214   21881197.787
        52.0004         47.0004
  -5194512.74547  -4001842.39646  23828929.2464   23828930.8194   23828929.428
        45.0004         40.0004
 20  9  1  0 22 30.0000000  0  8G09G07G27G30G08G05G04G16
 -24621644.09449 -19148673.17648  20520640.9404   20520644.5214   20520640.449
        57.0004         52.0004
 -21392208.71249 -16624386.48648  20786416.9554   20786418.0294   20786416.454
        55.0004         50.0004
  -6654034.49047  -5155887.64547  23744797.8254   23744801.8844   23744797.130
        47.0004         43.0004
 -12216573.12449  -9477938.54748  22525817.1274   22525821.6694   22525817.052
        55.0004         51.0004
  -9387810.28748  -7302872.23347  23103279.7724   23103284.6964   23103279.088
        48.0004         44.0004
  -1623192.93247  -1226071.70047  24967339.7294   24967341.7804   24967338.959
        47.0004         43.0004
 -15550767.00048 -12071727.76047  21893569.1034   21893572.1024   21893569.002
        52.0004         47.0004
  -5105751.56047  -3932677.83446  23845820.8274   23845822.5934   23845821.284
        45.0004         40.0004
 20  9  1  0 23  0.0000000  0  8G09G07G27G30G08G05G04G16
 -24620681.17949 -19147922.85848  20520824.2534   20520827.8534   20520823.571
        57.0004         52.0004
 -21409656.42149 -16637982.10048  20783096.8354   20783097.7664   20783096.119
        55.0004         50.0004
  -6661615.93047  -5161795.24747  23743355.1754   23743359.2274   23743354.382
        47.0004         43.0004
 -12275677.04449  -9523993.52348  22514570.1284   22514574.7274   22514569.837
        55.0004         51.0004
  -9445309.52848  -7347676.81047  23092338.1474   23092343.2674   23092337.066
        48.0004         44.0004
  -1696303.29947  -1283040.80147  24953427.5954   24953428.9364   24953426.287
        47.0004         42.0004
 -15485406.86548 -12020797.80847  21906007.2384   21906010.3774   21906006.436
        52.0004         47.0004
  -5016790.78547  -3863357.77846  23862749.1084   23862751.2684   23862749.164
        45.0004         40.0004
 20  9  1  0 23 30.0000000  0  8G09G07G27G30G08G05G04G16
 -24619271.83749 -19146824.67448  20521092.1984   20521095.9834   20521092.022
        57.0004         52.0004
 -21426831.65249 -16651365.39948  20779828.4534   20779829.1364   20779827.505
        55.0004         50.0004
  -6668685.88847  -5167304.28747  23742009.5354   23742013.4584   23742008.840
        47.0004         42.0004
 -12334609.06349  -9569914.55548  22503355.6744   22503360.0974   22503355.779
        56.0004         51.0004
  -9502432.72648  -7392188.38047  23081467.3394   23081473.3744   23081466.954
        48.0004         44.0004
  -1769031.49047  -1339712.13647  24939587.2264   24939590.0694   24939586.811
        47.0004         43.0004
 -15419698.45948 -11969596.48547  21918511.8874   21918513.9764   21918510.307
        51.0004         47.0004
  -4927632.74647  -3793884.02246  23879715.2854   23879717.7794   23879715.449
        45.0004         40.0004
 20  9  1  0 24  0.0000000  0  8G09G07G27G30G08G05G04G16
 -24617415.02949 -19145377.81848  20521445.5714   20521449.4344   20521445.429
        57.0004         52.0004
 -21443734.70549 -16664536.60848  20776611.6304   20776612.8374   20776611.371
        55.0004         50.0004
  -6675243.43847  -5172414.04647  23740761.8624   23740765.4134   23740761.115
        47.0004         43.0004
 -12393369.15549  -9615701.61348  22492173.8524   22492178.1484   22492174.087
        56.0004         51.0004
  -9559177.48648  -7436405.06147  23070669.8404   23070674.2024   23070669.326
        48.0004         44.0004
  -1841375.67247  -1396084.18847  24925821.4464   24925822.5584   24925820.343
        47.0004         42.0004
 -15353642.20148 -11918124.09847  21931080.8724   21931084.4554   21931080.320
        51.0004         47.0004
  -4838279.97947  -3724258.49646  23896718.8464   23896720.1164   23896718.529
        45.0004         40.0004
 20  9  1  0 24 30.0000000  0  8G09G07G27G30G08G05G04G16
 -24615109.83349 -19143581.57148  20521884.4424   20521888.0614   20521883.807
        57.0004         52.0004
 -21460366.01749 -16677496.07848  20773447.0624   20773448.0974   20773446.332
        55.0004         50.0004
  -6681287.75547  -5177123.88247  23739610.3414   23739614.3334   23739610.550
        47.0004         42.0004
 -12451957.44849  -9661354.79348  22481025.3364   22481029.1544   22481025.159
        54.0004         48.0004
  -9615541.13948  -7480324.78147  23059943.8444   23059948.9694   23059943.405
        48.0004         44.0004
  -1913334.23647  -1452155.80047  24912127.2764   24912129.3044   24912126.954
        47.0004         43.0004
 -15287238.78748 -11866381.20847  21943717.3844   21943720.8294   21943716.487
        51.0004         47.0004
  -4748734.60247  -3654482.89946  23913758.6784   23913761.3394   23913758.260
        45.0004         40.0004
 20  9  1  0 25  0.0000000  0  8G09G07G27G30G08G05G04G16
 -24612355.17649 -19141435.09148  20522408.2754   20522412.2414   20522408.086
        57.0004         52.0004
 -21476725.78649 -16690243.95148  20770333.6144   20770335.0204   20770333.075
        55.0004         50.0004
  -6686817.82347  -5181433.01147  23738558.3824   23738563.0574   23738558.473
        47.0004         42.0004
 -12510373.81548  -9706874.01448  22469908.8674   22469913.2074   22469908.521
        53.0004         48.0004
  -9671520.96448  -7523945.41847  23049290.5454   23049296.6214   23049290.956
        48.0004         44.0004
  -1984904.37348  -1507924.73847  24898507.7614   24898510.8084   24898507.065
        48.0004         43.0004
 -15220488.77448 -11814368.24847  21956419.1324   21956422.2994   21956418.600
        51.0004         47.0004
  -4658999.11747  -3584559.17246  23930834.5104   23930836.3414   23930834.281
        45.0004         40.0004
 20  9  1  0 25 30.0000000  0  8G09G07G27G30G08G05G04G16
 -24609150.24649 -19138937.75548  20523018.4194   20523022.1914   20523018.217
        57.0004         52.0004
 -21492814.75549 -16702780.81748  20767271.9964   20767273.3484   20767271.708
        55.0004         50.0004
  -6691833.02547  -5185340.93047  23737604.5994   23737608.8074   23737604.596
        47.0004         43.0004
 -12568618.46748  -9752259.43747  22458824.6274   22458828.6734   22458825.260
        52.0004         46.0004
  -9727114.71448  -7567265.20947  23038711.6054   23038717.5074   23038712.007
        48.0004         44.0004
  -2056084.15347  -1563389.47147  24884963.4204   24884964.9654   24884963.264
        47.0004         43.0004
 -15153392.90948 -11762085.78347  21969186.8434   21969190.0584   21969186.776
        51.0004         47.0004
  -4569075.54547  -3514488.88846  23947947.2634   23947948.0124   23947946.388
        45.0004         40.0004
 20  9  1  0 26  0.0000000  0  8G09G07G27G30G08G05G04G16
 -24605493.88849 -19136088.64948  20523714.0624   20523717.8494   20523713.434
        57.0004         52.0004
 -21508632.89749 -16715106.63848  20764261.8154   20764263.2364   20764261.461
        55.0004         50.0004
  -6696332.29347  -5188846.81747  23736748.0074   23736752.7554   23736747.580
        47.0004         43.0004
 -12626691.19148  -9797510.88347  22447774.4224   22447778.6624   22447774.526
        51.0004         46.0004
  -9782318.99448  -7610281.51147  23028207.7134   23028212.0054   23028206.909
        48.0004         44.0004
  -2126871.98348  -1618548.83047  24871492.1464   24871494.9494   24871491.179
        48.0004         43.0004
 -15085951.53448 -11709534.09147  21982020.5104   21982023.8934   21982020.442
        51.0004         47.0004
  -4478965.98347  -3444273.65946  23965093.3654   23965095.6694   23965094.016
        44.0004         40.0004
 20  9  1  0 26 30.0000000  0  8G09G07G27G30G08G05G04G16
 -24601385.31749 -19132887.17148  20524495.8814   20524499.6924   20524495.701
        57.0004         52.0004
 -21524180.77549 -16727221.86748  20761303.4474   20761304.4164   20761302.758
        55.0004         50.0004
  -6700315.00247  -5191950.20847  23735990.0444   23735995.2704   23735990.250
        47.0004         43.0004
 -12684592.18848  -9842628.52347  22436756.8014   22436760.2024   22436756.281
        50.0004         46.0004
  -9837131.94848  -7652992.89247  23017777.0144   23017781.1674   23017776.157
        49.0004         44.0004
  -2197264.77448  -1673400.34547  24858096.8814   24858099.1774   24858096.126
        48.0004         43.0004
 -15018165.55348 -11656713.87347  21994920.1314   21994923.6484   21994919.297
        51.0004         47.0004
  -4388673.48447  -3373915.90546  23982276.1044   23982277.1634   23982276.260
        44.0004         40.0004
 20  9  1  0 27  0.0000000  0  8G09G07G27G30G08G05G04G16
 -24596823.59749 -19129332.59448  20525364.2084   20525367.6974   20525363.788
        57.0004         52.0004
 -21539458.87049 -16739126.87248  20758395.8764   20758397.0854   20758395.378
        55.0004         50.0004
  -6703780.39147  -5194650.48947  23735330.8334   23735334.4974   23735329.956
        47.0004         42.0004
 -12742321.52348  -9887612.39947  22425771.0084   22425774.3904   22425770.572
        50.0004         46.0004
  -9891550.59548  -7695397.01047  23007421.1574   23007426.8164   23007420.535
        48.0004         44.0004
  -2267261.01748  -1727942.88147  24844776.7614   24844779.3914   24844776.162
        48.0004         43.0004
 -14950035.58648 -11603625.61847  22007884.8644   22007888.1374   22007884.101
        51.0004         47.0004
  -4298200.02547  -3303417.12246  23999492.4394   23999495.7574   23999491.256
        44.0004         40.0004
 20  9  1  0 27 30.0000000  0  8G09G07G27G30G08G05G04G16
 -24591807.80149 -19125424.19048  20526318.3924   20526322.2904   20526318.128
        57.0004         52.0004
 -21554467.17649 -16750821.65748  20755540.2164   20755541.2674   20755539.607
        55.0004         50.0004
  -6706727.64447  -5196947.01247  23734770.4084   23734774.5504   23734769.947
        47.0004         42.0004
 -12799879.10748  -9932462.44047  22414817.4524   22414821.6964   22414817.711
        50.0004         46.0004
  -9945572.22348  -7737491.76547  22997141.1494   22997145.8084   22997141.169
        48.0004         44.0004
  -2336858.54948  -1782174.70547  24831533.9064   24831535.9764   24831532.973
        48.0004         43.0004
 -14881562.23348 -11550269.78747  22020914.9164   22020918.6794   22020914.366
        51.0004         47.0004
  -4207547.75047  -3232779.01846  24016742.8924   24016744.8044   24016742.658
        44.0004         39.0004
 20  9  1  0 28  0.0000000  0  8G09G07G27G30G08G05G04G16
 -24586337.09749 -19121161.31148  20527359.6654   20527363.3484   20527359.206
        57.0004         52.0004
 -21569206.37849 -16762306.74848  20752735.1124   20752736.4744   20752734.879
        55.0004         50.0004
  -6709156.11047  -5198839.30247  23734307.5204   23734311.8844   23734307.016
        47.0004         42.0004
 -12857265.07248  -9977178.76347  22403897.6474   22403901.1114   22403897.140
        50.0004         46.0004
  -9999194.96648  -7779275.69547  22986936.6514   22986941.7524   22986936.590
        48.0004         44.0004
  -2406055.44448  -1836094.36247  24818365.8114   24818368.8374   24818364.868
        48.0004         43.0004
 -14812746.27448 -11496646.99847  22034009.7504   22034013.2714   22034009.661
        51.0004         47.0004
  -4116719.22747  -3162003.57446  24034027.3394   24034028.7844   24034026.978
        44.0004         40.0004
 20  9  1  0 28 30.0000000  0  8G09G07G27G30G08G05G04G16
 -24580410.59449 -19116543.26448  20528487.3884   20528491.0464   20528487.002
        57.0004         52.0004
 -21583676.80649 -16773582.40648  20749981.8924   20749982.9134   20749981.221
        55.0004         50.0004
  -6711065.09247  -5200326.79347  23733944.6824   23733948.5654   23733943.348
        47.0004         42.0004
 -12914479.41548 -10021761.34947  22393010.6864   22393013.9724   22393010.229
        50.0004         46.0004
 -10052415.79748  -7820746.45147  22976809.6614   22976814.2264   22976809.247
        48.0004         44.0004
  -2474850.04148  -1889700.51047  24805274.7254   24805276.6704   24805273.961
        48.0004         44.0004
 -14743588.31048 -11442757.70747  22047170.4114   22047174.1444   22047169.754
        51.0004         47.0004
  -4025716.62247  -3091092.47946  24051345.2104   24051345.1324   24051345.051
        44.0004         39.0004
 20  9  1  0 29  0.0000000  0  8G09G07G27G30G08G05G04G16
 -24574027.36949 -19111569.33248  20529702.1934   20529705.7984   20529701.750
        57.0004         52.0004
 -21597878.61149 -16784648.74848  20747279.2974   20747280.3104   20747278.835
        55.0004         50.0004
  -6712453.83247  -5201408.91847  23733679.9164   23733684.3934   23733679.612
        47.0004         42.0004
 -12971522.11648 -10066210.18647  22382155.4294   22382159.2204   22382155.272
        50.0004         46.0004
 -10105231.90248  -7861901.83747  22966758.6794   22966763.6114   22966758.419
        48.0004         44.0004
  -2543239.74248  -1942991.19747  24792260.3324   24792263.2214   24792259.888
        48.0004         43.0004
 -14674089.05548 -11388602.48447  22060395.5594   22060398.8754   22060395.263
        51.0004         47.0004
  -3934542.05547  -3020047.38346  24068693.6844   24068695.7914   24068694.827
        44.0004         39.0004
 20  9  1  0 29 30.0000000  0  8G09G07G27G30G08G05G04G16
 -24567186.58149 -19106238.85748  20531004.0794   20531007.5374   20531003.450
        57.0004         52.0004
 -21611812.30549 -16795506.16748  20744627.8924   20744628.7974   20744627.156
        55.0004         50.0004
  -6713321.64247  -5202085.10947  23733515.9894   23733519.2724   23733516.100
        47.0004         43.0004
 -13028393.18248 -10110525.28347  22371332.7304   22371337.1194   22371332.711
        50.0004         46.0004
 -10157641.28548  -7902740.28247  22956786.2924   22956790.8824   22956785.413
        48.0004         43.0004
  -2611222.35548  -1995964.64147  24779324.7324   24779325.6954   24779324.368
        48.0004         44.0004
 -14604249.17248 -11334181.82447  22073685.7874   22073689.1494   22073685.173
        51.0004         47.0004
  -3843198.04447  -2948870.25246  24086076.1244   24086078.8764   24086076.256
        44.0004         39.0004
 20  9  1  0 30  0.0000000  0  8G09G07G27G30G08G05G04G16
 -24559887.52149 -19100551.28548  20532392.8614   20532396.4514   20532392.406
        57.0004         52.0004
 -21625478.45149 -16806155.11448  20742026.9584   20742028.3394   20742026.756
        55.0004         50.0004
  -6713668.09047  -5202355.05747  23733449.8774   23733452.7204   23733448.768
        47.0004         42.0004
 -13085092.76848 -10154706.76547  22360543.4004   22360547.7344   22360543.344
        51.0004         46.0004
 -10209641.00748  -7943259.51647  22946889.4844   22946895.3734   22946890.022
        48.0004         43.0004
  -2678796.23648  -2048619.60647  24766465.7994   24766467.4394   24766465.113
        49.0004         44.0004
 -14534069.56448 -11279496.44847  22087040.9964   22087044.1124   22087039.926
        51.0004         47.0004
  -3751687.06747  -2877563.03846  24103490.5814   24103492.7884   24103490.484
        44.0004         39.0004
 20  9  1  0 30 30.0000000  0  8G09G07G27G30G08G05G04G16
 -24552129.19149 -19094505.84548  20533869.2164   20533872.8224   20533868.874
        57.0004         52.0004
 -21638876.90549 -16816595.46848  20739477.4554   20739478.3984   20739477.244
        55.0004         50.0004
  -6713492.34147  -5202218.10147  23733482.3374   23733486.4984   23733482.600
        47.0004         42.0004
 -13141620.77048 -10198754.54747  22349786.5504   22349789.9254   22349785.761
        51.0004         46.0004
 -10261228.45348  -7983457.49247  22937073.6704   22937078.6294   22937073.497
        48.0004         43.0004
  -2745959.36948  -2100954.49647  24753684.3424   24753686.6334   24753684.350
        49.0004         44.0004
 -14463550.75348 -11224546.75947  22100459.9414   22100463.5444   22100459.451
        51.0004         46.0004
  -3660011.04047  -2806127.18646  24120936.4764   24120937.9414   24120936.796
        43.0004         39.0004
 20  9  1  0 31  0.0000000  0  8G09G07G27G30G08G05G04G16
 -24543910.88749 -19088101.97648  20535433.1444   20535436.8224   20535432.826
        57.0004         52.0004
 -21652008.20049 -16826827.64348  20736978.6804   20736979.8154   20736978.095
        55.0004         50.0004
  -6712793.90347  -5201673.86047  23733615.2294   23733619.3744   23733614.797
        47.0004         42.0004
 -13197977.25348 -10242668.67347  22339061.8164   22339066.0754   22339061.823
        51.0004         46.0004
 -10312401.68548  -8023332.69747  22927335.4854   22927340.3414   22927334.204
        48.0004         43.0004
  -2812710.21948  -2152968.13947  24740982.4554   24740984.6724   24740981.298
        49.0004         44.0004
 -14392693.56648 -11169333.39047  22113943.6174   22113946.9334   22113943.278
        51.0004         46.0004
  -3568172.19247  -2734564.48346  24138411.7394   24138414.1614   24138411.596
        43.0004         39.0004
 20  9  1  0 31 30.0000000  0  8G09G07G27G30G08G05G04G16
 -24535231.86349 -19081339.10848  20537084.6994   20537088.3994   20537084.404
        57.0004         52.0004
 -21664872.87049 -16836852.06248  20734530.7264   20734531.6934   20734530.284
        55.0004         50.0004
  -6711572.25347  -5200721.92747  23733847.4994   23733851.2654   23733847.636
        47.0004         42.0004
 -13254162.32348 -10286449.23847  22328370.2244   22328374.6804   22328370.238
        51.0004         46.0004
 -10363157.95648  -8062883.00347  22917676.1654   22917681.7024   22917676.208
        48.0004         43.0004
  -2879045.99548  -2204658.35447  24728358.4364   24728360.3404   24728358.317
        49.0004         44.0004
 -14321498.84548 -11113857.02047  22127492.1174   22127495.1294   22127491.031
        51.0004         46.0004
  -3476172.97947  -2662876.82146  24155919.6514   24155920.5804   24155919.860
        43.0004         39.0004
 20  9  1  0 32  0.0000000  0  8G09G07G27G30G08G05G04G16
 -24526091.32249 -19074216.61848  20538824.1444   20538827.8464   20538823.550
        57.0004         52.0004
 -21677471.15349 -16846668.90748  20732133.2044   20732134.1554   20732132.837
        55.0004         50.0004
  -6709826.85847  -5199361.88147  23734180.2224   23734183.8354   23734179.899
        47.0004         42.0004
 -13310175.96348 -10330096.22147  22317711.5334   22317715.1984   22317711.357
        51.0004         46.0004
 -10413494.71748  -8102106.41247  22908097.5074   22908102.7024   22908098.069
        48.0004         43.0004
  -2944964.75148  -2256023.59047  24715815.8424   24715816.0164   24715815.669
        49.0004         44.0004
 -14249967.30648 -11058118.18147  22141103.6004   22141106.7144   22141102.916
        51.0004         46.0004
  -3384015.66247  -2591065.95246  24173456.5974   24173457.4104   24173455.989
        43.0004         38.0004
 20  9  1  0 32 30.0000000  0  8G09G07G27G30G08G05G04G16
 -24516488.36749 -19066733.80548  20540651.6054   20540655.1514   20540651.076
        57.0004         52.0004
 -21689803.24349 -16856278.32348  20729786.5134   20729787.6254   20729786.002
        55.0004         50.0004
  -6707557.03247  -5197593.18747  23734611.8074   23734616.2124   23734611.275
        47.0004         42.0004
 -13366018.07348 -10373609.53547  22307084.9714   22307089.0334   22307084.909
        51.0004         47.0004
 -10463409.12048  -8141000.70747  22898599.0894   22898604.0484   22898599.510
        48.0004         44.0004
  -3010464.73648  -2307062.53347  24703351.3094   24703353.0814   24703350.846
        49.0004         44.0004
 -14178099.65148 -11002117.45047  22154779.8564   22154782.5904   22154779.304
        51.0004         46.0004
  -3291702.60147  -2519133.70046  24191022.1904   24191025.0004   24191022.995
        43.0004         38.0004
 20  9  1  0 33  0.0000000  0  8G09G07G27G30G08G05G04G16
 -24506422.41949 -19058890.21748  20542567.0964   20542570.6534   20542566.757
        57.0004         52.0004
 -21701869.61549 -16865680.69248  20727490.5684   20727491.3144   20727489.958
        55.0004         50.0004
  -6704762.45547  -5195415.60447  23735144.0414   23735148.7584   23735144.087
        47.0004         43.0004
 -13421688.80348 -10416989.31547  22296491.4684   22296495.5574   22296491.358
        51.0004         47.0004
 -10512899.45848  -8179564.57147  22889181.9864   22889187.0664   22889181.419
        48.0004         44.0004
  -3075544.29548  -2357773.86947  24690966.9284   24690969.7904   24690965.422
        49.0004         44.0004
 -14105896.81548 -10945855.52747  22168519.2014   22168522.4124   22168518.880
        51.0004         46.0004
  -3199235.87747  -2447081.76746  24208619.4714   24208620.5744   24208619.419
        43.0004         38.0004
 20  9  1  0 33 30.0000000  0  8G09G07G27G30G08G05G04G16
 -24495892.65849 -19050685.21448  20544570.7704   20544574.4634   20544570.310
        57.0004         52.0004
 -21713670.64249 -16874876.29548  20725244.5074   20725245.8214   20725244.197
        55.0004         50.0004
  -6701442.58247  -5192828.71047  23735775.2224   23735779.9684   23735775.194
        47.0004         43.0004
 -13477188.10148 -10460235.50847  22285929.7384   22285934.6604   22285929.811
        51.0004         47.0004
 -10561963.19048  -8217796.00047  22879845.1824   22879850.6704   22879844.507
        48.0004         44.0004
  -3140201.78348  -2408156.32347  24678662.4604   24678664.8484   24678662.368
        49.0004         44.0004
 -14033359.47948 -10889332.95747  22182323.5904   22182326.3974   22182322.361
        51.0004         46.0004
  -3106617.91147  -2374911.92946  24226242.2194   24226244.8554   24226243.290
        43.0004         38.0004
 20  9  1  0 34  0.0000000  0  8G09G07G27G30G08G05G04G16
 -24484898.39949 -19042118.26648  20546662.7194   20546666.4534   20546662.571
        57.0004         52.0004
 -21725206.71049 -16883865.44048  20723049.5914   20723050.4074   20723049.043
        55.0004         50.0004
  -6697596.97147  -5189832.14747  23736507.5454   23736511.5734   23736507.353
        47.0004         42.0004
 -13532516.02848 -10503348.16147  22275401.7334   22275405.4744   22275401.370
        51.0004         47.0004
 -10610597.85048  -8255693.10547  22870590.9664   22870595.2704   22870589.911
        48.0004         44.0004
  -3204435.05848  -2458208.21647  24666440.4404   24666442.3094   24666438.771
        49.0004         44.0004
 -13960488.51348 -10832550.41747  22196189.4444   22196193.2604   22196189.185
        51.0004         46.0004
  -3013850.87247  -2302625.94546  24243896.4694   24243898.4174   24243896.694
        43.0004         38.0004
 20  9  1  0 34 30.0000000  0  8G09G07G27G30G08G05G04G16
 -24473438.97249 -19033188.85648  20548843.6774   20548847.1724   20548843.315
        57.0004         52.0004
 -21736478.39349 -16892648.56948  20720904.6434   20720905.5524   20720904.064
        55.0004         50.0004
  -6693225.21647  -5186425.60447  23737339.0624   23737344.4774   23737338.937
        47.0004         43.0004
 -13587672.65648 -10546327.33947  22264905.9064   22264909.5964   22264905.753
        51.0004         47.0004
 -10658801.06848  -8293254.01147  22861418.4014   22861423.5814   22861417.318
        48.0004         44.0004
  -3268241.58648  -2507927.57547  24654297.9274   24654298.6524   24654297.401
        49.0004         44.0004
 -13887284.76048 -10775508.56747  22210120.2674   22210123.3274   22210119.548
        50.0004         46.0004
  -2920936.92947  -2230225.50746  24261576.6904   24261579.4844   24261577.033
        43.0004         38.0004
 20  9  1  0 35  0.0000000  0  9G09G07G27G30G08G05G04G28G16
 -24461513.56249 -19023896.33748  20551112.7344   20551116.5984   20551112.366
        57.0004         52.0004
 -21747485.52449 -16901225.55248  20718809.7614   20718811.0174   20718809.342
        55.0004         50.0004
  -6688326.75647  -5182608.64147  23738270.8424   23738275.5514   23738270.654
        47.0004         43.0004
 -13642657.82748 -10589172.90747  22254442.0734   22254445.6754   22254442.044
        51.0004         47.0004
 -10706570.30148  -8330476.75447  22852327.2994   22852332.6944   22852327.388
        49.0004         44.0004
  -3331619.55448  -2557312.99547  24642237.4974   24642238.3744   24642236.674
        49.0004         44.0004
 -13813748.92448 -10718207.94047  22224113.2034   22224117.2324   22224112.995
        50.0004         46.0004
   -305805.22648   -183503.64446  24591575.6464   24591580.9474   24591575.568
        48.0004         37.0004
  -2827878.34847  -2157712.35546  24279286.4464   24279290.0674   24279284.921
        43.0004         38.0004
 20  9  1  0 35 30.0000000  0  9G09G07G27G30G08G05G04G28G16
 -24449121.73049 -19014240.37648  20553471.0824   20553474.6404   20553470.762
        57.0004         52.0004
 -21758228.95249 -16909597.05648  20716765.5044   20716766.5144   20716764.861
        55.0004         50.0004
  -6682901.52547  -5178381.20347  23739303.3014   23739308.2754   23739302.853
        47.0004         43.0004
 -13697471.80248 -10631885.08647  22244011.6534   22244014.7814   22244011.471
        51.0004         46.0004
 -10753903.49248  -8367359.72347  22843320.0594   22843325.0064   22843319.844
        49.0004         44.0004
  -3394568.11548  -2606363.80347  24630258.5014   24630259.9694   24630258.192
        49.0004         44.0004
 -13739882.16848 -10660649.46347  22238169.9284   22238173.0944   22238169.415
        50.0004         46.0004
   -420097.58547   -272562.56246  24569826.5574   24569829.7344   24569827.797
        44.0004         37.0004
  -2734677.22047  -2085088.12046  24297021.9324   24297023.6584   24297021.620
        43.0004         38.0004
 20  9  1  0 36  0.0000000  0  9G09G07G27G30G08G05G04G28G16
 -24436262.58649 -19004220.27548  20555918.2334   20555921.8144   20555917.628
        57.0004         52.0004
 -21768708.46649 -16917762.91348  20714771.2244   20714772.3104   20714770.723
        55.0004         50.0004
  -6676948.84547  -5173742.76947  23740436.4194   23740441.2884   23740436.510
        47.0004         42.0004
 -13752114.37948 -10674463.70247  22233612.7044   22233617.5064   22233613.122
        51.0004         46.0004
 -10800798.01948  -8403900.87647  22834396.1884   22834401.1604   22834395.982
        49.0004         44.0004
  -3457084.25648  -2655077.67947  24618362.3124   24618363.8504   24618361.600
        49.0004         44.0004
 -13665685.03948 -10602833.55547  22252288.9234   22252292.8334   22252288.343
        50.0004         46.0004
   -534299.92947   -361551.34346  24548095.0424   24548095.6894   24548094.914
        43.0004         38.0004
  -2641336.00047  -2012354.73846  24314782.4554   24314785.6354   24314783.293
        43.0004         38.0004
 20  9  1  0 36 30.0000000  0  9G09G07G27G30G08G05G04G28G16
 -24422935.54249 -18993835.57148  20558454.0474   20558457.7394   20558453.539
        57.0004         52.0004
 -21778924.48149 -16925723.44648  20712827.3594   20712828.3754   20712826.753
        55.0004         50.0004
  -6670468.47747  -5168693.14247  23741669.7764   23741673.7424   23741669.555
        47.0004         43.0004
 -13806585.62248 -10716908.81847  22223247.4044   22223251.7994   22223247.526
        51.0004         46.0004
 -10847251.42048  -8440098.29047  22825557.3094   22825560.8154   22825556.805
        49.0004         44.0004
  -3519166.58948  -2703453.50847  24606548.2494   24606549.0134   24606547.922
        49.0004         44.0004
 -13591158.46248 -10544760.92947  22266470.4584   22266474.1384   22266470.864
        50.0004         46.0004
   -648410.00747   -450468.22346  24526379.3744   24526383.2134   24526379.519
        42.0004         38.0004
  -2547857.01747  -1939513.97946  24332571.3454   24332573.4334   24332570.570
        43.0004         38.0004
 20  9  1  0 37  0.0000000  0  9G09G07G27G30G08G05G04G28G16
 -24409140.14749 -18983085.92048  20561079.4554   20561083.0014   20561078.877
        57.0004         52.0004
 -21788877.67249 -16933479.18448  20710933.4674   20710934.4334   20710932.805
        55.0004         50.0004
  -6663460.27047  -5163232.20947  23743002.7324   23743007.9364   23743002.916
        47.0004         42.0004
 -13860885.68748 -10759220.55047  22212914.9584   22212918.2844   22212914.514
        51.0004         46.0004
 -10893261.59248  -8475950.33747  22816800.4394   22816806.4994   22816800.263
        49.0004         44.0004
  -3580814.19848  -2751490.59447  24594817.0194   24594818.8414   24594815.948
        49.0004         44.0004
 -13516303.48348 -10486432.41147  22280715.5444   22280718.8344   22280715.113
        50.0004         46.0004
   -762426.13347   -539311.87746  24504683.1914   24504686.5344   24504682.181
        42.0004         37.0004
  -2454242.53847  -1866567.68946  24350386.9464   24350389.0874   24350386.140
        43.0004         38.0004
 20  9  1  0 37 30.0000000  0  9G09G07G27G30G08G05G04G28G16
 -24394875.56149 -18971970.66448  20563793.5504   20563797.4034   20563793.105
        57.0004         52.0004
 -21798568.28349 -16941030.31148  20709089.3064   20709090.1214   20709088.682
        55.0004         50.0004
  -6655923.69847  -5157359.55947  23744437.7864   23744441.8944   23744437.232
        47.0004         42.0004
 -13915014.41648 -10801398.76547  22202613.7404   22202618.2634   22202613.970
        51.0004         46.0004
 -10938826.23548  -8511455.22047  22808130.7574   22808135.3564   22808130.726
        49.0004         44.0004
  -3642023.80748  -2799186.39047  24583168.4754   24583171.3164   24583168.674
        49.0004         44.0004
 -13441120.81748 -10427848.54547  22295023.2854   22295025.9354   22295021.899
        50.0004         46.0004
   -876345.79447   -628080.35446  24483006.1964   24483008.6964   24483005.810
        42.0004         37.0004
  -2360494.25947  -1793517.11446  24368228.1724   24368230.2864   24368226.249
        43.0004         38.0004
 20  9  1  0 38  0.0000000  0  9G09G07G27G30G08G05G04G28G16
 -24380141.32249 -18960489.44748  20566597.6144   20566601.2844   20566597.283
        57.0004         52.0004
 -21807996.49149 -16948376.96748  20707295.1974   20707296.3704   20707294.676
        55.0004         50.0004
  -6647858.62847  -5151075.08547  23745972.1754   23745976.6224   23745972.058
        47.0004         43.0004
 -13968971.87148 -10843443.52247  22192345.9584   22192350.7524   22192346.439
        51.0004         46.0004
 -10983942.93948  -8546611.06047  22799544.5734   22799549.7454   22799544.698
        49.0004         44.0004
  -3702794.44248  -2846540.11947  24571603.6334   24571606.3864   24571602.643
        49.0004         44.0004
 -13365611.48048 -10369010.13047  22309391.2554   22309394.5074   22309390.838
        50.0004         46.0004
   -990167.32247   -716772.40246  24461346.4564   24461347.8644   24461345.429
        42.0004         37.0004
  -2266614.92947  -1720364.40246  24386090.2614   24386091.6864   24386090.498
        43.0004         38.0004
 20  9  1  0 38 30.0000000  0  9G09G07G27G30G08G05G04G28G16
 -24364936.91249 -18948641.86548  20569490.9384   20569494.5964   20569490.446
        57.0004         52.0004
 -21817162.75949 -16955519.51848  20705550.8594   20705552.0314   20705550.266
        55.0004         50.0004
  -6639264.85947  -5144378.64247  23747606.9814   23747612.2854   23747607.468
        47.0004         42.0004
 -14022758.15148 -10885354.90247  22182111.1014   22182115.6484   22182110.836
        51.0004         46.0004
 -11028609.97748  -8581416.52047  22791044.8164   22791050.6514   22791044.607
        49.0004         44.0004
  -3763124.03948  -2893550.18047  24560124.8814   24560126.5734   24560123.080
        49.0004         44.0004
 -13289776.40748 -10309917.90347  22323822.4234   22323826.1984   22323821.903
        51.0004         46.0004
  -1103888.83347   -805386.51746  24439705.8544   24439706.6884   24439704.971
        42.0004         37.0004
  -2172606.68247  -1647111.26846  24403979.7204   24403980.6464   24403980.380
        43.0004         38.0004
 20  9  1  0 39  0.0000000  0  9G09G07G27G30G08G05G04G28G16
 -24349261.55149 -18936427.30548  20572473.7104   20572477.6874   20572473.401
        57.0004         52.0004
 -21826067.35449 -16962458.16348  20703856.1644   20703857.3454   20703855.841
        55.0004         50.0004
  -6630141.97147  -5137269.89647  23749343.0284   23749349.0694   23749342.508
        47.0004         42.0004
 -14076373.04948 -10927132.73647  22171908.4974   22171913.0734   22171908.355
        51.0004         46.0004
 -11072824.01448  -8615868.99247  22782630.9504   22782636.1974   22782630.634
        49.0004         44.0004
  -3823010.89548  -2940215.25647  24548729.1444   24548731.2594   24548727.284
        49.0004         44.0004
 -13213616.34348 -10250572.43647  22338314.8514   22338318.2664   22338314.712
        51.0004         46.0004
  -1217508.28347   -893921.05546  24418084.3144   24418086.7654   24418083.099
        42.0004         37.0004
  -2078471.36147  -1573759.08746  24421892.9274   24421893.5294   24421893.932
        43.0004         38.0004
 20  9  1  0 39 30.0000000  0  9G09G07G27G30G08G05G04G28G16
 -24333114.93449 -18923845.53748  20575546.4774   20575550.1564   20575546.014
        57.0004         52.0004
 -21834710.72049 -16969193.25548  20702211.4044   20702212.7024   20702210.904
        55.0004         50.0004
  -6620490.02347  -5129748.89547  23751179.3724   23751184.8344   23751179.420
        47.0004         42.0004
 -14129816.84248 -10968777.24247  22161738.4484   22161742.4464   22161738.340
        51.0004         46.0004
 -11116583.74848  -8649967.46047  22774303.5284   22774309.4774   22774303.806
        49.0004         44.0004
  -3882452.96848  -2986533.73947  24537416.8934   24537419.1544   24537415.965
        49.0004         45.0004
 -13137132.45748 -10190974.63947  22352869.8184   22352872.7024   22352868.987
        50.0004         46.0004
  -1331023.88247   -982374.70746  24396482.5684   24396484.4794   24396483.079
        42.0004         38.0004
  -1984211.36047  -1500309.77346  24439831.0634   24439831.9764   24439831.234
        42.0004         38.0004
 20  9  1  0 40  0.0000000  0  9G09G07G27G30G08G05G04G28G16
 -24316496.34249 -18910895.99348  20578708.9224   20578712.4624   20578708.351
        57.0004         52.0004
 -21843092.89449 -16975724.81848  20700616.4064   20700617.7674   20700615.906
        55.0004         50.0004
  -6610308.62847  -5121815.33647  23753117.8214   23753122.0714   23753116.724
        47.0004         42.0004
 -14183089.28548 -11010288.22847  22151601.0704   22151605.6464   22151601.025
        51.0004         46.0004
 -11159886.83948  -8683710.10347  22766063.6894   22766069.1604   22766063.542
        49.0004         44.0004
  -3941448.79448  -3032504.50647  24526190.6224   24526192.0664   24526189.509
        49.0004         45.0004
 -13060325.55348 -10131125.13047  22367485.5594   22367489.0884   22367485.106
        50.0004         46.0004
  -1444433.18947  -1070745.54646  24374901.5984   24374904.3264   24374901.537
        42.0004         38.0004
  -1889828.62347  -1426764.82346  24457790.9704   24457792.0744   24457791.498
        43.0004         38.0004
 20  9  1  0 40 30.0000000  0  9G09G07G27G30G08G05G04G28G16
 -24299405.41549 -18897578.40248  20581961.1574   20581964.8424   20581960.664
        57.0004         52.0004
 -21851214.56449 -16982053.39648  20699070.8194   20699072.0564   20699070.493
        55.0004         50.0004
  -6599597.77447  -5113469.20647  23755155.9224   23755160.0724   23755155.852
        47.0004         42.0004
 -14236190.56248 -11051665.83947  22141496.7244   22141500.9274   22141496.059
        51.0004         46.0004
 -11202730.73248  -8717094.94247  22757910.7514   22757915.4724   22757910.885
        49.0004         44.0004
  -3999996.75048  -3078126.28047  24515048.7464   24515050.0964   24515048.773
        49.0004         45.0004
 -12983196.63848 -10071024.71547  22382162.8764   22382165.9824   22382161.936
        50.0004         46.0004
  -1557734.43147  -1159032.19346  24353340.3574   24353343.5794   24353341.066
        43.0004         38.0004
  -1795325.33247  -1353125.91346  24475773.8884   24475774.6464   24475775.053
        43.0004         38.0004
 20  9  1  0 41  0.0000000  0  9G09G07G27G30G08G05G04G28G16
 -24281841.61049 -18883892.33248  20585303.5314   20585307.0574   20585303.046
        57.0004         52.0004
 -21859076.01649 -16988179.20548  20697574.8614   20697576.1684   20697574.430
        55.0004         50.0004
  -6588357.34847  -5104710.42047  23757294.8684   23757298.7644   23757294.676
        47.0004         42.0004
 -14289120.59948 -11092910.02347  22131424.4224   22131428.1894   22131423.994
        51.0004         46.0004
 -11245113.59248  -8750120.53147  22749845.1994   22749851.1434   22749845.017
        49.0004         44.0004
  -4058095.47648  -3123398.00447  24503992.8564   24503995.1404   24503992.189
        49.0004         45.0004
 -12905746.73048 -10010674.17147  22396901.0684   22396904.3914   22396900.713
        50.0004         46.0004
  -1670925.62147  -1247233.06346  24331799.9164   24331804.4224   24331799.401
        42.0004         38.0004
  -1700704.46247  -1279395.41546  24493780.7224   24493782.4554   24493780.593
        42.0004         38.0004
 20  9  1  0 41 30.0000000  0  9G09G07G27G30G08G05G04G28G16
 -24263804.28349 -18869837.28348  20588735.7454   20588739.5754   20588735.325
        57.0004         52.0004
 -21866677.16449 -16994102.17948  20696128.3884   20696129.7314   20696127.927
        55.0004         50.0004
  -6576587.07647  -5095538.76747  23759534.6364   23759539.2224   23759534.161
        47.0004         43.0004
 -14341879.30448 -11134020.69647  22121384.6134   22121388.4884   22121384.315
        51.0004         47.0004
 -11287033.06948  -8782785.04947  22741868.4984   22741874.3644   22741868.432
        49.0004         44.0004
  -4115742.48448  -3168317.73447  24493023.2794   24493025.6564   24493022.438
        49.0004         45.0004
 -12827976.60248  -9950074.10147  22411700.2654   22411703.9954   22411699.392
        50.0004         45.0004
  -1784004.65747  -1335346.52646  24310283.1124   24310286.5064   24310282.305
        42.0004         37.0004
  -1605967.56647  -1205574.47046  24511807.4034   24511809.4074   24511808.251
        42.0004         37.0004
 20  9  1  0 42  0.0000000  0  9G09G07G27G30G08G05G04G28G16
 -24245293.19149 -18855413.06548  20592258.3184   20592262.0774   20592257.902
        57.0004         52.0004
 -21874018.76249 -16999822.90348  20694731.4044   20694732.5704   20694730.960
        55.0004         50.0004
  -6564287.04147  -5085954.31447  23761875.4644   23761880.0664   23761875.745
        47.0004         43.0004
 -14394466.84148 -11174997.99247  22111377.3844   22111381.6534   22111377.178
        51.0004         47.0004
 -11328487.03348  -8815086.82147  22733980.4504   22733984.9324   22733979.741
        49.0004         44.0004
  -4172936.72448  -3212884.67047  24482139.6184   24482141.6994   24482138.408
        49.0004         45.0004
 -12749887.49448  -9889225.47947  22426560.1224   22426563.2644   22426559.168
        50.0004         45.0004
  -1896969.98547  -1423371.39246  24288785.6144   24288789.5084   24288786.218
        42.0004         38.0004
  -1511116.68647  -1131664.72846  24529857.9974   24529858.9844   24529858.486
        42.0004         38.0004
 20  9  1  0 42 30.0000000  0  9G09G07G27G30G08G05G04G28G16
 -24226307.75249 -18840619.22848  20595871.2624   20595875.0054   20595870.708
        57.0004         52.0004
 -21881100.90649 -17005341.46348  20693383.7574   20693384.8584   20693382.976
        55.0004         50.0004
  -6551457.05747  -5075956.92147  23764316.6684   23764320.6524   23764316.604
        47.0004         42.0004
 -14446883.06748 -11215841.79447  22101403.0744   22101406.7534   22101402.823
        51.0004         47.0004
 -11369473.32448  -8847024.17447  22726180.8814   22726185.5304   22726180.331
        49.0004         44.0004
  -4229676.14148  -3257097.19647  24471341.5174   24471343.1394   24471341.704
        50.0004         45.0004
 -12671480.25648  -9828128.96447  22441480.5114   22441483.5424   22441480.005
        50.0004         45.0004
  -2009819.10947  -1511305.73946  24267311.9014   24267315.0314   24267312.166
        42.0004         38.0004
  -1416153.97947  -1057667.85546  24547928.0644   24547929.9624   24547928.608
        42.0004         37.0004
 20  9  1  0 43  0.0000000  0  9G09G07G27G30G08G05G04G28G16
 -24206847.59049 -18825455.47548  20599574.4824   20599578.0924   20599574.066
        57.0004         52.0004
 -21887923.88349 -17010658.06748  20692085.2864   20692086.6054   20692084.961
        55.0004         50.0004
  -6538097.20647  -5065546.63547  23766859.5464   23766863.8714   23766858.641
        47.0004         43.0004
 -14499128.05148 -11256552.16747  22091461.4034   22091465.5374   22091461.070
        52.0004         47.0004
 -11409989.74948  -8878595.40847  22718470.3484   22718476.1794   22718470.546
        49.0004         44.0004
  -4285958.93548  -3300953.90647  24460632.5004   24460633.6144   24460631.159
        49.0004         45.0004
 -12592755.96048  -9766785.38747  22456461.2084   22456464.0384   22456460.762
        50.0004         45.0004
  -2122550.19547  -1599148.06646  24245859.3094   24245861.7494   24245859.859
        42.0004         38.0004
  -1321081.78747   -983585.64846  24566018.8994   24566023.0624   24566021.231
        42.0004         38.0004
 20  9  1  0 43 30.0000000  0  9G09G07G27G30G08G05G04G28G16
 -24186912.26749 -18809921.46648  20603367.7804   20603371.6284   20603367.748
        57.0004         52.0004
 -21894488.15249 -17015773.08648  20690836.1614   20690837.8024   20690835.584
        55.0004         50.0004
  -6524207.44547  -5054723.43447  23769502.1884   23769507.1424   23769500.989
        47.0004         43.0004
 -14551201.77448 -11297129.09147  22081552.0634   22081555.6784   22081551.814
        52.0004         47.0004
 -11450034.19248  -8909798.87047  22710851.0974   22710855.0434   22710850.457
        49.0004         44.0004
  -4341784.29348  -3344454.17547  24450008.8684   24450010.9844   24450008.787
        50.0004         45.0004
 -12513715.60748  -9705195.54347  22471501.9454   22471505.0204   22471501.500
        50.0004         45.0004
  -2235161.30447  -1686896.93446  24224431.8954   24224432.9584   24224430.597
        42.0004         38.0004
  -1225902.24847   -909419.83046  24584132.5694   24584133.3734   24584131.817
        42.0004         38.0004
 20  9  1  0 44  0.0000000  0  9G09G07G27G30G08G05G04G28G16
 -24166501.42449 -18794016.92248  20607251.9394   20607255.5704   20607251.491
        57.0004         52.0004
 -21900793.76649 -17020686.55348  20689636.3814   20689637.5074   20689636.000
        55.0004         50.0004
  -6509787.81647  -5043487.37047  23772246.1694   23772251.1554   23772245.427
        47.0004         43.0004
 -14603104.25648 -11337572.57947  22071675.0164   22071679.1464   22071675.190
        52.0004         47.0004
 -11489604.51948  -8940632.88647  22703320.5044   22703326.5404   22703319.792
        49.0004         44.0004
  -4397149.99748  -3387596.27147  24439472.6224   24439474.4224   24439472.965
        50.0004         45.0004
 -12434360.29148  -9643360.27247  22486602.8594   22486606.3754   22486602.331
        50.0004         45.0004
  -2347650.36747  -1774550.67046  24203023.9524   24203027.5684   24203024.498
        43.0004         38.0004
  -1130617.50047   -835172.00646  24602262.9614   24602266.1244   24602263.574
        42.0004         38.0004
 20  9  1  0 44 30.0000000  0  9G09G07G27G30G08G05G04G28G16
 -24145614.63049 -18777741.51048  20611226.5044   20611230.4004   20611226.094
        57.0004         52.0004
 -21906841.30649 -17025398.92548  20688485.5524   20688486.5334   20688485.153
        55.0004         50.0004
  -6494838.27647  -5031838.38447  23775091.1584   23775095.8734   23775090.950
        47.0004         43.0004
 -14654835.43148 -11377882.58447  22061831.1294   22061835.2834   22061831.005
        52.0004         47.0004
 -11528699.14248  -8971096.21847  22695881.3434   22695886.2594   22695880.841
        49.0004         45.0004
  -4452054.26248  -3430378.81547  24429026.0904   24429026.8484   24429025.118
        50.0004         45.0004
 -12354691.00148  -9581280.34447  22501762.7364   22501767.5284   22501763.055
        50.0004         45.0004
  -2460015.60447  -1862107.93346  24181640.0614   24181644.2884   24181640.888
        43.0004         38.0004
  -1035229.75947   -760843.94946  24620416.7964   24620416.8244   24620416.503
        42.0004         37.0004
 20  9  1  0 45  0.0000000  0  9G09G07G27G30G08G05G04G28G16
 -24124251.53249 -18761094.95348  20615291.8254   20615295.6564   20615291.692
        57.0004         52.0004
 -21912631.02449 -17029910.39348  20687383.9144   20687384.8804   20687383.143
        55.0004         50.0004
  -6479358.93347  -5019776.55547  23778036.3384   23778041.1724   23778035.971
        47.0004         43.0004
 -14706395.27148 -11418059.07947  22052019.5024   22052023.1164   22052019.163
        52.0004         47.0004
 -11567315.55448  -9001186.91347  22688532.9644   22688538.0964   22688532.543
        49.0004         45.0004
  -4506495.90048  -3472800.85647  24418665.0004   24418666.3424   24418665.430
        50.0004         45.0004
 -12274708.79148  -9518956.57747  22516983.9014   22516987.0844   22516983.638
        50.0004         45.0004
  -2572254.99047  -1949567.12146  24160283.2234   24160287.3804   24160284.059
        42.0004         38.0004
   -939740.88146   -686437.03446  24638587.6444   24638587.9864   24638586.778
        41.0004         37.0004
 20  9  1  0 45 30.0000000  0  9G09G07G27G30G08G05G04G28G16
 -24102411.78749 -18744076.98148  20619447.8634   20619451.5114   20619447.301
        57.0004         52.0004
 -21918162.89849 -17034220.94448  20686331.1174   20686332.2584   20686330.506
        55.0004         50.0004
  -6463349.78847  -5007301.91347  23781084.0044   23781088.1464   23781083.566
        47.0004         43.0004
 -14757783.81648 -11458102.09847  22042240.3254   22042244.5664   22042240.742
        52.0004         47.0004
 -11605452.07648  -9030903.67447  22681275.6994   22681281.2854   22681275.677
        49.0004         45.0004
  -4560472.98648  -3514860.92247  24408393.4794   24408395.6924   24408393.132
        50.0004         45.0004
 -12194414.76848  -9456389.84547  22532263.0904   22532265.9074   22532262.217
        50.0004         45.0004
  -2684366.61747  -2036926.78446  24138950.2304   24138952.3434   24138949.558
        43.0004         38.0004
   -844153.18247   -611953.16446  24656776.8174   24656777.3374   24656776.753
        42.0004         37.0004
 20  9  1  0 46  0.0000000  0  9G09G07G27G30G08G05G04G28G16
 -24080095.02149 -18726687.30548  20623694.4664   20623698.3054   20623694.286
        57.0004         52.0004
 -21923437.76749 -17038331.23248  20685327.1424   20685328.6474   20685326.716
        55.0004         50.0004
  -6446810.98847  -4994414.52347  23784230.4504   23784234.7354   23784230.064
        47.0004         42.0004
 -14809000.98948 -11498011.57647  22032494.1924   22032498.5784   22032494.096
        52.0004         47.0004
 -11643106.54348  -9060244.80047  22674109.7834   22674115.8214   22674109.685
        49.0004         45.0004
  -4613984.49748  -3556558.20247  24398212.4784   24398213.3244   24398212.321
        50.0004         45.0004
 -12113809.92948  -9393580.91647  22547601.6894   22547604.3834   22547601.086
        49.0004         45.0004
  -2796348.37347  -2124185.25246  24117638.8714   24117643.1394   24117640.160
        43.0004         38.0004
   -748468.47447   -537393.71646  24674986.3484   24674986.1124   24674986.188
        42.0004         37.0004
 20  9  1  0 46 30.0000000  0  9G09G07G27G30G08G05G04G28G16
 -24057300.97349 -18708925.71648  20628032.2454   20628035.8994   20628031.836
        57.0004         52.0004
 -21928455.50749 -17042241.15648  20684372.4624   20684373.6214   20684372.047
        55.0004         50.0004
  -6429742.76047  -4981114.62047  23787477.9364   23787482.6714   23787478.323
        47.0004         42.0004
 -14860046.82548 -11537787.54647  22022780.0244   22022784.5624   22022780.124
        52.0004         47.0004
 -11680276.72948  -9089208.57447  22667037.0034   22667042.2964   22667036.730
        49.0004         45.0004
  -4667028.64148  -3597891.29847  24388117.0844   24388118.1134   24388116.809
        50.0004         45.0004
 -12032895.41548  -9330530.68947  22562999.3244   22563002.9104   22562998.529
        49.0004         45.0004
  -2908198.24647  -2211340.94246  24096353.4284   24096358.9334   24096354.507
        43.0004         38.0004
   -652688.69747   -462760.13346  24693210.5694   24693212.6264   24693212.041
        42.0004         37.0004
 20  9  1  0 47  0.0000000  0  9G09G07G27G30G08G05G04G28G16
 -24034029.32649 -18690791.97748  20632460.5504   20632464.3564   20632460.185
        57.0004         52.0004
 -21933216.58149 -17045951.08248  20683466.4604   20683467.8474   20683466.051
        55.0004         50.0004
  -6412145.14447  -4967402.18947  23790826.6484   23790831.8194   23790826.091
        47.0004         42.0004
 -14910921.27348 -11577429.96947  22013099.5394   22013103.4454   22013099.263
        52.0004         47.0004
 -11716960.86248  -9117793.59247  22660056.3264   22660060.8644   22660056.118
        50.0004         45.0004
  -4719603.49848  -3638858.71147  24378112.1434   24378113.3534   24378111.547
        50.0004         45.0004
 -11951672.33748  -9267240.01447  22578455.3204   22578459.2644   22578455.005
        49.0004         45.0004
  -3019914.35547  -2298392.42846  24075096.3104   24075099.7964   24075096.016
        43.0004         38.0004
   -556816.85646   -388054.86246  24711456.4414   24711456.6084   24711455.747
        41.0004         37.0004
 20  9  1  0 47 30.0000000  0  9G09G07G27G30G08G05G04G28G16
 -24010279.78149 -18672285.85148  20636980.0784   20636983.6714   20636979.683
        57.0004         52.0004
 -21937721.19549 -17049461.17348  20682609.3424   20682610.4024   20682608.772
        55.0004         50.0004
  -6394018.29847  -4953277.38947  23794276.0844   23794280.7854   23794275.981
        47.0004         42.0004
 -14961624.30948 -11616938.82147  22003451.2524   22003455.1504   22003450.559
        52.0004         47.0004
 -11753157.32048  -9145998.60347  22653168.3154   22653172.3634   22653167.915
        50.0004         45.0004
  -4771708.33448  -3679459.87947  24368197.2424   24368198.8934   24368197.115
        50.0004         45.0004
 -11870141.75448  -9203709.73147  22593970.5244   22593972.5944   22593970.013
        49.0004         45.0004
  -3131494.86947  -2385338.22546  24053863.6374   24053867.0384   24053864.033
        43.0004         38.0004
   -460854.60247   -313279.11446  24729716.0194   24729717.3464   24729716.811
        42.0004         37.0004
 20  9  1  0 48  0.0000000  0  9G09G07G27G30G08G05G04G28G16
 -23986052.09649 -18653407.15048  20641590.3714   20641594.2684   20641590.064
        57.0004         52.0004
 -21941969.56549 -17052771.59348  20681800.6724   20681802.0634   20681800.440
        55.0004         50.0004
  -6375362.43247  -4938740.35047  23797825.7894   23797831.3664   23797825.574
        47.0004         42.0004
 -15012155.90048 -11656314.07547  21993834.9134   21993839.0484   21993834.980
        52.0004         47.0004
 -11788863.52448  -9173821.60947  22646373.3434   22646378.3174   22646372.970
        50.0004         45.0004
  -4823341.45148  -3719693.47647  24358370.9824   24358373.5914   24358370.661
        50.0004         45.0004
 -11788304.82348  -9139940.73447  22609543.6794   22609547.3594   22609542.469
        49.0004         44.0004
  -3242937.62447  -2472176.68646  24032656.7034   24032658.6204   24032656.853
        43.0004         39.0004
   -364803.97547   -238434.50846  24747995.9994   24747997.5254   24747994.492
        42.0004         37.0004
 20  9  1  0 48 30.0000000  0  9G09G07G27G30G08G05G04G28G16
 -23961346.04949 -18634155.69648  20646291.8404   20646295.7284   20646291.299
        57.0004         52.0004
 -21945962.41749 -17055882.90648  20681041.0514   20681042.2034   20681040.518
        55.0004         50.0004
  -6356177.85247  -4923791.33947  23801476.8714   23801481.4924   23801476.798
        47.0004         42.0004
 -15062516.06448 -11695555.75547  21984251.6464   21984256.2584   21984251.742
        52.0004         47.0004
 -11824078.07648  -9201261.50347  22639672.6564   22639677.2494   22639671.915
        50.0004         45.0004
  -4874500.99548  -3759558.05847  24348635.0404   24348638.5614   24348634.898
        50.0004         45.0004
 -11706162.73848  -9075933.95647  22625174.1974   22625177.8854   22625174.467
        49.0004         44.0004
  -3354241.02247  -2558906.56946  24011476.2544   24011479.0934   24011476.029
        43.0004         38.0004
   -268666.92546   -163522.54546  24766288.6714   24766289.5764   24766289.059
        41.0004         36.0004
 20  9  1  0 49  0.0000000  0  9G09G07G27G30G08G05G04G28G16
 -23936161.28249 -18614531.21448  20651084.2524   20651088.1784   20651083.941
        57.0004         52.0004
 -21949699.42649 -17058794.86148  20680329.9974   20680331.2344   20680329.526
        55.0004         50.0004
  -6336464.63947  -4908430.39947  23805228.8124   23805233.4354   23805227.343
        47.0004         42.0004
 -15112704.64248 -11734663.73047  21974701.0464   21974705.7274   21974701.118
        52.0004         47.0004
 -11858798.97648  -9228316.72847  22633064.8544   22633069.6284   22633064.745
        50.0004         45.0004
  -4925185.64548  -3799052.58347  24338991.4514   24338994.7404   24338991.164
        50.0004         45.0004
 -11623716.45448  -9011690.13247  22640863.5444   22640866.5964   22640863.664
        49.0004         45.0004
  -3465402.60247  -2645525.95746  23990323.1284   23990325.5494   23990323.164
        43.0004         38.0004
   -172445.45747    -88544.80246  24784599.1934   24784600.5824   24784599.768
        42.0004         37.0004
 20  9  1  0 49 30.0000000  0  9G09G07G27G30G08G05G04G28G16
 -23910497.74349 -18594533.66448  20655967.8144   20655971.6524   20655967.686
        56.0004         52.0004
 -21953181.25749 -17061507.97448  20679667.2914   20679668.5024   20679666.764
        55.0004         50.0004
  -6316223.14647  -4892657.82347  23809080.0204   23809084.9874   23809080.553
        47.0004         42.0004
 -15162721.76748 -11773638.10347  21965182.9774   21965187.3644   21965182.998
        52.0004         47.0004
 -11893024.17048  -9254985.69847  22626551.6064   22626557.5384   22626551.824
        50.0004         45.0004
  -4975394.09848  -3838176.05047  24329437.5974   24329439.8704   24329436.222
        50.0004         45.0004
 -11540967.31448  -8947210.33547  22656610.9284   22656612.8164   22656609.691
        49.0004         44.0004
  -3576420.63847  -2732033.47846  23969197.3324   23969200.9074   23969197.167
        43.0004         39.0004
    -76141.87847    -13503.10046  24802923.6694   24802925.3784   24802924.647
        42.0004         37.0004
 20  9  1  0 50  0.0000000  0  9G09G07G27G30G08G05G04G28G16
 -23884355.15149 -18574162.82648  20660942.7694   20660946.5644   20660942.277
        57.0004         52.0004
 -21956408.20949 -17064022.48548  20679053.4004   20679054.6064   20679052.688
        55.0004         50.0004
  -6295453.68147  -4876473.83947  23813032.4594   23813036.9214   23813033.150
        47.0004         42.0004
 -15212567.29748 -11812478.77548  21955698.2074   21955702.1374   21955697.880
        52.0004         48.0004
 -11926752.15548  -9281267.22647  22620133.6484   22620137.9694   22620133.686
        50.0004         45.0004
  -5025125.19148  -3876927.54147  24319973.9834   24319975.1734   24319973.875
        50.0004         45.0004
 -11457916.36848  -8882495.34947  22672414.8854   22672417.7164   22672414.277
        49.0004         44.0004
  -3687293.23147  -2818427.66746  23948099.0434   23948101.1904   23948098.153
        43.0004         39.0004
     20242.11346     61601.26546  24821266.0524   24821270.0524   24821265.951
        41.0004         37.0004
 20  9  1  0 50 30.0000000  0  9G09G07G27G30G08G05G04G28G16
 -23857733.36249 -18553418.59048  20666008.8054   20666012.4904   20666008.435
        57.0004         52.0004
 -21959380.44549 -17066338.51648  20678487.6134   20678488.9844   20678487.151
        55.0004         50.0004
  -6274156.57447  -4859878.69447  23817086.2404   23817089.5624   23817085.949
        47.0004         42.0004
 -15262241.27148 -11851185.76348  21946245.1014   21946249.7394   21946245.339
        52.0004         48.0004
 -11959980.47848  -9307159.40447  22613810.3014   22613815.5354   22613810.456
        50.0004         45.0004
  -5074376.96448  -3915305.54147  24310602.5904   24310602.4534   24310601.609
        50.0004         46.0004
 -11374564.83248  -8817546.15247  22688275.4504   22688278.7654   22688275.022
        49.0004         44.0004
  -3798018.66647  -2904707.18946  23927027.4504   23927030.0224   23927027.236
        43.0004         38.0004
    116704.14646    136766.45546  24839622.4864   24839623.0234   24839621.666
        41.0004         36.0004
 20  9  1  0 51  0.0000000  0  9G09G07G27G30G08G05G04G28G16
 -23830632.09649 -18532300.73248  20671165.7654   20671169.5874   20671165.307
        56.0004         52.0004
 -21962098.06849 -17068456.14548  20677970.5324   20677971.7394   20677970.079
        55.0004         50.0004
  -6252331.96347  -4842872.50347  23821239.2764   23821243.1744   23821238.258
        47.0004         43.0004
 -15311743.44948 -11889758.88048  21936825.3214   21936829.3144   21936824.940
        52.0004         48.0004
 -11992707.79048  -9332661.18947  22607582.3934   22607587.8134   22607582.377
        50.0004         45.0004
  -5123148.36448  -3953309.22047  24301320.5694   24301321.0404   24301320.756
        50.0004         46.0004
 -11290913.76848  -8752363.53347  22704194.1184   22704196.1904   22704193.422
        49.0004         45.0004
  -3908594.60247  -2990870.23846  23905986.0994   23905988.0414   23905985.749
        43.0004         38.0004
    213242.19846    211990.89746  24857993.4194   24857994.8034   24857992.284
        41.0004         37.0004
 20  9  1  0 51 30.0000000  0  9G09G07G27G30G08G05G04G28G16
 -23803051.35149 -18510809.25548  20676414.3794   20676418.0914   20676413.974
        56.0004         52.0004
 -21964561.68249 -17070375.84448  20677501.7154   20677502.8984   20677501.291
        55.0004         50.0004
  -6229980.42447  -4825455.73147  23825491.9594   23825496.7134   23825492.164
        47.0004         43.0004
 -15361074.01548 -11928198.28148  21927438.0354   21927442.4864   21927438.027
        52.0004         48.0004
 -12024932.14348  -9357771.06147  22601450.9284   22601455.7024   22601450.826
        50.0004         45.0004
  -5171438.10648  -3990937.58947  24292131.1544   24292132.0564   24292130.416
        50.0004         45.0004
 -11206964.48848  -8686948.55047  22720168.5114   22720172.8294   22720168.177
        49.0004         44.0004
  -4019019.20247  -3076915.33146  23884973.0834   23884976.2924   23884972.379
        43.0004         38.0004
    309854.11246    287272.85446  24876376.0824   24876378.9504   24876378.213
        41.0004         36.0004
 20  9  1  0 52  0.0000000  0  9G09G07G27G30G08G05G04G28G16
 -23774990.95749 -18488944.02848  20681753.9414   20681757.8204   20681753.719
        56.0004         52.0004
 -21966771.28249 -17072097.61148  20677081.1494   20677082.3234   20677080.486
        55.0004         50.0004
  -6207102.25047  -4807628.59047  23829845.3994   23829849.8974   23829844.756
        47.0004         42.0004
 -15410232.85748 -11966503.86748  21918083.5234   21918087.2614   21918083.264
        52.0004         48.0004
 -12056652.21648  -9382487.97847  22595414.6864   22595419.8524   22595414.253
        50.0004         45.0004
  -5219245.26648  -4028189.91947  24283034.0834   24283035.4434   24283033.705
        50.0004         45.0004
 -11122718.21148  -8621302.14547  22736200.7814   22736203.9474   22736199.671
        49.0004         44.0004
  -4129290.67647  -3162841.14446  23863989.3074   23863991.2714   23863989.350
        43.0004         38.0004
    406537.91846    362610.84146  24894774.9714   24894775.1364   24894776.148
        41.0004         36.0004
 20  9  1  0 52 30.0000000  0  9G09G07G27G30G08G05G04G28G16
 -23746450.75049 -18466704.92348  20687185.1804   20687188.7804   20687184.846
        56.0004         52.0004
 -21968727.32349 -17073621.79748  20676709.0164   20676710.0684   20676708.496
        55.0004         50.0004
  -6183697.78847  -4789391.36247  23834299.0994   23834303.5114   23834298.404
        47.0004         42.0004
 -15459219.81448 -12004675.51748  21908761.7064   21908765.5714   21908761.444
        52.0004         48.0004
 -12087865.97948  -9406810.37547  22589475.4364   22589479.4414   22589474.638
        50.0004         45.0004
  -5266567.48148  -4065064.37647  24274028.7334   24274029.6444   24274028.078
        50.0004         45.0004
 -11038176.04048  -8555425.15847  22752288.4224   22752291.7784   22752287.847
        49.0004         44.0004
  -4239406.96947  -3248646.00846  23843034.8444   23843038.0254   23843035.199
        43.0004         39.0004
    503292.07346    438003.69246  24913186.4644   24913189.3694   24913187.008
        41.0004         36.0004
 20  9  1  0 53  0.0000000  0  9G09G07G27G30G08G05G04G28G16
 -23717430.66149 -18444091.88048  20692707.5264   20692711.1984   20692707.048
        56.0004         52.0004
 -21970429.96549 -17074948.53248  20676385.0194   20676386.1724   20676384.518
        55.0004         50.0004
  -6159767.50747  -4770744.39147  23838853.5754   23838856.7594   23838853.352
        47.0004         42.0004
 -15508034.93748 -12042713.27248  21899472.5854   21899476.3064   21899472.141
        52.0004         48.0004
 -12118571.51948  -9430736.75047  22583631.6544   22583637.1594   22583631.923
        50.0004         45.0004
  -5313403.98648  -4101560.35547  24265114.5324   24265117.9724   24265113.854
        50.0004         45.0004
 -10953339.20748  -8489318.57247  22768432.6664   22768435.4694   22768432.101
        49.0004         45.0004
  -4349366.15247  -3334328.45846  23822109.2644   23822113.6004   23822109.213
        43.0004         38.0004
    600114.07446    513449.35246  24931613.9514   24931613.1784   24931612.907
        41.0004         37.0004
 20  9  1  0 53 30.0000000  0  9G09G07G27G30G08G05G04G28G16
 -23687930.68749 -18421104.90648  20698321.1244   20698324.9384   20698320.863
        56.0004         52.0004
 -21971879.52849 -17076078.06148  20676109.0334   20676110.3284   20676108.853
        55.0004         50.0004
  -6135311.91447  -4751688.09047  23843507.1904   23843510.2554   23843506.394
        47.0004         42.0004
 -15556678.21748 -12080617.12348  21890216.1564   21890219.7884   21890215.811
        52.0004         48.0004
 -12148767.01748  -9454265.69247  22577885.6824   22577890.1294   22577885.529
        50.0004         45.0004
  -5359753.67648  -4137676.99047  24256295.2404   24256298.0154   24256295.702
        50.0004         45.0004
 -10868209.03348  -8422983.40547  22784632.4984   22784634.7654   22784631.609
        49.0004         44.0004
  -4459166.30647  -3419886.99246  23801215.7464   23801218.3344   23801215.330
        43.0004         39.0004
    697001.91446    588946.31946  24950048.6304   24950049.8134   24950050.132
        41.0004         36.0004
 20  9  1  0 54  0.0000000  0  9G09G07G27G30G08G05G04G28G16
 -23657950.66349 -18397743.86748  20704026.2844   20704029.9294   20704025.795
        56.0004         52.0004
 -21973076.13149 -17077010.48148  20675881.4994   20675882.8504   20675880.995
        55.0004         50.0004
  -6110331.32147  -4732222.70147  23848260.0574   23848264.5084   23848259.411
        47.0004         42.0004
 -15605149.48648 -12118386.94148  21880992.1314   21880996.5724   21880991.925
        52.0004         48.0004
 -12178451.23548  -9477396.23647  22572236.8604   22572242.1894   22572237.114
        50.0004         45.0004
  -5405615.04648  -4173413.12047  24247568.0274   24247569.2544   24247568.272
        50.0004         45.0004
 -10782786.66748  -8356420.55547  22800887.0714   22800890.9094   22800886.945
        49.0004         44.0004
  -4568805.40447  -3505320.04146  23780351.9424   23780355.5744   23780351.938
        43.0004         39.0004
    793953.72546    664493.17046  24968500.0804   24968500.9074   24968498.545
        41.0004         36.0004
 20  9  1  0 54 30.0000000  0  9G09G07G27G30G08G05G04G28G16
 -23627490.59749 -18374008.76748  20709822.2774   20709826.2684   20709822.142
        56.0004         52.0004
 -21974020.11249 -17077746.05048  20675701.9184   20675702.9614   20675701.333
        55.0004         50.0004
  -6084826.27647  -4712348.65747  23853113.6734   23853118.7854   23853114.395
        47.0004         42.0004
 -15653448.74048 -12156022.72548  21871801.2964   21871804.9084   21871801.185
        52.0004         48.0004
 -12207621.97348  -9500126.65847  22566686.6904   22566691.2654   22566685.918
        50.0004         45.0004
  -5450987.01048  -4208767.88847  24238933.5244   24238935.9134   24238932.852
        50.0004         45.0004
 -10697073.39148  -8289631.01947  22817198.2794   22817201.1524   22817197.342
        49.0004         44.0004
  -4678282.01147  -3590626.44546  23759519.1184   23759522.4844   23759519.578
        44.0004         39.0004
    890967.75146    740088.45845  24986958.8974   24986960.1784   24986958.167
        40.0004         35.0004
 20  9  1  0 55  0.0000000  0  9G09G07G27G30G08G05G04G28G16
 -23596550.47249 -18349899.59348  20715710.4994   20715714.0304   20715709.784
        56.0004         52.0004
 -21974711.60149 -17078284.87748  20675570.1514   20675571.5214   20675569.781
        55.0004         50.0004
  -6058797.35747  -4692066.39347  23858066.9054   23858071.7764   23858066.641
        47.0004         42.0004
 -15701575.92448 -12193524.42348  21862642.6754   21862647.1734   21862642.348
        52.0004         48.0004
 -12236277.69448  -9522455.77047  22561232.9014   22561238.1704   22561232.825
        50.0004         46.0004
  -5495868.43448  -4243740.42847  24230393.9974   24230395.6774   24230394.200
        50.0004         45.0004
 -10611070.47248  -8222615.80147  22833564.2334   22833567.1504   22833563.177
        49.0004         44.0004
  -4787593.74947  -3675804.39346  23738719.0964   23738721.6434   23738719.239
        44.0004         39.0004
    988041.70546    815730.48146  25005431.1784   25005432.8974   25005432.475
        40.0004         36.0004
 20  9  1  0 55 30.0000000  0  9G09G07G27G30G08G05G04G28G16
 -23565130.25349 -18325416.31948  20721689.2874   20721693.2364   20721688.994
        56.0004         52.0004
 -21975151.04849 -17078627.30748  20675486.2834   20675487.6584   20675486.211
        55.0004         50.0004
  -6032245.03447  -4671376.27747  23863119.7374   23863123.3874   23863119.317
        46.0004         42.0004
 -15749530.95648 -12230891.97848  21853517.0154   21853521.4964   21853517.343
        52.0004         48.0004
 -12264416.92348  -9544382.42147  22555878.2554   22555882.7734   22555877.842
        50.0004         46.0004
  -5540257.42548  -4278329.24247  24221947.0234   24221947.9894   24221946.149
        50.0004         45.0004
 -10524779.16348  -8155375.85047  22849984.9174   22849987.9944   22849984.574
        49.0004         44.0004
  -4896738.84347  -3760852.48146  23717947.9184   23717950.7644   23717948.589
        44.0004         39.0004
   1085173.53446    891417.60446  25023916.8174   25023918.0884   25023915.583
        40.0004         36.0004
 20  9  1  0 56  0.0000000  0  9G09G07G27G30G08G05G04G28G16
 -23533229.95449 -18300558.95948  20727759.6424   20727763.7004   20727759.424
        56.0004         52.0004
 -21975338.78849 -17078773.60048  20675450.8544   20675452.0304   20675450.380
        55.0004         50.0004
  -6005169.82547  -4650278.72147  23868272.1574   23868277.0444   23868271.717
        47.0004         42.0004
 -15797313.70748 -12268125.28848  21844424.3364   21844428.3754   21844424.037
        52.0004         48.0004
 -12292038.13948  -9565905.43347  22550622.4044   22550627.1264   22550622.053
        50.0004         46.0004
  -5584153.79048  -4312534.19447  24213592.9984   24213593.6234   24213593.418
        50.0004         45.0004
 -10438200.70748  -8087912.15047  22866460.2944   22866463.9284   22866459.952
        49.0004         44.0004
  -5005715.46647  -3845769.30546  23697210.5514   23697212.6764   23697211.519
        44.0004         39.0004
   1182361.70046    967148.52845  25042412.2024   25042413.9954   25042411.766
        40.0004         35.0004
 20  9  1  0 56 30.0000000  0  9G09G07G27G30G08G05G04G28G16
 -23500849.66649 -18275327.58248  20733921.4914   20733925.2584   20733921.250
        56.0004         52.0004
 -21975274.96249 -17078723.86948  20675462.8844   20675464.3034   20675462.673
        55.0004         50.0004
  -5977572.38247  -4628774.22847  23873523.4074   23873527.9574   23873523.409
        47.0004         42.0004
 -15844924.21548 -12305224.37948  21835364.1134   21835368.4164   21835364.173
        52.0004         48.0004
 -12319139.85448  -9587023.62647  22545465.1954   22545469.6924   22545464.865
        50.0004         46.0004
  -5627555.74348  -4346353.90347  24205333.9054   24205336.8204   24205334.188
        50.0004         45.0004
 -10351336.48248  -8020225.78347  22882989.8684   22882993.5654   22882989.454
        49.0004         44.0004
  -5114521.44847  -3930553.15346  23676506.1044   23676508.5024   23676505.680
        44.0004         39.0004
   1279604.06346   1042921.86145  25060913.3324   25060916.5924   25060914.505
        40.0004         35.0004
 20  9  1  0 57  0.0000000  0  9G09G07G27G30G08G05G04G28G16
 -23467989.38149 -18249722.18048  20740174.8374   20740178.5274   20740174.422
        56.0004         52.0004
 -21974959.70649 -17078478.21748  20675523.1794   20675524.2114   20675522.447
        55.0004         50.0004
  -5949453.26747  -4606863.23547  23878874.4724   23878878.5794   23878874.125
        47.0004         42.0004
 -15892362.35148 -12342189.16048  21826337.1774   21826341.4954   21826337.069
        53.0004         48.0004
 -12345720.09948  -9607735.49447  22540406.9354   22540411.5654   22540406.461
        50.0004         46.0004
  -5670462.32248  -4379787.60747  24197168.4944   24197172.0134   24197168.152
        50.0004         45.0004
 -10264187.70848  -7952317.67947  22899573.5344   22899578.5904   22899573.755
        49.0004         44.0004
  -5223155.04447  -4015202.65546  23655833.6134   23655836.2424   23655833.512
        44.0004         40.0004
   1376898.39346   1118735.53745  25079430.8904   25079429.1454   25079430.887
        40.0004         35.0004
 20  9  1  0 57 30.0000000  0  9G09G07G27G30G08G05G04G28G16
 -23434649.19849 -18223742.83348  20746519.1744   20746522.8234   20746518.815
        56.0004         52.0004
 -21974393.35149 -17078036.90548  20675630.9174   20675631.9824   20675630.281
        55.0004         50.0004
  -5920813.12847  -4584546.24147  23884324.3484   23884329.1934   23884323.762
        47.0004         42.0004
 -15939628.07448 -12379019.59048  21817342.8834   21817347.2034   21817342.883
        53.0004         48.0004
 -12371777.77448  -9628040.16147  22535447.9614   22535452.8094   22535447.848
        50.0004         46.0004
  -5712872.25148  -4412834.30247  24189098.6104   24189101.7474   24189098.029
        50.0004         45.0004
 -10176755.72948  -7884188.91247  22916211.8234   22916215.3714   22916211.276
        49.0004         44.0004
  -5331614.61947  -4099716.58046  23635194.0824   23635196.6054   23635193.563
        44.0004         39.0004
   1474243.30846   1194588.68545  25097951.8054   25097954.5354   25097953.846
        40.0004         35.0004
 20  9  1  0 58  0.0000000  0  9G09G07G27G30G08G05G04G28G16
 -23400829.10949 -18197389.53548  20752954.9094   20752958.9144   20752954.439
        56.0004         52.0004
 -21973575.97649 -17077399.99648  20675786.4374   20675787.4784   20675785.760
        55.0004         50.0004
  -5891652.51247  -4561823.69447  23889873.9174   23889878.2244   23889873.654
        47.0004         42.0004
 -15986721.19448 -12415715.52248  21808381.3074   21808385.6974   21808381.197
        53.0004         48.0004
 -12397310.85148  -9647936.05347  22530589.9604   22530594.3204   22530589.267
        50.0004         46.0004
  -5754784.71348  -4445493.34847  24181123.0434   24181124.0414   24181122.846
        50.0004         45.0004
 -10089041.77448  -7815840.41347  22932903.1464   22932906.6924   22932902.741
        49.0004         44.0004
  -5439897.90447  -4184093.13546  23614588.7864   23614590.6984   23614587.702
        44.0004         40.0004
   1571636.35846   1270479.40445  25116485.4364   25116491.1864   25116486.647
        39.0004         34.0004
 20  9  1  0 58 30.0000000  0  9G09G07G27G30G08G05G04G28G16
 -23366529.27049 -18170662.40448  20759481.8914   20759485.8044   20759481.539
        56.0004         52.0004
 -21972507.97949 -17076567.79148  20675989.5714   20675990.7224   20675989.027
        55.0004         50.0004
  -5861972.14047  -4538696.14047  23895521.4494   23895526.0304   23895520.472
        47.0004         42.0004
 -16033641.68448 -12452276.93548  21799452.5444   21799456.7524   21799452.664
        53.0004         48.0004
 -12422318.20248  -9667422.29347  22525830.4114   22525834.7764   22525830.473
        50.0004         46.0004
  -5796198.29148  -4477763.66247  24173243.0804   24173243.3694   24173242.066
        50.0004         45.0004
 -10001047.20948  -7747273.26747  22949647.7414   22949651.9824   22949646.995
        49.0004         44.0004
  -5548002.86847  -4268330.69646  23594016.8464   23594020.4724   23594017.083
        44.0004         40.0004
   1669075.45846   1346405.87946  25135028.1224   25135030.2334   25135028.916
        40.0004         36.0004
 20  9  1  0 59  0.0000000  0  9G09G07G27G30G08G05G04G28G16
 -23331749.78649 -18143561.52948  20766100.3064   20766104.2124   20766100.002
        56.0004         52.0004
 -21971189.50349 -17075540.41048  20676240.4864   20676241.5214   20676240.085
        55.0004         50.0004
  -5831772.68147  -4515164.10047  23901268.8224   23901272.7964   23901268.364
        47.0004         42.0004
 -16080389.48648 -12488703.78648  21790556.7534   21790560.8884   21790556.656
        53.0004         48.0004
 -12446798.30748  -9686497.69847  22521172.0244   22521176.7254   22521172.051
        50.0004         46.0004
  -5837111.86648  -4509644.37247  24165456.5044   24165458.3894   24165456.920
        50.0004         46.0004
  -9912773.44048  -7678488.54847  22966446.3194   22966449.4794   22966445.211
        49.0004         44.0004
  -5655928.13647  -4352428.27446  23573479.0834   23573481.4904   23573479.181
        45.0004         40.0004
   1766559.08846   1422367.14445  25153581.2104   25153583.3074   25153578.552
        39.0004         34.0004
 20  9  1  0 59 30.0000000  0  9G09G07G27G30G08G05G04G28G16
 -23296490.93949 -18116087.12448  20772809.9464   20772813.7484   20772809.389
        56.0004         52.0004
 -21969620.88549 -17074318.11348  20676539.1734   20676540.2254   20676538.650
        55.0004         50.0004
  -5801054.99747  -4491228.24047  23907113.9694   23907118.1174   23907113.468
        47.0004         42.0004
 -16126964.59448 -12524996.07748  21781694.0534   21781698.0924   21781693.970
        53.0004         48.0004
 -12470749.44648  -9705160.92147  22516614.7994   22516619.0974   22516614.159
        50.0004         46.0004
  -5877524.97048  -4541135.08747  24157767.1074   24157769.5304   24157765.882
        50.0004         46.0004
  -9824221.84048  -7609487.34447  22983296.3324   22983300.7154   22983295.717
        48.0004         44.0004
  -5763671.68947  -4436384.24846  23552976.9854   23552978.9864   23552976.818
        44.0004         40.0004
   1864085.18046   1498361.44845  25172138.9324   25172140.3644   25172138.670
        39.0004         34.0004
 20  9  1  1  0  0.0000000  0  9G09G07G27G30G08G05G04G28G16
 -23260752.56849 -18088239.05948  20779610.3874   20779614.6524   20779610.140
        56.0004         52.0004
 -21967802.14449 -17072900.91548  20676884.8804   20676886.5284   20676884.801
        55.0004         50.0004
  -5769819.47447  -4466888.87247  23913058.2534   23913062.6654   23913057.628
        47.0004         42.0004
 -16173366.64248 -12561153.51148  21772863.9214   21772867.9224   21772864.108
        53.0004         48.0004
 -12494170.57648  -9723411.14947  22512158.2434   22512162.6114   22512157.398
        50.0004         46.0004
  -5917436.09548  -4572234.66047  24150172.4664   24150174.4074   24150171.788
        50.0004         46.0004
  -9735393.50748  -7540270.50447  23000200.1374   23000203.8334   23000199.052
        48.0004         44.0004
  -5871231.30047  -4520196.87846  23532508.0324   23532510.6484   23532507.469
        45.0004         40.0004
   1961652.01046   1574387.59545  25190704.5554   25190704.9364   25190705.996
        39.0004         34.0004
 20  9  1  1  0 30.0000000  0  8G09G07G27G30G08G05G04G28
 -23224535.14249 -18060017.71248  20786502.4424   20786506.4434   20786502.179
        56.0004         52.0004
 -21965733.68549 -17071289.13248  20677278.8874   20677279.8894   20677278.241
        55.0004         50.0004
  -5738067.16047  -4442146.82047  23919099.9684   23919104.0774   23919098.937
        47.0004         42.0004
 -16219595.82448 -12597176.24448  21764066.8434   21764070.8454   21764066.867
        53.0004         48.0004
 -12517060.08548  -9741247.13347  22507802.0074   22507806.8544   22507802.129
        50.0004         46.0004
  -5956844.54348  -4602942.53747  24142672.8914   24142673.5214   24142672.098
        50.0004         46.0004
  -9646290.09248  -7470839.31447  23017155.6624   23017159.7494   23017155.460
        48.0004         43.0004
  -5978605.39647  -4603864.95746  23512076.1314   23512078.9024   23512076.520
        45.0004         41.0004
 20  9  1  1  1  0.0000000  0  8G09G07G27G30G08G05G04G28
 -23187838.69849 -18031423.10148  20793485.6434   20793489.6434   20793485.307
        56.0004         52.0004
 -21963415.78249 -17069482.97648  20677719.7534   20677720.8874   20677719.269
        55.0004         50.0004
  -5705798.66247  -4417002.53947  23925240.2604   23925245.1524   23925240.689
        47.0004         42.0004
 -16265651.87248 -12633064.06848  21755302.7364   21755306.5214   21755302.466
        53.0004         48.0004
 -12539416.37648  -9758667.61847  22503547.6444   22503552.6324   22503547.322
        50.0004         46.0004
  -5995748.69048  -4633257.44347  24135270.1784   24135271.8774   24135268.744
        50.0004         46.0004
  -9556912.74548  -7401194.67947  23034163.8154   23034167.6614   23034163.510
        48.0004         43.0004
  -6085792.09047  -4687387.01046  23491678.3774   23491680.6644   23491678.155
        45.0004         40.0004
 20  9  1  1  1 30.0000000  0  9G09G07G27G30G08G05G04G28G16
 -23150663.49249 -18002455.43448  20800559.9044   20800563.6984   20800559.522
        56.0004         52.0004
 -21960848.51249 -17067482.51048  20678208.3404   20678209.5024   20678207.761
        55.0004         50.0004
  -5673014.90647  -4391456.75647  23931478.6614   23931483.3494   23931478.502
        47.0004         42.0004
 -16311534.77048 -12668816.97748  21746571.6104   21746575.3564   21746571.358
        53.0004         48.0004
 -12561238.46648  -9775671.84547  22499395.2104   22499400.2994   22499394.749
        50.0004         46.0004
  -6034148.03648  -4663179.01047  24127962.0234   24127964.9284   24127961.037
        51.0004         46.0004
  -9467263.03848  -7331337.79747  23051224.3084   23051227.2004   23051222.504
        48.0004         43.0004
  -6192789.47347  -4770761.56146  23471317.0944   23471320.5504   23471317.701
        45.0004         40.0004
    143465.92348    102598.45445  25246447.4074   25246443.1514   25246449.049
        50.0004         34.0004
 20  9  1  1  2  0.0000000  0  8G09G07G27G30G08G05G04G28
 -23113009.71449 -17973114.84948  20807725.1484   20807729.1114   20807724.739
        56.0004         52.0004
 -21958031.97849 -17065287.81248  20678744.3204   20678745.4614   20678743.820
        55.0004         50.0004
  -5639716.56547  -4365510.00447  23937816.0704   23937819.9814   23937815.391
        47.0004         42.0004
 -16357244.34148 -12704434.81848  21737873.0504   21737877.6464   21737873.259
        53.0004         48.0004
 -12582524.69848  -9792258.51947  22495344.2984   22495349.1924   22495343.964
        50.0004         46.0004
  -6072041.67348  -4692706.53147  24120751.3834   24120753.7414   24120750.673
        51.0004         46.0004
  -9377342.20248  -7261269.66647  23068335.3404   23068339.2244   23068334.359
        48.0004         43.0004
  -6299595.92247  -4853987.31646  23450993.4334   23450995.9194   23450993.905
        45.0004         40.0004
 20  9  1  1  2 30.0000000  0  8G09G07G27G30G08G05G04G28
 -23074877.65549 -17943401.58148  20814981.4784   20814985.4224   20814981.230
        56.0004         52.0004
 -21954966.66949 -17062899.26248  20679327.6854   20679328.8714   20679326.973
        55.0004         50.0004
  -5605904.59547  -4339163.02547  23944249.9134   23944254.8034   23944249.834
        47.0004         42.0004
 -16402780.51348 -12739917.54648  21729208.0644   21729211.8154   21729207.861
        53.0004         48.0004
 -12603273.60548  -9808426.50247  22491396.2564   22491400.9494   22491395.946
        50.0004         46.0004
  -6109428.56248  -4721839.16847  24113636.6174   24113638.2654   24113634.863
        51.0004         46.0004
  -9287151.75248  -7190991.44247  23085497.9844   23085501.5744   23085497.361
        48.0004         43.0004
  -6406209.31147  -4937062.65246  23430705.2694   23430707.9764   23430704.809
        45.0004         41.0004
 20  9  1  1  3  0.0000000  0  8G09G07G27G30G08G05G04G28
 -23036267.53949 -17913315.80348  20822328.8504   20822332.8284   20822328.333
        56.0004         52.0004
 -21951652.45549 -17060316.76148  20679958.2984   20679959.5364   20679957.751
        55.0004         50.0004
  -5571579.72147  -4312416.37647  23950781.5964   23950785.7424   23950781.516
        47.0004         42.0004
 -16448143.13748 -12775265.04248  21720575.4994   21720579.4044   21720575.800
        53.0004         48.0004
 -12623484.22848  -9824175.04347  22487549.9824   22487555.1374   22487549.928
        50.0004         46.0004
  -6146307.79648  -4750576.22847  24106619.5604   24106621.3774   24106619.027
        51.0004         46.0004
  -9196692.95448  -7120504.10047  23102711.3834   23102715.5054   23102710.594
        48.0004         43.0004
  -6512627.76447  -5019986.09146  23410454.8634   23410456.1224   23410454.094
        45.0004         41.0004
 20  9  1  1  3 30.0000000  0  8G09G07G27G30G08G05G04G28
 -22997179.60649 -17882857.70148  20829767.0404   20829770.6674   20829766.522
        56.0004         52.0004
 -21948089.97849 -17057540.80848  20680636.2674   20680637.4844   20680635.637
        55.0004         50.0004
  -5536742.86847  -4285270.79047  23957410.9684   23957415.2364   23957411.611
        47.0004         42.0004
 -16493332.10248 -12810477.21848  21711976.7944   21711980.3774   21711976.441
        53.0004         48.0004
 -12643155.79348  -9839503.53447  22483806.8884   22483811.7814   22483806.764
        50.0004         46.0004
  -6182678.60548  -4778917.11847  24099698.8084   24099701.4034   24099698.225
        51.0004         46.0004
  -9105967.29848  -7049808.84347  23119976.4434   23119980.0844   23119975.967
        48.0004         43.0004
  -6618849.25847  -5102756.06346  23390241.4234   23390243.8034   23390241.118
        45.0004         41.0004
 20  9  1  1  4  0.0000000  0  8G09G07G27G30G08G05G04G28
 -22957614.24549 -17852027.57548  20837295.9904   20837300.0834   20837295.449
        56.0004         52.0004
 -21944279.16149 -17054571.34548  20681361.4344   20681362.5334   20681361.094
        55.0004         50.0004
  -5501394.97347  -4257726.99347  23964137.3184   23964141.6704   23964136.756
        46.0004         42.0004
 -16538347.31748 -12845554.00248  21703410.3484   21703414.2784   21703410.383
        53.0004         48.0004
 -12662286.25648  -9854410.37847  22480166.8784   22480171.2264   22480166.351
        50.0004         46.0004
  -6218539.98348  -4806861.05447  24092874.6874   24092876.5504   24092873.380
        51.0004         46.0004
  -9014976.23248  -6978906.76047  23137290.6344   23137295.1274   23137290.262
        48.0004         43.0004
  -6724872.53047  -5185371.55646  23370065.2964   23370067.9234   23370065.494
        45.0004         41.0004
 20  9  1  1  4 30.0000000  0  8G09G07G27G30G08G05G04G28
 -22917571.71949 -17820825.63648  20844915.8914   20844919.7384   20844915.709
        56.0004         52.0004
 -21940220.24249 -17051408.55548  20682133.9214   20682135.1514   20682133.457
        55.0004         50.0004
  -5465536.95447  -4229785.71046  23970961.0974   23970964.7134   23970960.273
        46.0004         41.0004
 -16583188.69948 -12880495.33548  21694877.1994   21694881.1424   21694877.281
        53.0004         48.0004
 -12680874.78048  -9868894.94647  22476629.2244   22476633.8564   22476629.173
        50.0004         46.0004
  -6253891.20148  -4834407.45947  24086147.6944   24086150.0844   24086145.991
        51.0004         46.0004
  -8923721.18048  -6907798.97747  23154657.0154   23154660.3204   23154655.799
        48.0004         43.0004
  -6830695.50347  -5267830.99546  23349928.2154   23349930.6604   23349928.023
        45.0004         41.0004
 20  9  1  1  5  0.0000000  0  8G09G07G27G30G08G05G04G28
 -22877052.34049 -17789252.12048  20852626.4564   20852630.4974   20852625.775
        56.0004         52.0004
 -21935912.96149 -17048052.23848  20682953.4634   20682954.6774   20682953.032
        55.0004         50.0004
  -5429169.70047  -4201447.59646  23977881.3754   23977885.7984   23977881.115
        46.0004         41.0004
 -16627856.05448 -12915301.06848  21686377.4854   21686381.7454   21686377.288
        53.0004         48.0004
 -12698919.83548  -9882956.01947  22473195.1174   22473199.7034   22473195.033
        50.0004         46.0004
  -6288731.71748  -4861555.92547  24079516.8834   24079520.1374   24079516.251
        51.0004         46.0004
  -8832203.59348  -6836486.62047  23172071.4584   23172075.9894   23172071.173
        48.0004         43.0004
  -6936316.11847  -5350132.74046  23329829.3634   23329831.7714   23329829.454
        46.0004         41.0004
 20  9  1  1  5 30.0000000  0  8G09G07G27G30G08G05G04G28
 -22836056.38349 -17757307.24648  20860427.7894   20860431.8004   20860427.498
        56.0004         52.0004
 -21931358.13649 -17044503.02848  20683820.1374   20683821.2964   20683819.947
        55.0004         50.0004
  -5392294.07347  -4172713.36146  23984898.7944   23984902.5184   23984898.226
        46.0004         41.0004
 -16672349.15548 -12949971.00948  21677910.6484   21677914.3154   21677910.529
        53.0004         48.0004
 -12716420.21848  -9896592.68047  22469864.9824   22469869.5274   22469864.769
        50.0004         46.0004
  -6323060.18348  -4888305.38547  24072984.7564   24072986.5964   24072985.123
        51.0004         46.0004
  -8740424.75047  -6764970.69347  23189536.2924   23189540.3904   23189536.020
        47.0004         43.0004
  -7041732.51447  -5432275.34946  23309768.5124   23309770.6084   23309767.794
        46.0004         41.0004
 20  9  1  1  6  0.0000000  0  8G09G07G27G30G08G05G04G28
 -22794584.37249 -17724991.42548  20868319.7064   20868323.5914   20868319.343
        56.0004         52.0004
 -21926556.08249 -17040761.17248  20684733.9014   20684735.1134   20684733.580
        55.0004         50.0004
  -5354911.25647  -4143583.90046  23992012.9734   23992016.2874   23992012.090
        46.0004         41.0004
 -16716668.03548 -12984505.19948  21669476.9884   21669480.8564   21669477.052
        53.0004         48.0004
 -12733375.35148  -9909804.46647  22466638.9174   22466643.1354   22466638.198
        50.0004         46.0004
  -6356876.23348  -4914655.55347  24066549.6354   24066551.2574   24066549.293
        51.0004         46.0004
  -8648386.31147  -6693252.47647  23207051.4794   23207055.0254   23207049.803
        47.0004         43.0004
  -7146943.26247  -5514257.72646  23289747.9944   23289750.9054   23289747.594
        46.0004         41.0004
 20  9  1  1  6 30.0000000  0  8G09G07G27G30G08G05G04G28
 -22752636.62249 -17692304.89148  20876301.9424   20876306.1264   20876301.474
        56.0004         52.0004
 -21921506.48749 -17036826.42648  20685695.0004   20685696.1664   20685694.512
        55.0004         50.0004
  -5317022.12547  -4114059.91146  23999222.2454   23999227.3564   23999222.150
        46.0004         41.0004
 -16760812.53248 -13018903.50548  21661076.8704   21661080.8194   21661076.863
        53.0004         48.0004
 -12749783.57748  -9922590.09247  22463516.5804   22463521.6634   22463516.256
        50.0004         46.0004
  -6390178.42248  -4940605.30847  24060212.2614   24060214.8174   24060210.950
        51.0004         46.0004
  -8556089.69648  -6621333.08647  23224614.5604   23224618.9134   23224613.113
        48.0004         43.0004
  -7251946.16047  -5596078.13546  23269767.1774   23269769.2424   23269767.479
        46.0004         41.0004
 20  9  1  1  7  0.0000000  0  8G09G07G27G30G08G05G04G28
 -22710213.47649 -17659247.92348  20884375.0424   20884379.0454   20884374.671
        56.0004         52.0004
 -21916209.58549 -17032698.97448  20686702.9784   20686704.1414   20686702.378
        55.0004         50.0004
  -5278627.62847  -4084142.14646  24006529.2694   24006533.7464   24006528.721
        46.0004         41.0004
 -16804782.42748 -13053165.76048  21652709.3264   21652713.4704   21652709.211
        53.0004         48.0004
 -12765643.87148  -9934948.75347  22460498.3424   22460502.4344   22460497.708
        51.0004         46.0004
  -6422966.63948  -4966154.57747  24053972.8384   24053974.1464   24053972.985
        51.0004         46.0004
  -8463536.32048  -6549213.63847  23242226.9284   23242230.8034   23242226.615
        48.0004         43.0004
  -7356739.45747  -5677735.21646  23249825.2804   23249827.8084   23249825.721
        46.0004         41.0004
 20  9  1  1  7 30.0000000  0  8G09G07G27G30G08G05G04G28
 -22667315.49949 -17625820.95448  20892538.5514   20892542.2954   20892537.800
        56.0004         52.0004
 -21910665.80349 -17028379.14848  20687757.9754   20687758.9204   20687757.490
        55.0004         50.0004
  -5239728.96847  -4053831.51946  24013931.1534   24013934.4424   24013930.203
        46.0004         41.0004
 -16848577.68448 -13087291.93248  21644375.5774   21644379.7124   21644375.457
        53.0004         49.0004
 -12780955.25948  -9946879.68947  22457584.1484   22457589.3754   22457584.401
        51.0004         46.0004
  -6455239.97848  -4991302.63847  24047831.4194   24047833.2004   24047831.986
        51.0004         46.0004
  -8370727.76547  -6476895.31947  23259887.7464   23259891.8004   23259886.989
        47.0004         43.0004
  -7461321.62647  -5759227.77946  23229924.1444   23229926.0614   23229923.315
        46.0004         41.0004
 20  9  1  1  8  0.0000000  0  8G09G07G27G30G08G05G04G28
 -22623943.01849 -17592024.23848  20900791.8944   20900795.6974   20900791.672
        56.0004         52.0004
 -21904875.32449 -17023867.08948  20688859.6024   20688860.8634   20688859.235
        55.0004         50.0004
  -5200327.11147  -4023128.77646  24021429.6254   24021433.3004   24021428.827
        46.0004         41.0004
 -16892198.03448 -13121281.81248  21636075.0584   21636078.7124   21636074.747
        53.0004         49.0004
 -12795716.62848  -9958382.05147  22454775.5784   22454779.6024   22454775.401
        51.0004         46.0004
  -6486997.88648  -5016049.06347  24041787.9964   24041789.5114   24041786.590
        51.0004         46.0004
  -8277665.37747  -6404379.23947  23277596.7454   23277600.9474   23277596.089
        47.0004         43.0004
  -7565690.57447  -5840554.19946  23210063.0844   23210065.7874   23210062.342
        46.0004         41.0004
 20  9  1  1  8 30.0000000  0  8G09G07G27G30G08G05G04G28
 -22580096.43149 -17557858.09048  20909135.4164   20909139.7414   20909135.134
        56.0004         52.0004
 -21898838.09549 -17019162.75948  20690008.6094   20690009.6564   20690008.216
        55.0004         50.0004
  -5160423.07647  -3992034.73846  24029022.7264   24029026.6714   24029022.179
        46.0004         41.0004
 -16935643.34148 -13155135.29348  21627807.3044   21627811.5954   21627807.044
        53.0004         49.0004
 -12809926.92448  -9969455.00047  22452071.1854   22452075.9574   22452071.125
        51.0004         46.0004
  -6518239.57748  -5040393.23247  24035843.9464   24035845.3254   24035843.049
        51.0004         46.0004
  -8184350.72347  -6331666.58047  23295354.8904   23295358.1264   23295354.597
        47.0004         43.0004
  -7669844.56247  -5921713.10846  23190244.4334   23190245.9854   23190243.065
        46.0004         41.0004
 20  9  1  1  9  0.0000000  0  8G09G07G27G30G08G05G04G28
 -22535776.33849 -17523322.97448  20917569.4424   20917573.4344   20917569.084
        56.0004         52.0004
 -21892554.42849 -17014266.40048  20691204.2714   20691205.5644   20691203.777
        55.0004         50.0004
  -5120018.07347  -3960550.33346  24036710.9384   24036715.5054   24036710.925
        46.0004         41.0004
 -16978913.51148 -13188852.30348  21619573.4294   21619577.5384   21619573.335
        53.0004         49.0004
 -12823585.41048  -9980097.95947  22449471.8034   22449476.5154   22449471.879
        51.0004         46.0004
  -6548964.28348  -5064334.55847  24029995.9544   24029998.0594   24029995.754
        51.0004         46.0004
  -8090785.35248  -6258758.54047  23313159.3774   23313164.0444   23313158.904
        48.0004         43.0004
  -7773781.93247  -6002703.22846  23170464.6344   23170467.1704   23170464.045
        46.0004         41.0004
 20  9  1  1  9 30.0000000  0  8G09G07G27G30G08G05G04G28
 -22490983.16049 -17488419.22348  20926093.1794   20926097.3744   20926092.719
        56.0004         52.0004
 -21886024.22549 -17009177.93848  20692446.9274   20692448.0634   20692446.516
        55.0004         50.0004
  -5079113.11447  -3928676.34946  24044495.6914   24044499.4984   24044494.986
        46.0004         41.0004
 -17022008.32448 -13222432.67348  21611372.4224   21611377.1044   21611372.734
        53.0004         49.0004
 -12836690.48448  -9990309.69747  22446978.2714   22446983.3594   22446977.780
        51.0004         46.0004
  -6579171.65848  -5087872.78547  24024247.6594   24024248.8954   24024247.363
        51.0004         46.0004
  -7996970.69147  -6185656.26747  23331011.4684   23331014.8524   23331010.779
        47.0004         42.0004
  -7877500.51147  -6083522.86346  23150726.8324   23150729.3984   23150727.281
        46.0004         41.0004
 20  9  1  1 10  0.0000000  0  8G09G07G27G30G08G05G04G28
 -22445717.47049 -17453147.28348  20934706.9884   20934711.1914   20934706.524
        56.0004         52.0004
 -21879247.89849 -17003897.68848  20693736.5154   20693737.5214   20693736.023
        55.0004         50.0004
  -5037709.45847  -3896413.75647  24052374.2444   24052378.3494   24052373.549
        46.0004         42.0004
 -17064927.73049 -13255876.36548  21603205.2574   21603209.7754   21603205.321
        54.0004         49.0004
 -12849241.48148 -10000089.67747  22444589.8254   22444594.8914   22444589.539
        50.0004         46.0004
  -6608861.25448  -5111007.52547  24018598.9494   24018599.8674   24018598.442
        51.0004         46.0004
  -7902908.38647  -6112361.01047  23348911.6414   23348915.0614   23348911.176
        47.0004         43.0004
  -7980998.97447  -6164170.99246  23131033.0564   23131035.0604   23131032.412
        46.0004         41.0004
 20  9  1  1 10 30.0000000  0  8G09G07G27G30G08G05G04G28
 -22399979.71149 -17417507.49448  20943410.6974   20943414.7714   20943410.095
        56.0004         52.0004
 -21872225.54349 -16998425.72948  20695072.7914   20695074.1034   20695072.461
        55.0004         50.0004
  -4995808.17347  -3863763.42246  24060347.2494   24060351.7844   24060346.490
        46.0004         41.0004
 -17107671.41149 -13289183.12948  21595071.6754   21595075.8804   21595071.639
        54.0004         49.0004
 -12861237.36648 -10009437.10147  22442307.1814   22442311.6344   22442306.388
        50.0004         46.0004
  -6638032.23948  -5133738.15947  24013047.3224   24013048.8124   24013046.706
        51.0004         46.0004
  -7808599.87647  -6038873.91847  23366856.9864   23366861.3504   23366856.724
        47.0004         43.0004
  -8084275.44847  -6244646.12246  23111379.8114   23111382.6514   23111379.791
        46.0004         41.0004
 20  9  1  1 11  0.0000000  0  8G09G07G27G30G08G05G04G28
 -22353770.43949 -17381500.29148  20952203.8564   20952207.9124   20952203.508
        56.0004         52.0004
 -21864957.50649 -16992762.33048  20696455.7984   20696457.0664   20696455.353
        55.0004         50.0004
  -4953410.41247  -3830726.21947  24068415.2574   24068419.2574   24068413.875
        46.0004         42.0004
 -17150239.23149 -13322352.85448  21586971.2234   21586975.2044   21586970.990
        54.0004         49.0004
 -12872677.26148 -10018351.28847  22440129.3494   22440134.7534   22440129.592
        50.0004         46.0004
  -6666683.57048  -5156063.88047  24007594.8494   24007596.9034   24007593.829
        51.0004         46.0004
  -7714046.64947  -5965196.13147  23384850.4894   23384854.1474   23384849.879
        47.0004         42.0004
  -8187328.14247  -6324946.87747  23091769.0234   23091770.9124   23091769.150
        46.0004         42.0004
 20  9  1  1 11 30.0000000  0  8G09G07G27G30G08G05G04G28
 -22307090.29649 -17345126.17948  20961086.9824   20961091.0724   20961086.635
        56.0004         52.0004
 -21857443.72749 -16986907.44348  20697885.6834   20697886.7054   20697885.287
        55.0004         50.0004
  -4910517.45147  -3797303.13847  24076577.5954   24076582.9044   24076577.870
        46.0004         42.0004
 -17192631.11949 -13355385.48848  21578904.3394   21578908.2104   21578904.222
        54.0004         49.0004
 -12883560.49448 -10026831.71347  22438058.9904   22438064.0624   22438058.624
        50.0004         46.0004
  -6694815.27248  -5177984.68247  24002241.6714   24002242.9084   24002242.261
        51.0004         46.0004
  -7619250.39547  -5891328.97247  23402889.1884   23402894.1694   23402889.037
        47.0004         42.0004
  -8290155.19847  -6405071.83347  23072201.9804   23072203.7634   23072201.305
        46.0004         42.0004
 20  9  1  1 12  0.0000000  0  8G09G07G27G30G08G05G04G28
 -22259939.83249 -17308385.58748  20970059.4414   20970063.4744   20970059.048
        56.0004         51.0004
 -21849684.44449 -16980861.25048  20699362.1944   20699363.3204   20699361.720
        55.0004         50.0004
  -4867130.49147  -3763495.12447  24084833.6214   24084838.0144   24084833.079
        46.0004         42.0004
 -17234846.82049 -13388280.83748  21570871.1504   21570874.9394   21570871.004
        54.0004         49.0004
 -12893885.94648 -10034877.50847  22436093.4984   22436099.1294   22436093.644
        50.0004         46.0004
  -6722426.63448  -5199500.03747  23996987.6684   23996988.9824   23996986.793
        51.0004         46.0004
  -7524212.58547  -5817273.58347  23420974.7384   23420979.3334   23420973.998
        47.0004         42.0004
  -8392754.99547  -6485019.68746  23052677.8964   23052680.7674   23052678.305
        46.0004         41.0004
 20  9  1  1 12 30.0000000  0  8G09G07G27G30G08G05G04G28
 -22212319.46449 -17271278.83548  20979121.4034   20979125.3304   20979121.058
        56.0004         51.0004
 -21841679.60049 -16974623.71848  20700885.3814   20700886.6034   20700885.037
        55.0004         50.0004
  -4823250.61647  -3729303.02047  24093184.4714   24093189.5304   24093183.229
        46.0004         42.0004
 -17276886.01649 -13421038.64948  21562871.1524   21562875.4324   21562871.021
        54.0004         49.0004
 -12903652.69548 -10042487.95047  22434236.0554   22434240.2864   22434235.146
        50.0004         46.0004
  -6749516.86448  -5220609.30147  23991832.7764   23991834.2334   23991831.869
        51.0004         46.0004
  -7428934.64447  -5743031.09547  23439105.7574   23439109.9614   23439105.483
        47.0004         42.0004
  -8495125.53147  -6564788.89947  23033196.8614   23033199.9654   23033197.819
        46.0004         42.0004
 20  9  1  1 13  0.0000000  0  8G09G07G27G30G08G05G04G28
 -22164230.15749 -17233806.67648  20988272.3074   20988276.4194   20988272.064
        56.0004         51.0004
 -21833429.76649 -16968195.28148  20702455.3754   20702456.6574   20702454.711
        55.0004         50.0004
  -4778879.35647  -3694728.02947  24101627.3574   24101632.3234   24101626.711
        46.0004         42.0004
 -17318748.84849 -13453659.03848  21554904.9394   21554908.8094   21554904.709
        54.0004         49.0004
 -12912860.42848 -10049662.78947  22432482.6604   22432489.1334   22432482.891
        50.0004         46.0004
  -6776086.29248  -5241312.75947  23986776.4024   23986778.1414   23986776.118
        51.0004         46.0004
  -7333418.43047  -5668602.93347  23457281.7734   23457285.9804   23457280.780
        47.0004         42.0004
  -8597265.16347  -6644378.18447  23013760.9184   23013763.2644   23013759.801
        46.0004         42.0004
 20  9  1  1 13 30.0000000  0  8G09G07G27G30G08G05G04G28
 -22115672.22249 -17195969.35248  20997512.5744   20997516.5304   20997512.362
        56.0004         51.0004
 -21824934.79449 -16961575.82748  20704071.7264   20704073.2034   20704071.440
        55.0004         50.0004
  -4734017.68547  -3659770.90046  24110164.5554   24110169.8434   24110164.058
        46.0004         41.0004
 -17360434.79549 -13486141.58748  21546972.4374   21546976.3124   21546972.167
        54.0004         49.0004
 -12921507.59148 -10056400.82347  22430837.9134   22430842.4624   22430837.935
        50.0004         46.0004
  -6802133.85148  -5261609.55247  23981819.6624   23981822.1914   23981819.043
        51.0004         46.0004
  -7237665.27647  -5593990.14647  23475502.8714   23475507.4464   23475503.194
        47.0004         42.0004
  -8699172.08047  -6723786.14547  22994368.6464   22994371.0694   22994368.846
        46.0004         42.0004
 20  9  1  1 14  0.0000000  0  8G09G07G27G30G08G05G04G28
 -22066646.37349 -17157767.41848  21006842.0264   21006846.0004   21006841.702
        56.0004         51.0004
 -21816194.71649 -16954765.38148  20705734.8814   20705736.3774   20705734.546
        55.0004         50.0004
  -4688666.95947  -3624432.67546  24118794.4744   24118798.3784   24118793.377
        46.0004         41.0004
 -17401943.75049 -13518486.22848  21539073.2924   21539077.4704   21539073.270
        54.0004         49.0004
 -12929593.80248 -10062701.75047  22429299.1884   22429303.7984   22429299.176
        50.0004         46.0004
  -6827659.63048  -5281499.77847  23976962.1214   23976964.4784   23976961.831
        51.0004         46.0004
  -7141676.76647  -5519193.95247  23493769.2204   23493772.9974   23493768.525
        46.0004         42.0004
  -8800844.82747  -6803011.63047  22975020.1794   22975023.0464   22975020.757
        46.0004         42.0004
 20  9  1  1 14 30.0000000  0  8G09G07G27G30G08G05G04G28
 -22017153.46649 -17119201.54148  21016260.2904   21016264.2984   21016259.989
        56.0004         51.0004
 -21807209.92849 -16947764.25348  20707444.9834   20707445.9614   20707444.328
        55.0004         50.0004
  -4642828.71847  -3588714.57846  24127517.5574   24127521.6524   24127517.968
        46.0004         41.0004
 -17443275.69749 -13550692.94048  21531208.5974   21531212.5734   21531207.966
        54.0004         49.0004
 -12937118.88348 -10068565.44947  22427867.0004   22427872.0474   22427867.147
        50.0004         46.0004
  -6852663.02748  -5300982.93647  23972204.7704   23972206.1564   23972204.313
        51.0004         46.0004
  -7045454.75047  -5444215.80847  23512079.3374   23512083.5854   23512078.350
        46.0004         42.0004
  -8902281.66447  -6882053.29247  22955717.6394   22955720.8534   22955718.022
        47.0004         42.0004
 20  9  1  1 15  0.0000000  0  8G09G07G27G30G08G05G04G28
 -21967193.98149 -17080272.09848  21025767.1214   21025771.2484   21025766.730
        56.0004         51.0004
 -21797980.46749 -16940572.46948  20709201.0264   20709202.3114   20709200.769
        55.0004         50.0004
  -4596504.04147  -3552617.43446  24136332.6544   24136337.3624   24136332.050
        46.0004         41.0004
 -17484430.20349 -13582761.38648  21523377.0734   21523380.6884   21523376.906
        54.0004         49.0004
 -12944081.18848 -10073990.61547  22426542.6164   22426547.0894   22426541.958
        50.0004         46.0004
  -6877143.42648  -5320058.56747  23967545.5094   23967548.0774   23967545.144
        51.0004         46.0004
  -6949000.54847  -5369056.73247  23530434.0714   23530438.3624   23530433.788
        46.0004         42.0004
  -9003480.45047  -6960909.46447  22936460.0304   22936462.6614   22936460.380
        47.0004         42.0004
 20  9  1  1 15 30.0000000  0  8G09G07G27G30G08G05G04G28
 -21916768.70149 -17040979.70048  21035362.9864   21035366.9324   21035362.526
        56.0004         51.0004
 -21788506.50249 -16933190.15748  20711004.1774   20711005.3344   20711003.464
        55.0004         50.0004
  -4549694.32047  -3516142.34146  24145240.3834   24145244.6104   24145240.846
        46.0004         41.0004
 -17525407.16049 -13614691.47748  21515579.0814   21515583.0204   21515578.805
        54.0004         49.0004
 -12950480.34348 -10078976.96247  22425324.7514   22425330.1514   22425323.975
        50.0004         46.0004
  -6901100.26148  -5338726.23947  23962987.3274   23962989.4644   23962987.368
        51.0004         46.0004
  -6852315.89047  -5293718.09846  23548832.7954   23548836.5444   23548831.578
        46.0004         41.0004
  -9104439.50947  -7039578.83647  22917248.7044   22917250.1574   22917248.921
        47.0004         42.0004
 20  9  1  1 16  0.0000000  0  8G09G07G27G30G08G05G04G28
 -21865878.33549 -17001324.89748  21045047.0364   21045050.8794   21045046.533
        56.0004         51.0004
 -21778788.12549 -16925617.40148  20712853.2864   20712854.3924   20712852.784
        55.0004         50.0004
  -4502400.96147  -3479290.38046  24154239.3974   24154243.6124   24154239.660
        46.0004         41.0004
 -17566206.35149 -13646483.04948  21507815.1544   21507819.3224   21507814.993
        54.0004         49.0004
 -12956316.28548 -10083524.45347  22424213.7484   22424218.7704   22424213.789
        50.0004         46.0004
  -6924533.59148  -5356985.98147  23958527.6324   23958530.2764   23958527.198
        51.0004         46.0004
  -6755402.35147  -5218201.09246  23567274.2554   23567278.6454   23567274.127
        46.0004         41.0004
  -9205157.55947  -7118060.40447  22898082.5854   22898084.4924   22898082.742
        47.0004         42.0004
 20  9  1  1 16 30.0000000  0  8G09G07G27G30G08G05G04G28
 -21814523.58349 -16961308.23648  21054819.4714   21054823.6434   21054819.018
        56.0004         51.0004
 -21768825.36449 -16917854.21448  20714749.2084   20714750.4004   20714748.947
        55.0004         50.0004
  -4454625.26347  -3442062.58246  24163331.8774   24163335.4634   24163331.360
        46.0004         41.0004
 -17606827.51249 -13678135.90148  21500085.4534   21500089.3344   21500085.139
        54.0004         49.0004
 -12961587.47848 -10087631.87147  22423210.8364   22423216.3684   22423210.829
        50.0004         46.0004
  -6947443.15548  -5374837.59247  23954168.3104   23954170.3334   23954167.120
        51.0004         46.0004
  -6658261.55647  -5142507.02246  23585759.5144   23585764.3434   23585758.366
        46.0004         41.0004
  -9305632.63747  -7196352.65647  22878962.1364   22878965.2364   22878962.193
        47.0004         42.0004
 20  9  1  1 17  0.0000000  0  8G09G07G27G30G08G05G04G28
 -21762705.25349 -16920930.34548  21064680.3674   21064684.2754   21064679.914
        56.0004         51.0004
 -21758618.31949 -16909900.68148  20716691.7004   20716692.7834   20716691.056
        55.0004         50.0004
  -4406368.74347  -3404460.11746  24172513.9064   24172518.8874   24172513.434
        45.0004         41.0004
 -17647270.48949 -13709649.90748  21492389.3864   21492393.2564   21492389.384
        54.0004         49.0004
 -12966293.44748 -10091298.87147  22422315.7794   22422320.5254   22422315.299
        50.0004         46.0004
  -6969828.14148  -5392280.43747  23949908.9084   23949910.8384   23949908.742
        51.0004         46.0004
  -6560895.15247  -5066637.13846  23604289.0494   23604293.0134   23604288.634
        46.0004         41.0004
  -9405863.01547  -7274454.21747  22859889.3174   22859892.2594   22859889.239
        47.0004         42.0004
 20  9  1  1 17 30.0000000  0  9G09G07G27G30G08G05G04G28G11
 -21710424.09749 -16880191.80948  21074628.8394   21074632.9124   21074628.610
        56.0004         51.0004
 -21748167.18449 -16901756.94348  20718680.4514   20718681.5834   20718679.836
        55.0004         50.0004
  -4357632.72947  -3366484.01446  24181788.8234   24181792.8794   24181787.509
        45.0004         41.0004
 -17687535.01749 -13741024.86148  21484726.9984   21484730.7934   21484727.241
        54.0004         49.0004
 -12970433.57548 -10094524.95547  22421528.2164   22421532.6804   22421527.684
        51.0004         46.0004
  -6991688.56248  -5409314.53547  23945749.3124   23945751.0034   23945747.906
        51.0004         46.0004
  -6463304.79047  -4990592.74646  23622859.1624   23622863.1784   23622858.141
        46.0004         41.0004
  -9505846.98547  -7352363.78847  22840863.3104   22840864.4204   22840862.829
        47.0004         42.0004
                                                                  24510329.590

 20  9  1  1 18  0.0000000  0  9G09G07G27G30G08G05G04G28G11
 -21657680.86449 -16839093.21048  21084665.8064   21084669.9184   21084665.349
        56.0004         51.0004
 -21737472.18349 -16893423.17848  20720715.8134   20720716.7604   20720714.941
        55.0004         50.0004
  -4308418.63747  -3328135.40546  24191154.2984   24191156.9734   24191153.768
        45.0004         41.0004
 -17727620.85949 -13772260.58048  21477099.3534   21477103.3174   21477099.171
        54.0004         49.0004
 -12974007.56248 -10097309.87747  22420848.0084   22420852.5404   22420847.435
        51.0004         46.0004
  -7013024.12948  -5425939.65547  23941688.3064   23941689.5984   23941688.411
        51.0004         46.0004
  -6365492.03147  -4914375.06446  23641471.0244   23641475.9824   23641471.395
        46.0004         41.0004
  -9605582.78247  -7430079.97347  22821884.1034   22821885.5794   22821883.967
        47.0004         42.0004
                                                                  24500401.613

 20  9  1  1 18 30.0000000  0  9G09G07G27G30G08G05G04G28G11
 -21604476.39749 -16797635.20748  21094790.1804   21094794.2394   21094789.805
        56.0004         51.0004
 -21726533.12849 -16884899.24548  20722797.2974   20722798.5184   20722796.670
        55.0004         50.0004
  -4258727.99047  -3289415.42246  24200609.5674   24200613.2584   24200609.272
        45.0004         41.0004
 -17767527.80349 -13803356.89748  21469505.1754   21469509.0634   21469505.115
        54.0004         49.0004
 -12977014.87448 -10099653.23647  22420275.4284   22420280.2654   22420275.351
        51.0004         46.0004
  -7033834.73448  -5442155.70747  23937728.6994   23937730.2994   23937728.435
        51.0004         46.0004
  -6267458.56947  -4837985.39546  23660127.9014   23660131.2364   23660126.760
        46.0004         41.0004
  -9705068.86547  -7507601.58147  22802952.8114   22802954.2834   22802952.468
        47.0004         42.0004
                                                                  24490511.411

 20  9  1  1 19  0.0000000  0  9G09G07G27G30G08G05G04G28G11
 -21550811.57749 -16755818.48648  21105002.5764   21105006.5464   21105002.008
        56.0004         51.0004
 -21715350.58049 -16876185.57248  20724925.3174   20724926.5484   20724924.587
        55.0004         50.0004
  -4208562.21847  -3250325.20746  24210155.7024   24210159.7404   24210155.596
        45.0004         40.0004
 -17807255.66249 -13834313.66448  21461945.2814   21461949.0414   21461945.073
        54.0004         49.0004
 -12979454.99248 -10101554.63547  22419811.0574   22419816.3364   22419810.910
        51.0004         46.0004
  -7054120.36848  -5457962.69647  23933868.1944   23933869.5184   23933867.914
        51.0004         46.0004
  -6169206.13147  -4761425.11246  23678824.1314   23678828.9384   23678823.842
        46.0004         41.0004
  -9804303.70747  -7584927.41047  22784067.3424   22784070.2814   22784068.576
        47.0004         42.0004
                                                                  24480658.430

 20  9  1  1 19 30.0000000  0  9G09G07G27G30G08G05G04G28G11
 -21496687.13949 -16713643.62448  21115301.8914   21115306.1834   21115301.514
        56.0004         51.0004
 -21703924.39249 -16867282.05648  20727099.6494   20727100.6564   20727099.163
        55.0004         50.0004
  -4157922.82247  -3210865.96446  24219790.8594   24219797.0104   24219792.099
        45.0004         40.0004
 -17846804.07849 -13865130.61048  21454419.3964   21454423.6124   21454419.249
        54.0004         49.0004
 -12981326.90948 -10103013.27647  22419454.6424   22419459.1344   22419454.322
        51.0004         46.0004
  -7073880.48648  -5473360.19647  23930108.8544   23930110.6064   23930106.886
        51.0004         46.0004
  -6070736.28347  -4684695.40746  23697562.5974   23697566.9774   23697561.949
        46.0004         41.0004
  -9903285.44247  -7662056.01747  22765232.4104   22765235.3354   22765233.201
        47.0004         42.0004
   -238039.27148    -74129.39546  24470843.3644   24470846.0944   24470843.428
        48.0004         37.0004
 20  9  1  1 20  0.0000000  0  9G09G07G27G30G08G05G04G28G11
 -21442103.98249 -16671111.31048  21125688.6734   21125692.7594   21125688.372
        56.0004         51.0004
 -21692254.63049 -16858188.73248  20729320.2274   20729321.1324   20729319.838
        55.0004         50.0004
  -4106811.23247  -3171038.77546  24229520.2984   24229523.8164   24229519.003
        45.0004         40.0004
 -17886172.90849 -13895807.61448  21446927.8034   21446931.7274   21446927.460
        54.0004         50.0004
 -12982630.66648 -10104029.19547  22419207.4674   22419211.8054   22419206.372
        51.0004         46.0004
  -7093115.27048  -5488348.33547  23926448.2234   23926449.7604   23926447.912
        51.0004         46.0004
  -5972050.69347  -4607797.60646  23716341.5534   23716345.4734   23716341.957
        46.0004         41.0004
 -10002012.47247  -7738986.13947  22746446.5274   22746448.8874   22746445.828
        47.0004         43.0004
   -289420.00647   -114166.25746  24461066.0974   24461069.8164   24461066.574
        45.0004         39.0004
 20  9  1  1 20 30.0000000  0  9G09G07G27G30G08G05G04G28G11
 -21387062.94249 -16628222.21048  21136162.7694   21136166.8464   21136162.319
        56.0004         51.0004
 -21680341.26749 -16848905.59248  20731587.5084   20731588.3794   20731586.686
        55.0004         50.0004
  -4055229.03947  -3130844.87646  24239333.9654   24239338.3044   24239333.487
        45.0004         41.0004
 -17925361.80949 -13926344.41848  21439470.3964   21439474.6154   21439470.066
        54.0004         50.0004
 -12983365.84448 -10104602.05947  22419066.4444   22419071.7024   22419066.044
        50.0004         46.0004
  -7111824.35748  -5502926.86047  23922887.7724   23922889.5794   23922886.975
        51.0004         46.0004
  -5873151.05547  -4530732.99546  23735162.2504   23735166.1484   23735161.854
        46.0004         41.0004
 -10100483.02947  -7815716.42747  22727708.3384   22727710.4054   22727707.689
        47.0004         43.0004
   -340598.17247   -154045.32546  24451327.7394   24451328.8704   24451327.037
        44.0004         39.0004
 20  9  1  1 21  0.0000000  0  9G09G07G27G30G08G05G04G28G11
 -21331565.02749 -16584977.10448  21146723.5714   21146727.5884   21146723.318
        56.0004         51.0004
 -21668184.55249 -16839432.82948  20733900.5084   20733901.9694   20733900.215
        55.0004         50.0004
  -4003177.82347  -3090285.50546  24249238.4734   24249242.8224   24249237.599
        45.0004         40.0004
 -17964370.64249 -13956740.90848  21432047.0624   21432051.1704   21432047.320
        54.0004         50.0004
 -12983531.63248 -10104731.25747  22419034.9774   22419040.2274   22419034.815
        51.0004         46.0004
  -7130007.91348  -5517095.86247  23919427.4424   23919428.2814   23919427.308
        51.0004         46.0004
  -5774039.12047  -4453502.96646  23754021.9884   23754027.4774   23754021.521
        45.0004         41.0004
 -10198695.45747  -7892245.56647  22709017.6334   22709020.4774   22709018.038
        47.0004         43.0004
   -391571.54447   -193764.84746  24441626.8874   24441628.9374   24441627.824
        43.0004         38.0004
 20  9  1  1 21 30.0000000  0  9G09G07G27G30G08G05G04G28G11
 -21275610.96249 -16541376.54848  21157371.2024   21157375.6324   21157371.096
        56.0004         51.0004
 -21655784.51649 -16829770.46448  20736260.1174   20736261.3334   20736259.793
        55.0004         50.0004
  -3950658.96847  -3049361.74246  24259232.3334   24259236.4644   24259232.999
        45.0004         40.0004
 -18003198.99649 -13986996.76248  21424658.4514   21424662.3424   21424658.090
        54.0004         50.0004
 -12983127.91948 -10104416.66947  22419112.0364   22419117.1064   22419111.588
        50.0004         46.0004
  -7147665.54448  -5530855.05847  23916067.7344   23916069.2564   23916066.910
        50.0004         46.0004
  -5674716.42547  -4376108.70846  23772923.8674   23772926.8104   23772922.782
        45.0004         41.0004
 -10296648.12347  -7968572.29247  22690378.5044   22690380.4994   22690378.298
        47.0004         43.0004
   -442337.50947   -233322.74546  24431968.4244   24431967.6584   24431967.240
        42.0004         36.0004
 20  9  1  1 22  0.0000000  0  9G09G07G27G30G08G05G04G28G11
 -21219201.86849 -16497421.42648  21168105.6554   21168109.8664   21168105.431
        56.0004         51.0004
 -21643141.48249 -16819918.75348  20738665.9504   20738667.3504   20738665.444
        55.0004         50.0004
  -3897674.26447  -3008074.96846  24269315.4284   24269319.8244   24269315.586
        45.0004         41.0004
 -18041846.78649 -14017111.91948  21417303.7124   21417308.0834   21417303.540
        54.0004         50.0004
 -12982154.01848 -10103657.79047  22419297.1624   22419302.7984   22419297.216
        51.0004         46.0004
  -7164797.52748  -5544204.65647  23912806.2754   23912809.2684   23912805.120
        50.0004         46.0004
  -5575184.79547  -4298551.65246  23791863.0584   23791866.6744   23791862.637
        45.0004         40.0004
 -10394339.71147  -8044695.58547  22671788.2644   22671789.9184   22671787.906
        47.0004         43.0004
   -492893.50746   -272717.06645  24422346.2554   24422346.6264   24422345.507
        39.0004         34.0004
 20  9  1  1 22 30.0000000  0  9G09G07G27G30G08G05G04G28G11
 -21162338.53549 -16453112.35648  21178926.2934   21178930.6784   21178925.936
        55.0004         51.0004
 -21630255.28449 -16809877.56248  20741118.3144   20741119.6814   20741117.664
        55.0004         50.0004
  -3844225.08547  -2966426.28046  24279486.3964   24279492.0614   24279486.902
        45.0004         40.0004
 -18080313.58049 -14047086.03848  21409983.8704   21409988.0894   21409983.632
        54.0004         50.0004
 -12980609.71348 -10102454.43747  22419591.5244   22419595.8184   22419591.381
        51.0004         46.0004
  -7181403.32348  -5557144.25947  23909646.8994   23909648.5174   23909646.578
        50.0004         46.0004
  -5475445.85247  -4220833.02746  23810842.9304   23810847.1104   23810841.759
        45.0004         40.0004
 -10491768.35047  -8120613.98347  22653248.0104   22653250.6444   22653248.530
        47.0004         43.0004
   -543236.78946   -311945.56746  24412765.1284   24412768.6754   24412766.286
        41.0004         37.0004
 20  9  1  1 23  0.0000000  0  9G09G07G27G30G08G05G04G28G11
 -21105022.01549 -16408450.15148  21189833.4834   21189837.5414   21189832.986
        55.0004         51.0004
 -21617126.09449 -16799647.02948  20743616.6974   20743617.8144   20743616.105
        55.0004         50.0004
  -3790313.14247  -2924416.99346  24289746.2284   24289750.6404   24289745.895
        45.0004         40.0004
 -18118599.22849 -14076919.00748  21402698.4264   21402702.6004   21402698.024
        54.0004         50.0004
 -12978495.03848 -10100806.63647  22419993.7164   22419998.6994   22419993.511
        50.0004         46.0004
  -7197483.10548  -5569673.95047  23906587.1924   23906589.3164   23906586.912
        51.0004         46.0004
  -5375501.35947  -4142954.27146  23829861.7794   23829865.8644   23829860.479
        45.0004         41.0004
 -10588932.03247  -8196325.92547  22634758.7674   22634760.5174   22634758.501
        47.0004         43.0004
   -593364.35547   -351006.00246  24403226.6784   24403230.8404   24403227.035
        43.0004         39.0004
 20  9  1  1 23 30.0000000  0  9G09G07G27G30G08G05G04G28G11
 -21047253.27249 -16363435.56948  21200826.3434   21200830.4594   21200825.929
        55.0004         51.0004
 -21603754.31749 -16789227.46848  20746161.2724   20746162.4044   20746160.814
        55.0004         50.0004
  -3735940.06647  -2882048.36246  24300093.7924   24300096.3224   24300092.607
        45.0004         40.0004
 -18156703.40249 -14106610.56948  21395447.2854   21395451.5794   21395447.184
        54.0004         50.0004
 -12975809.32448 -10098713.86747  22420504.4604   22420509.6284   22420504.441
        50.0004         46.0004
  -7213036.81048  -5581793.74247  23903627.7594   23903629.4254   23903626.271
        51.0004         46.0004
  -5275353.08547  -4064916.69446  23848918.8144   23848923.1814   23848918.206
        45.0004         40.0004
 -10685829.50847  -8271830.42647  22616319.9294   22616322.5044   22616319.494
        47.0004         43.0004
   -643273.91447   -389896.57746  24393729.2324   24393732.3564   24393729.430
        44.0004         40.0004
 20  9  1  1 24  0.0000000  0  9G09G07G27G30G08G05G04G28G11
 -20989033.23949 -16318069.32748  21211905.2694   21211909.7644   21211905.060
        55.0004         51.0004
 -21590139.62749 -16778618.62648  20748752.0354   20748753.4584   20748751.525
        55.0004         50.0004
  -3681107.43447  -2839321.63446  24310528.4814   24310532.6064   24310528.499
        45.0004         40.0004
 -18194625.83749 -14136160.51148  21388230.9264   21388235.3294   21388230.707
        54.0004         50.0004
 -12972552.30448 -10096175.92747  22421125.0594   22421129.7324   22421124.318
        51.0004         46.0004
  -7228064.81048  -5593503.87647  23900768.1684   23900770.4704   23900768.070
        51.0004         46.0004
  -5175002.57647  -3986721.53746  23868015.6904   23868020.5904   23868015.052
        45.0004         40.0004
 -10782459.29748  -8347126.35147  22597931.2644   22597934.4034   22597932.137
        48.0004         43.0004
   -692962.86847   -428615.20346  24384273.8534   24384275.7834   24384274.514
        44.0004         39.0004
 20  9  1  1 24 30.0000000  0  9G09G07G27G30G08G05G04G28G11
 -20930362.91149 -16272352.20948  21223069.9844   21223073.9764   21223069.607
        55.0004         51.0004
 -21576282.02449 -16767820.49748  20751389.2114   20751390.5594   20751388.629
        55.0004         50.0004
  -3625816.86647  -2796238.08146  24321048.3964   24321054.5464   24321048.103
        45.0004         40.0004
 -18232366.16949 -14165568.56048  21381049.3074   21381053.4224   21381049.106
        54.0004         50.0004
 -12968724.01348 -10093192.83547  22421852.9414   22421857.1914   22421852.355
        51.0004         46.0004
  -7242566.84848  -5604804.18147  23898008.7454   23898010.2124   23898008.193
        51.0004         46.0004
  -5074451.67147  -3908370.23346  23887151.0524   23887153.6704   23887149.146
        45.0004         40.0004
 -10878819.67848  -8422212.33547  22579594.3294   22579597.3854   22579594.850
        48.0004         43.0004
   -742428.68547   -467159.96646  24374860.4124   24374863.5704   24374860.749
        42.0004         36.0004
 20  9  1  1 25  0.0000000  0  9G09G07G27G30G08G05G04G28G11
 -20871243.38349 -16226285.06348  21234319.9024   21234324.2334   21234319.548
        55.0004         51.0004
 -21562181.87149 -16756833.37248  20754072.2204   20754073.5024   20754071.787
        55.0004         50.0004
  -3570070.09047  -2752799.05346  24331656.4734   24331660.8034   24331656.458
        45.0004         40.0004
 -18269924.18549 -14194834.54348  21373902.1234   21373906.4254   21373902.241
        54.0004         50.0004
 -12964323.64348 -10089763.96547  22422690.5124   22422696.1164   22422689.966
        51.0004         46.0004
  -7256543.02848  -5615694.70847  23895349.0654   23895351.0924   23895347.678
        51.0004         46.0004
  -4973702.03747  -3829864.05546  23906321.7724   23906326.1744   23906321.417
        45.0004         40.0004
 -10974909.08448  -8497087.18747  22561309.0324   22561311.7634   22561309.567
        48.0004         43.0004
   -791668.94146   -505529.01646  24365490.6964   24365491.8494   24365490.566
        41.0004         36.0004
 20  9  1  1 25 30.0000000  0  9G09G07G27G30G08G05G04G28G11
 -20811675.71949 -16179868.72748  21245655.4724   21245659.4884   21245655.163
        55.0004         51.0004
 -21547838.87349 -16745657.01748  20756801.7584   20756802.7814   20756801.078
        55.0004         50.0004
  -3513868.83847  -2709005.87546  24342351.9424   24342355.0624   24342351.733
        45.0004         40.0004
 -18307299.64249 -14223958.27148  21366789.8514   21366793.9634   21366789.724
        54.0004         50.0004
 -12959351.56148 -10085889.62647  22423636.5634   22423641.6204   22423635.836
        51.0004         46.0004
  -7269993.70148  -5626175.77747  23892788.9754   23892791.4174   23892788.755
        51.0004         46.0004
  -4872755.55347  -3751204.50046  23925531.3294   23925535.9564   23925531.176
        45.0004         40.0004
 -11070725.86648  -8571749.58747  22543076.1384   22543078.2354   22543076.471
        48.0004         43.0004
   -840680.73046   -543720.10346  24356165.0114   24356165.8734   24356164.637
        41.0004         37.0004
 20  9  1  1 26  0.0000000  0  9G09G07G27G30G08G05G04G28G11
 -20751660.94649 -16133103.98648  21257076.0174   21257079.9684   21257075.356
        55.0004         51.0004
 -21533253.38949 -16734291.70948  20759577.0434   20759578.5804   20759576.789
        55.0004         50.0004
  -3457214.77147  -2664859.84546  24353133.2864   24353136.3654   24353132.276
        45.0004         40.0004
 -18344492.18449 -14252939.46948  21359712.4144   21359716.2584   21359712.031
        54.0004         50.0004
 -12953807.45848 -10081569.54047  22424691.0784   22424696.8584   22424691.098
        51.0004         46.0004
  -7282918.46148  -5636247.02747  23890329.1954   23890331.0274   23890328.498
        51.0004         47.0004
  -4771613.85947  -3672392.83546  23944777.8794   23944782.3594   23944777.566
        45.0004         40.0004
 -11166268.45748  -8646198.33347  22524894.8974   22524896.9944   22524895.310
        48.0004         43.0004
   -889461.49447   -581731.11846  24346883.4344   24346885.3074   24346882.194
        42.0004         38.0004
 20  9  1  1 26 30.0000000  0  9G09G07G27G30G08G05G04G28G11
 -20691200.06849 -16085991.63848  21268581.2484   21268585.3854   21268580.866
        55.0004         51.0004
 -21518425.50049 -16722737.51648  20762399.0464   20762400.1414   20762398.298
        55.0004         50.0004
  -3400109.49447  -2620362.23746  24363999.4504   24364003.5764   24363999.445
        45.0004         40.0004
 -18381501.44449 -14281777.85148  21352669.8124   21352673.8454   21352669.847
        54.0004         50.0004
 -12947690.82148 -10076803.32247  22425855.2224   22425860.1794   22425854.835
        51.0004         46.0004
  -7295318.00048  -5645909.01147  23887970.6864   23887972.5124   23887970.530
        51.0004         47.0004
  -4670278.67247  -3593430.37946  23964061.0124   23964065.8634   23964060.319
        45.0004         40.0004
 -11261535.21948  -8720432.14747  22506766.3784   22506768.1054   22506766.539
        48.0004         43.0004
   -938008.63447   -619560.04746  24337643.5904   24337645.6394   24337643.668
        43.0004         38.0004
 20  9  1  1 27  0.0000000  0  9G09G07G27G30G08G05G04G28G11
 -20630294.16749 -16038532.51448  21280171.1254   21280175.3374   21280170.761
        55.0004         51.0004
 -21503355.16849 -16710994.40348  20765266.4104   20765267.9294   20765266.047
        55.0004         50.0004
  -3342554.74147  -2575514.39146  24374953.1154   24374956.2764   24374951.752
        45.0004         41.0004
 -18418327.13149 -14310473.18548  21345662.2664   21345666.3304   21345661.840
        54.0004         50.0004
 -12941001.72648 -10071591.04247  22427128.6724   22427132.8564   22427127.873
        51.0004         46.0004
  -7307192.38848  -5655161.78347  23885710.1654   23885712.3574   23885709.256
        51.0004         46.0004
  -4568751.68047  -3514318.48946  23983381.2934   23983385.3384   23983380.598
        45.0004         40.0004
 -11356524.72448  -8794449.91647  22488690.3534   22488693.2604   22488690.504
        48.0004         43.0004
   -986319.73947   -657205.03746  24328449.3394   24328453.4694   24328450.323
        43.0004         38.0004
 20  9  1  1 27 30.0000000  0  9G09G07G27G30G08G05G04G28G11
 -20568944.47649 -15990727.58648  21291845.8774   21291849.9814   21291845.294
        55.0004         51.0004
 -21488042.55949 -16699062.50148  20768180.6324   20768181.6584   20768180.017
        55.0004         50.0004
  -3284552.38047  -2530317.73346  24385988.8224   24385992.3864   24385989.408
        45.0004         40.0004
 -18454969.02149 -14339025.30148  21338689.3354   21338693.3554   21338689.228
        54.0004         50.0004
 -12933740.58848 -10065933.00447  22428510.0634   22428514.6224   22428509.779
        51.0004         46.0004
  -7318541.69248  -5664005.41447  23883550.8844   23883553.2994   23883550.116
        51.0004         46.0004
  -4467034.84947  -3435058.66846  24002737.8574   24002740.6374   24002738.022
        44.0004         39.0004
 -11451235.32948  -8868250.37047  22470667.3574   22470669.5464   22470667.767
        48.0004         43.0004
  -1034392.45947   -694664.25346  24319303.1054   24319304.7004   24319302.321
        43.0004         38.0004
 20  9  1  1 28  0.0000000  0  9G09G07G27G30G08G05G04G28G11
 -20507152.04549 -15942577.66248  21303604.3794   21303608.5694   21303604.048
        55.0004         51.0004
 -21472487.59449 -16686941.75248  20771140.2764   20771141.8734   20771139.888
        55.0004         50.0004
  -3226104.14447  -2484773.66046  24397110.8744   24397114.6094   24397111.690
        45.0004         40.0004
 -18491426.76149 -14367433.92848  21331751.6284   21331755.7374   21331751.517
        54.0004         50.0004
 -12925907.03748 -10059828.93847  22430000.5404   22430006.2664   22430000.402
        51.0004         46.0004
  -7329366.19248  -5672440.08647  23881489.9984   23881493.2694   23881488.374
        51.0004         46.0004
  -4365129.90847  -3355652.18846  24022129.6164   24022133.8694   24022129.459
        44.0004         40.0004
 -11545665.41548  -8941832.23347  22452698.8834   22452700.4574   22452698.601
        48.0004         43.0004
  -1082223.69847   -731935.32246  24310200.9214   24310203.5384   24310201.240
        43.0004         39.0004
 20  9  1  1 28 30.0000000  0  9G09G07G27G30G08G05G04G28G11
 -20444918.00649 -15894083.63248  21315447.3244   21315451.5124   21315446.720
        55.0004         51.0004
 -21456690.25749 -16674632.14348  20774146.7504   20774147.7424   20774146.117
        55.0004         50.0004
  -3167211.76247  -2438883.49546  24408318.1584   24408321.8224   24408317.952
        45.0004         40.0004
 -18527700.01449 -14395698.79348  21324849.0024   21324853.0014   21324848.858
        54.0004         50.0004
 -12917500.64148 -10053278.49947  22431600.3674   22431605.3814   22431600.031
        51.0004         46.0004
  -7339665.90648  -5680465.87747  23879531.8984   23879532.2844   23879531.761
        51.0004         46.0004
  -4263038.47647  -3276100.52346  24041556.3464   24041560.8094   24041555.295
        44.0004         40.0004
 -11639813.68348  -9015194.48547  22434783.0294   22434785.4694   22434782.101
        48.0004         43.0004
  -1129811.60247   -769016.79446  24301143.8664   24301147.5424   24301143.782
        43.0004         38.0004
 20  9  1  1 29  0.0000000  0  9G09G07G27G30G08G05G04G28G11
 -20382243.57649 -15845246.44148  21327373.5804   21327377.8524   21327373.440
        55.0004         50.0004
 -21440650.81049 -16662133.87448  20777198.7834   20777200.1494   20777198.604
        55.0004         50.0004
  -3107877.05547  -2392648.67246  24419609.0244   24419613.2324   24419607.544
        45.0004         40.0004
 -18563788.49749 -14423819.68848  21317981.3754   21317985.8764   21317981.480
        54.0004         50.0004
 -12908521.59948 -10046281.83447  22433308.8904   22433314.2784   22433308.801
        51.0004         46.0004
  -7349441.17248  -5688082.96347  23877670.7104   23877671.9414   23877671.200
        51.0004         46.0004
  -4160762.52847  -3196405.05546  24061019.3694   24061024.0604   24061019.660
        44.0004         40.0004
 -11733678.31348  -9088335.72847  22416920.0054   22416922.7144   22416920.127
        48.0004         44.0004
  -1177153.09147   -805906.26946  24292135.7174   24292138.9234   24292135.160
        43.0004         38.0004
 20  9  1  1 29 30.0000000  0  9G09G07G27G30G08G05G04G28G11
 -20319129.87949 -15796066.96248  21339383.8724   21339388.1634   21339383.526
        55.0004         51.0004
 -21424368.90349 -16649446.67948  20780297.2144   20780298.3454   20780296.575
        55.0004         50.0004
  -3048101.82147  -2346070.58246  24430984.1554   24430989.3884   24430983.689
        45.0004         40.0004
 -18599691.83149 -14451796.30948  21311149.3504   21311153.3344   21311149.372
        55.0004         50.0004
 -12898970.51248 -10038839.42747  22435126.5064   22435131.6244   22435126.252
        51.0004         46.0004
  -7358692.61048  -5695291.89347  23875909.9984   23875911.2434   23875909.567
        51.0004         46.0004
  -4058303.74847  -3116566.99146  24080516.3224   24080519.9284   24080514.191
        44.0004         39.0004
 -11827258.00248  -9161254.95147  22399112.9724   22399115.1734   22399112.655
        48.0004         44.0004
  -1224245.72947   -842601.86546  24283174.7074   24283176.6884   24283173.978
        43.0004         39.0004
 20  9  1  1 30  0.0000000  0  9G09G07G27G30G08G05G04G28G11
 -20255578.01949 -15746546.06048  21351477.4094   21351481.7694   21351477.059
        55.0004         50.0004
 -21407845.22949 -16636571.08948  20783441.6054   20783442.9424   20783440.766
        55.0004         50.0004
  -2987887.77747  -2299150.55846  24442443.0524   24442445.9584   24442442.708
        45.0004         40.0004
 -18635409.62649 -14479628.35348  21304352.5544   21304356.6554   21304352.485
        55.0004         50.0004
 -12888846.46948 -10030950.56547  22437053.1834   22437058.2974   22437052.921
        51.0004         46.0004
  -7367420.15648  -5702092.59747  23874250.2984   23874251.0184   23874251.080
        51.0004         46.0004
  -3955663.79047  -3036587.90846  24100048.1154   24100053.1414   24100047.479
        44.0004         40.0004
 -11920551.13248  -9233950.86747  22381358.8054   22381361.5944   22381359.824
        48.0004         44.0004
  -1271087.02147   -879101.56946  24274260.7214   24274263.9954   24274261.448
        43.0004         39.0004
 20  9  1  1 30 30.0000000  0  9G09G07G27G30G08G05G04G28G11
 -20191589.31249 -15696684.76348  21363654.0714   21363658.6084   21363653.684
        55.0004         50.0004
 -21391079.35449 -16623506.77248  20786632.1664   20786633.1374   20786631.323
        55.0004         50.0004
  -2927236.87347  -2251890.12846  24453984.8394   24453988.7834   24453983.829
        45.0004         40.0004
 -18670941.63749 -14507315.63548  21297591.0004   21297594.9724   21297590.949
        55.0004         50.0004
 -12878150.05448 -10022615.68447  22439088.5894   22439093.5134   22439088.477
        51.0004         46.0004
  -7375624.35848  -5708485.49547  23872688.3834   23872689.9254   23872686.759
        51.0004         46.0004
  -3852844.71747  -2956469.22746  24119615.9224   24119618.5374   24119615.145
        45.0004         40.0004
 -12013556.26548  -9306422.37547  22363661.0444   22363663.4544   22363661.443
        49.0004         44.0004
  -1317674.64447   -915403.56246  24265395.1644   24265398.2744   24265393.812
        43.0004         38.0004
 20  9  1  1 31  0.0000000  0  9G09G07G27G30G08G05G04G28G11
 -20127164.90549 -15646483.94848  21375913.9154   21375918.0104   21375913.069
        55.0004         50.0004
 -21374071.50749 -16610253.90248  20789868.5274   20789869.7614   20789868.124
        55.0004         50.0004
  -2866150.87847  -2204290.67046  24465608.1154   24465614.5174   24465608.123
        45.0004         40.0004
 -18706287.51749 -14534857.87648  21290865.0044   21290868.8144   21290864.895
        55.0004         50.0004
 -12866880.98948 -10013834.58247  22441233.4874   22441238.0064   22441232.544
        51.0004         46.0004
  -7383305.62748  -5714470.91647  23871227.0254   23871228.2844   23871226.929
        51.0004         46.0004
  -3749848.13747  -2876212.08946  24139212.6384   24139217.8064   24139212.011
        43.0004         38.0004
 -12106271.76848  -9378668.18747  22346018.2264   22346020.2974   22346018.561
        49.0004         44.0004
  -1364005.77147   -951505.78146  24256579.0614   24256581.7154   24256579.631
        43.0004         38.0004
 20  9  1  1 31 30.0000000  0  9G09G07G27G30G08G05G04G28G11
 -20062306.03649 -15595944.59448  21388255.9164   21388260.0944   21388255.503
        55.0004         50.0004
 -21356821.49649 -16596812.33748  20793150.9044   20793152.4144   20793150.515
        55.0004         50.0004
  -2804631.58347  -2156353.59346  24477315.6454   24477320.0304   24477315.426
        45.0004         40.0004
 -18741446.80249 -14562254.72048  21284174.3894   21284178.5094   21284173.893
        55.0004         50.0004
 -12855039.50848 -10004607.44847  22443486.5734   22443490.9974   22443486.269
        51.0004         46.0004
  -7390463.99648  -5720048.87947  23869864.6664   23869866.2954   23869864.063
        51.0004         46.0004
  -3646675.78447  -2795818.14946  24158846.6964   24158851.7204   24158846.359
        44.0004         40.0004
 -12198696.01048  -9450687.05747  22328431.1094   22328432.0914   22328430.695
        49.0004         44.0004
  -1410077.92747   -987406.11446  24247812.0284   24247814.4354   24247811.477
        43.0004         39.0004
 20  9  1  1 32  0.0000000  0  9G09G07G27G30G08G05G04G28G11
 -19997014.10249 -15545067.78548  21400680.8274   21400684.8924   21400680.134
        55.0004         50.0004
 -21339329.73449 -16583182.39448  20796479.5744   20796481.0004   20796479.058
        55.0004         50.0004
  -2742681.11647  -2108080.50846  24489103.7754   24489106.9964   24489102.261
        44.0004         40.0004
 -18776419.35749 -14589506.06548  21277519.4824   21277523.4854   21277519.007
        55.0004         50.0004
 -12842625.82148  -9994934.44247  22445848.7654   22445853.6634   22445847.951
        51.0004         46.0004
  -7397100.31148  -5725220.05647  23868602.2184   23868603.0644   23868601.309
        51.0004         47.0004
  -3543329.81947  -2715288.88246  24178513.8624   24178518.3744   24178513.136
        45.0004         41.0004
 -12290827.69248  -9522477.96547  22310898.6554   22310900.7374   22310898.750
        49.0004         44.0004
  -1455889.09047  -1023103.10046  24239093.8724   24239096.7344   24239093.692
        44.0004         40.0004
 20  9  1  1 32 30.0000000  0  9G09G07G27G30G08G05G04G28G11
 -19931290.23849 -15493854.40748  21413187.3734   21413192.0324   21413187.056
        55.0004         50.0004
 -21321595.90849 -16569363.83248  20799854.2344   20799855.5244   20799853.496
        55.0004         50.0004
  -2680301.15547  -2059472.73646  24500972.8134   24500978.1274   24500973.161
        45.0004         40.0004
 -18811204.65149 -14616611.49248  21270899.7264   21270903.8404   21270899.955
        55.0004         50.0004
 -12829640.33948  -9984815.87247  22448319.7144   22448325.3374   22448319.459
        51.0004         46.0004
  -7403214.59348  -5729984.45647  23867438.3484   23867439.3644   23867438.178
        51.0004         46.0004
  -3439811.78447  -2634625.54446  24198211.3244   24198215.6114   24198211.287
        44.0004         38.0004
 -12382665.51548  -9594039.87447  22293422.6924   22293424.8354   22293422.061
        49.0004         44.0004
  -1501436.32947  -1058594.42446  24230427.5834   24230429.9894   24230427.588
        44.0004         40.0004
 20  9  1  1 33  0.0000000  0  9G09G07G27G30G08G05G04G28G11
 -19865135.64549 -15442305.39448  21425776.1414   21425780.3874   21425775.756
        55.0004         50.0004
 -21303620.05449 -16555356.67348  20803275.1064   20803276.1294   20803274.359
        55.0004         50.0004
  -2617493.54947  -2010531.77546  24512927.3564   24512932.1964   24512926.010
        45.0004         40.0004
 -18845802.34149 -14643570.73348  21264316.0834   21264320.3924   21264316.250
        55.0004         50.0004
 -12816082.65748  -9974251.44347  22450899.7644   22450904.4954   22450899.510
        51.0004         46.0004
  -7408807.09048  -5734342.27447  23866374.4114   23866375.4244   23866374.515
        51.0004         46.0004
  -3336123.39547  -2553829.38746  24217943.1364   24217947.3574   24217942.954
        43.0004         39.0004
 -12474207.68648  -9665371.40647  22276002.1114   22276003.7664   22276002.127
        49.0004         44.0004
  -1546716.67047  -1093877.83246  24221810.3104   24221811.9014   24221809.853
        44.0004         39.0004
 20  9  1  1 33 30.0000000  0  9G09G07G27G30G08G05G04G28G11
 -19798551.74549 -15390421.85748  21438446.8294   21438451.1674   21438446.545
        55.0004         50.0004
 -21285402.57749 -16541161.23748  20806741.7714   20806742.9474   20806741.448
        55.0004         50.0004
  -2554260.33747  -1961259.17546  24524958.7614   24524963.5184   24524958.442
        45.0004         40.0004
 -18880212.11749 -14670383.54848  21257768.1724   21257772.5664   21257768.090
        55.0004         50.0004
 -12801953.43048  -9963241.64747  22453588.3734   22453592.7254   22453588.279
        51.0004         46.0004
  -7413878.97448  -5738294.39747  23865408.7614   23865410.9874   23865408.007
        51.0004         46.0004
  -3232266.79647  -2472902.18346  24237707.1664   24237711.3404   24237706.143
        45.0004         40.0004
 -12565452.89448  -9736471.54847  22258638.5364   22258640.7524   22258639.013
        49.0004         44.0004
  -1591728.78847  -1128952.21346  24213244.9164   24213247.9474   24213245.185
        44.0004         39.0004
 20  9  1  1 34  0.0000000  0  9G09G07G27G30G08G05G04G28G11
 -19731539.86649 -15338204.83748  21451198.6024   21451203.0014   21451198.273
        55.0004         50.0004
 -21266943.39449 -16526777.46448  20810254.7664   20810255.6674   20810253.869
        55.0004         50.0004
  -2490603.43947  -1911656.39546  24537072.5934   24537077.2044   24537072.279
        45.0004         40.0004
 -18914433.58949 -14697049.63248  21251256.1704   21251260.4814   21251255.999
        55.0004         50.0004
 -12787252.42448  -9951786.31647  22456386.0964   22456391.0924   22456385.520
        51.0004         46.0004
  -7418430.53248  -5741841.08747  23864543.0824   23864544.3374   23864543.578
        51.0004         46.0004
  -3128243.51847  -2391845.19746  24257499.9404   24257506.8824   24257500.375
        44.0004         38.0004
 -12656399.72948  -9807339.18647  22241332.2654   22241334.1584   22241332.647
        49.0004         45.0004
  -1636469.33147  -1163814.93046  24204730.3454   24204732.8424   24204731.122
        44.0004         39.0004
 20  9  1  1 34 30.0000000  0  9G09G07G27G30G08G05G04G28G11
 -19664101.21449 -15285655.26548  21464032.1824   21464036.0074   21464031.435
        55.0004         50.0004
 -21248242.10449 -16512205.03048  20813813.0224   20813814.0674   20813812.667
        55.0004         50.0004
  -2426524.66747  -1861724.89146  24549265.7704   24549270.5124   24549264.714
        44.0004         40.0004
 -18948466.28449 -14723568.61548  21244779.9684   21244784.0964   21244779.927
        55.0004         50.0004
 -12771980.05748  -9939885.76747  22459292.1064   22459297.1094   22459292.036
        51.0004         46.0004
  -7422462.22848  -5744982.69247  23863775.1954   23863777.3304   23863774.472
        51.0004         46.0004
  -3024055.57347  -2310659.84446  24277328.5884   24277331.8724   24277327.987
        43.0004         38.0004
 -12747046.57548  -9877973.06847  22224082.3244   22224084.6504   22224082.899
        49.0004         45.0004
  -1680936.32747  -1198464.54046  24196269.4514   24196273.2274   24196269.245
        43.0004         38.0004
 20  9  1  1 35  0.0000000  0  9G09G07G27G30G08G05G04G28G11
 -19596237.26649 -15232774.29648  21476945.8114   21476950.4834   21476945.535
        55.0004         50.0004
 -21229299.11249 -16497444.26048  20817417.8134   20817418.8984   20817417.281
        55.0004         50.0004
  -2362026.09047  -1811466.28046  24561539.6704   24561545.0004   24561538.347
        44.0004         40.0004
 -18982309.93749 -14749940.29448  21238339.6604   21238343.7844   21238339.568
        55.0004         50.0004
 -12756136.99548  -9927540.52047  22462306.7514   22462311.6234   22462306.618
        51.0004         46.0004
  -7425974.29648  -5747719.38847  23863107.7914   23863109.1584   23863107.033
        51.0004         46.0004
  -2919704.86547  -2229347.50146  24297185.2454   24297190.0054   24297184.305
        44.0004         40.0004
 -12837392.09648  -9948372.15047  22206890.3864   22206892.7504   22206890.303
        49.0004         45.0004
  -1725127.36747  -1232899.08346  24187859.7124   24187862.0274   24187859.430
        43.0004         38.0004
 20  9  1  1 35 30.0000000  0  9G09G07G27G30G08G05G04G28G11
 -19527949.32049 -15179562.93348  21489940.7444   21489945.0804   21489940.579
        55.0004         50.0004
 -21210114.42749 -16482495.15948  20821068.6024   20821069.5494   20821067.830
        55.0004         50.0004
  -2297109.65547  -1760882.03546  24573893.2964   24573898.4534   24573893.081
        44.0004         40.0004
 -19015964.16849 -14776164.36648  21231935.5964   21231939.4384   21231935.661
        55.0004         50.0004
 -12739723.19848  -9914750.54847  22465430.4904   22465435.4944   22465430.183
        51.0004         46.0004
  -7428967.55148  -5750051.82447  23862538.0894   23862539.3354   23862537.613
        51.0004         47.0004
  -2815192.97947  -2147909.79546  24317071.9664   24317078.3584   24317072.238
        44.0004         39.0004
 -12927434.90548 -10018535.34947  22189755.9344   22189758.0444   22189755.697
        49.0004         45.0004
  -1769039.68347  -1267116.43846  24179503.9694   24179507.0134   24179503.545
        44.0004         40.0004
 20  9  1  1 36  0.0000000  0  9G09G07G27G30G08G05G04G28G11
 -19459238.65249 -15126022.17748  21503015.9064   21503020.1884   21503015.534
        54.0004         50.0004
 -21190687.61949 -16467357.39348  20824765.1554   20824766.4644   20824764.640
        55.0004         50.0004
  -2231777.21647  -1709973.65046  24586325.4254   24586329.7294   24586323.682
        44.0004         40.0004
 -19049428.45649 -14802240.43348  21225567.4514   21225571.4584   21225567.368
        55.0004         50.0004
 -12722739.16948  -9901516.23647  22468662.3214   22468667.1074   22468662.034
        51.0004         46.0004
  -7431442.62148  -5751980.45947  23862066.7424   23862068.4864   23862066.854
        51.0004         47.0004
  -2710521.83547  -2066348.00346  24336991.6544   24336995.7484   24336991.142
        44.0004         40.0004
 -13017173.37648 -10088461.40347  22172679.2144   22172682.1934   22172679.359
        49.0004         45.0004
  -1812670.69847  -1301114.59646  24171200.0704   24171203.8384   24171200.657
        44.0004         40.0004
 20  9  1  1 36 30.0000000  0  9G09G07G27G30G08G05G04G28G11
 -19390106.83849 -15072153.26448  21516171.4034   21516175.3554   21516171.304
        54.0004         50.0004
 -21171019.06049 -16452031.24748  20828508.0034   20828509.5034   20828507.473
        55.0004         50.0004
  -2166030.98347  -1658742.83546  24598837.2944   24598841.5404   24598836.273
        44.0004         40.0004
 -19082702.57849 -14828168.31848  21219235.6174   21219239.5844   21219235.531
        55.0004         50.0004
 -12705185.00948  -9887837.66947  22472002.8424   22472007.7824   22472002.967
        51.0004         46.0004
  -7433400.10448  -5753505.79047  23861694.5714   23861695.4764   23861694.130
        51.0004         47.0004
  -2605693.51147  -1984663.54946  24356939.6594   24356942.5904   24356939.832
        44.0004         39.0004
 -13106606.59848 -10158149.60247  22155661.0014   22155661.9344   22155660.623
        49.0004         45.0004
  -1856018.28747  -1334891.86846  24162951.9364   24162954.7344   24162952.375
        44.0004         40.0004
 20  9  1  1 37  0.0000000  0  9G09G07G27G30G08G05G04G28G11
 -19320555.12049 -15017957.14648  21529406.8524   21529410.9564   21529406.204
        54.0004         50.0004
 -21151108.68149 -16436516.67148  20832297.0404   20832298.2094   20832296.399
        55.0004         50.0004
  -2099872.80547  -1607191.04046  24611425.7914   24611430.6954   24611426.673
        45.0004         40.0004
 -19115786.00049 -14853947.60248  21212940.0374   21212944.1564   21212939.981
        55.0004         50.0004
 -12687061.18448  -9873715.21347  22475451.9104   22475456.5744   22475451.412
        51.0004         46.0004
  -7434840.55748  -5754628.23347  23861420.2084   23861421.6084   23861419.791
        51.0004         47.0004
  -2500709.61247  -1902857.88446  24376917.4784   24376921.4414   24376915.519
        42.0004         37.0004
 -13195732.79448 -10227598.55347  22138700.8364   22138702.5334   22138700.664
        49.0004         45.0004
  -1899079.88047  -1368446.38246  24154757.0884   24154761.4974   24154757.317
        45.0004         40.0004
 20  9  1  1 37 30.0000000  0  9G09G07G27G30G08G05G04G28G11
 -19250584.99549 -14963435.00448  21542721.7114   21542725.7994   21542721.123
        54.0004         50.0004
 -21130956.61049 -16420813.75948  20836131.7024   20836133.1554   20836131.294
        55.0004         50.0004
  -2033304.68647  -1555319.79746  24624092.8874   24624097.3174   24624092.327
        44.0004         40.0004
 -19148678.38749 -14879578.02748  21206680.5914   21206684.8454   21206680.482
        55.0004         50.0004
 -12668368.19848  -9859149.24547  22479008.9414   22479014.2614   22479008.650
        51.0004         46.0004
  -7435764.63848  -5755348.31547  23861244.6014   23861246.3164   23861243.582
        52.0004         47.0004
  -2395572.15547  -1820932.71746  24396925.3804   24396928.6374   24396923.972
        44.0004         40.0004
 -13284550.68348 -10296807.27347  22121799.2534   22121800.4644   22121798.561
        49.0004         45.0004
  -1941853.30647  -1401776.26146  24146617.2874   24146620.4774   24146617.302
        44.0004         39.0004
 20  9  1  1 38  0.0000000  0 10G09G07G27G30G08G05G04G28G13G11
 -19180197.90649 -14908587.94848  21556116.0394   21556120.3264   21556115.372
        54.0004         50.0004
 -21110562.91749 -16404922.57648  20840012.5144   20840013.7464   20840011.926
        55.0004         50.0004
  -1966328.76347  -1503130.79646  24636837.7044   24636842.8404   24636838.240
        44.0004         40.0004
 -19181379.35049 -14905059.29348  21200458.0584   21200462.2194   21200457.981
        55.0004         50.0004
 -12649106.69548  -9844140.28347  22482673.9534   22482679.0504   22482673.857
        51.0004         46.0004
  -7436173.03448  -5755666.56547  23861166.7664   23861168.8304   23861165.829
        52.0004         47.0004
  -2290283.06047  -1738889.29746  24416960.3224   24416964.8324   24416960.664
        45.0004         41.0004
 -13373058.57548 -10365774.43947  22104956.5324   22104958.8104   22104956.593
        49.0004         45.0004
   -288968.66347   -170405.02545  25206487.6464   25206489.8424   25206485.508
        47.0004         35.0004
  -1984336.08347  -1434879.65746  24138532.9294   24138534.9674   24138533.612
        44.0004         38.0004
 20  9  1  1 38 30.0000000  0 10G09G07G27G30G08G05G04G28G13G11
 -19109395.18049 -14853417.02248  21569588.9604   21569593.6194   21569588.612
        54.0004         50.0004
 -21089927.35849 -16388842.92548  20843939.1274   20843940.5584   20843938.984
        55.0004         50.0004
  -1898946.87647  -1450625.43746  24649662.0154   24649664.8524   24649661.762
        44.0004         40.0004
 -19213888.37849 -14930390.99148  21194271.8894   21194275.9574   21194271.615
        55.0004         50.0004
 -12629276.96648  -9828688.54247  22486447.6854   22486452.9834   22486447.751
        51.0004         46.0004
  -7436066.64648  -5755583.68547  23861186.7334   23861188.5154   23861186.534
        52.0004         47.0004
  -2184843.95847  -1656729.00746  24437024.0514   24437027.7034   24437023.896
        43.0004         38.0004
 -13461255.21548 -10434499.07047  22088173.5354   22088175.3054   22088173.322
        50.0004         45.0004
   -392525.96847   -251099.01545  25186778.5584   25186780.4444   25186779.721
        43.0004         35.0004
  -2026525.57947  -1467754.61146  24130505.2734   24130507.3424   24130505.776
        44.0004         39.0004
 20  9  1  1 39  0.0000000  0 10G09G07G27G30G08G05G04G28G13G11
 -19038178.38749 -14797923.44748  21583141.3574   21583145.5304   21583140.801
        54.0004         50.0004
 -21069049.93849 -16372574.81148  20847912.0494   20847913.4964   20847911.831
        55.0004         50.0004
  -1831161.19147  -1397805.44146  24662561.1674   24662565.1804   24662560.069
        44.0004         40.0004
 -19246205.12549 -14955572.86548  21188122.0044   21188126.1704   21188121.862
        55.0004         50.0004
 -12608879.02348  -9812794.03447  22490329.1424   22490334.1364   22490329.335
        51.0004         46.0004
  -7435445.77548  -5755099.90247  23861304.9714   23861306.6344   23861303.472
        52.0004         47.0004
  -2079256.82647  -1574453.32446  24457116.9844   24457123.0264   24457116.476
        42.0004         37.0004
 -13549139.49348 -10502980.29247  22071449.0634   22071450.8674   22071449.379
        50.0004         45.0004
   -496070.39646   -331782.93945  25167075.1794   25167080.7034   25167075.872
        41.0004         35.0004
  -2068419.64047  -1500399.29546  24122532.7494   24122535.1484   24122532.718
        43.0004         39.0004
 20  9  1  1 39 30.0000000  0 10G09G07G27G30G08G05G04G28G13G11
 -18966548.98249 -14742108.36148  21596771.8824   21596776.1904   21596771.400
        54.0004         49.0004
 -21047930.88949 -16356118.41748  20851930.7394   20851932.4354   20851930.520
        55.0004         50.0004
  -1762973.77047  -1344672.42646  24675537.4154   24675540.2114   24675536.247
        44.0004         40.0004
 -19278329.15449 -14980604.57148  21182009.0374   21182013.0714   21182008.953
        55.0004         50.0004
 -12587913.60248  -9796457.34047  22494319.2404   22494323.1504   22494318.296
        51.0004         46.0004
  -7434311.48448  -5754216.06347  23861520.9714   23861523.0734   23861521.248
        52.0004         47.0004
  -1973523.66247  -1492063.88146  24477238.2604   24477243.3374   24477237.285
        44.0004         40.0004
 -13636709.78648 -10571216.85747  22054784.8634   22054787.0714   22054785.325
        50.0004         45.0004
   -599599.82246   -412455.19245  25147373.1784   25147373.3114   25147374.830
        40.0004         35.0004
  -2110015.78547  -1532811.84046  24114618.8684   24114619.8644   24114618.423
        45.0004         40.0004
 20  9  1  1 40  0.0000000  0 10G09G07G27G30G08G05G04G28G13G11
 -18894508.42949 -14685972.89748  21610480.7284   21610485.1784   21610480.442
        54.0004         50.0004
 -21026570.13749 -16339473.68048  20855995.6964   20855997.3594   20855995.495
        55.0004         50.0004
  -1694386.66847  -1291227.91746  24688587.4824   24688593.4864   24688587.194
        44.0004         40.0004
 -19310260.02049 -15005485.75848  21175932.8444   21175936.9104   21175932.615
        55.0004         50.0004
 -12566381.10148  -9779678.75147  22498416.0834   22498421.2564   22498416.336
        51.0004         46.0004
  -7432664.35048  -5752932.59547  23861834.0224   23861836.5294   23861832.989
        52.0004         47.0004
  -1867646.27747  -1409562.05546  24497385.3494   24497391.0564   24497384.964
        45.0004         40.0004
 -13723964.89348 -10639207.82247  22038180.8674   22038183.7804   22038181.442
        50.0004         45.0004
   -703112.41046   -493114.33145  25127677.6234   25127678.0714   25127677.141
        40.0004         35.0004
  -2151311.70347  -1564990.48046  24106761.1234   24106762.4754   24106760.060
        45.0004         40.0004
 20  9  1  1 40 30.0000000  0 10G09G07G27G30G08G05G04G28G13G11
 -18822058.28649 -14629518.27448  21624267.4854   21624271.7594   21624267.297
        54.0004         50.0004
 -21004967.61549 -16322640.55148  20860106.5884   20860107.8914   20860106.294
        55.0004         50.0004
  -1625401.96847  -1237473.65646  24701715.3144   24701720.3924   24701714.415
        44.0004         39.0004
 -19341997.37649 -15030216.15748  21169893.0294   21169897.5144   21169893.588
        55.0004         51.0004
 -12544282.51148  -9762459.05947  22502621.4694   22502626.2714   22502621.102
        51.0004         46.0004
  -7430505.41848  -5751250.33747  23862245.4384   23862247.5474   23862245.486
        52.0004         47.0004
  -1761626.49647  -1326949.33546  24517558.2844   24517563.4634   24517559.426
        44.0004         39.0004
 -13810903.46148 -10706952.13847  22021637.3104   22021639.5074   22021637.406
        50.0004         45.0004
   -806606.00546   -573758.66946  25107981.7294   25107984.9444   25107982.233
        40.0004         36.0004
  -2192305.15747  -1596933.42246  24098958.2514   24098962.5114   24098957.559
        44.0004         40.0004
 20  9  1  1 41  0.0000000  0 10G09G07G27G30G08G05G04G28G13G11
 -18749199.98049 -14572745.60148  21638132.1684   21638136.4594   21638131.741
        54.0004         49.0004
 -20983123.11149 -16305618.86348  20864263.5944   20864264.8774   20864262.875
        55.0004         50.0004
  -1556021.76047  -1183411.18946  24714918.6634   24714923.4534   24714917.180
        44.0004         40.0004
 -19373540.69849 -15054795.36248  21163890.7334   21163894.8184   21163890.595
        55.0004         50.0004
 -12521618.33648  -9744798.65447  22506934.6484   22506938.8254   22506934.162
        51.0004         46.0004
  -7427835.21948  -5749169.67447  23862753.2464   23862755.2234   23862751.916
        52.0004         47.0004
  -1655466.17847  -1244227.05546  24537762.4244   24537766.9814   24537761.576
        43.0004         38.0004
 -13897524.13048 -10774448.73747  22005153.2244   22005156.2564   22005153.790
        50.0004         45.0004
   -910078.74546   -654386.74045  25088291.9704   25088294.1604   25088292.685
        40.0004         35.0004
  -2232993.54347  -1628638.59046  24091216.8024   24091220.0824   24091216.207
        44.0004         40.0004
 20  9  1  1 41 30.0000000  0 10G09G07G27G30G08G05G04G28G13G11
 -18675935.08249 -14515656.10148  21652073.7714   21652078.4044   21652073.554
        54.0004         50.0004
 -20961036.94749 -16288408.87048  20868466.3774   20868467.6524   20868465.877
        55.0004         50.0004
  -1486248.13347  -1129042.13246  24728196.3434   24728200.4584   24728195.917
        44.0004         40.0004
 -19404889.56849 -15079223.04648  21157925.3194   21157929.4474   21157925.266
        55.0004         50.0004
 -12498388.97748  -9726697.84747  22511354.5494   22511359.2684   22511354.325
        51.0004         46.0004
  -7424654.96548  -5746691.57147  23863358.1734   23863360.0104   23863357.233
        52.0004         47.0004
  -1549167.36647  -1161396.75846  24557989.2144   24557994.7864   24557989.807
        43.0004         38.0004
 -13983825.44548 -10841696.48447  21988730.2634   21988733.0244   21988730.918
        50.0004         45.0004
  -1013528.74146   -734997.07446  25068606.6614   25068609.3764   25068606.319
        40.0004         36.0004
  -2273374.61447  -1660104.34746  24083528.0474   24083533.8284   24083527.963
        44.0004         38.0004
 20  9  1  1 42  0.0000000  0 10G09G07G27G30G08G05G04G28G13G11
 -18602265.23949 -14458251.06248  21666092.8684   21666097.4044   21666092.608
        54.0004         49.0004
 -20938708.92949 -16271010.42248  20872715.2944   20872716.3474   20872714.822
        55.0004         50.0004
  -1416083.25347  -1074368.20946  24741548.1014   24741552.2344   24741546.798
        44.0004         40.0004
 -19436043.60549 -15103498.91148  21151996.8574   21152001.0024   21151996.754
        55.0004         51.0004
 -12474595.11248  -9708157.16747  22515882.3464   22515887.4964   22515881.842
        51.0004         46.0004
  -7420965.28948  -5743816.52447  23864060.6574   23864062.5594   23864058.738
        51.0004         47.0004
  -1442731.92147  -1078460.08146  24578243.1374   24578249.9184   24578243.374
        43.0004         39.0004
 -14069806.59548 -10908694.75947  21972369.1484   21972370.7484   21972369.737
        50.0004         45.0004
  -1116954.11446   -815588.26846  25048925.5044   25048927.4424   25048924.774
        40.0004         36.0004
  -2313446.32147  -1691328.96146  24075906.1594   24075909.5884   24075905.389
        43.0004         38.0004
 20  9  1  1 42 30.0000000  0 10G09G07G27G30G08G05G04G28G13G11
 -18528191.85049 -14400531.57048  21680188.8164   21680192.7764   21680188.228
        54.0004         49.0004
 -20916139.03449 -16253423.49048  20877010.4244   20877011.4064   20877009.610
        55.0004         50.0004
  -1345529.23047  -1019391.07246  24754973.5464   24754976.8014   24754972.972
        44.0004         40.0004
 -19467002.25649 -15127622.53248  21146105.7074   21146109.9844   21146105.665
        55.0004         51.0004
 -12450237.33748  -9689177.07647  22520517.7384   22520522.9914   22520517.344
        50.0004         46.0004
  -7416767.02648  -5740545.16347  23864859.4054   23864861.4674   23864859.372
        51.0004         47.0004
  -1336161.71447   -995418.44546  24598523.4044   24598528.7854   24598523.635
        43.0004         39.0004
 -14155465.53948 -10975441.96847  21956068.7294   21956071.2314   21956068.625
        50.0004         45.0004
  -1220352.31646   -896158.25546  25029250.9934   25029251.8734   25029250.262
        41.0004         36.0004
  -2353206.10647  -1722310.65646  24068339.4104   24068342.4724   24068339.996
        44.0004         40.0004
 20  9  1  1 43  0.0000000  0 10G09G07G27G30G08G05G04G28G13G11
 -18453716.52049 -14342498.88248  21694360.9074   21694365.3794   21694360.363
        54.0004         49.0004
 -20893327.31349 -16235648.12548  20881350.9224   20881352.3084   20881350.530
        55.0004         50.0004
  -1274588.08147   -964112.27346  24768472.5024   24768479.3974   24768472.640
        44.0004         39.0004
 -19497765.06749 -15151593.54748  21140251.8804   21140255.8224   21140251.844
        55.0004         51.0004
 -12425316.37348  -9669758.13847  22525259.9444   22525264.2184   22525259.847
        50.0004         46.0004
  -7412061.11948  -5736878.23747  23865754.7294   23865757.0244   23865754.391
        51.0004         47.0004
  -1229458.57447   -912273.25946  24618828.9364   24618832.3314   24618828.978
        43.0004         38.0004
 -14240801.27348 -11041937.32847  21939830.4344   21939832.5384   21939829.984
        50.0004         45.0004
  -1323721.81246   -976705.91546  25009577.5744   25009580.6214   25009578.731
        41.0004         36.0004
  -2392651.55647  -1753047.33646  24060833.4614   24060835.3364   24060833.454
        44.0004         39.0004
 20  9  1  1 43 30.0000000  0 10G09G07G27G30G08G05G04G28G13G11
 -18378840.89949 -14284154.27748  21708609.3164   21708613.8084   21708609.011
        54.0004         49.0004
 -20870273.56549 -16217684.17248  20885738.0524   20885739.3034   20885737.551
        55.0004         50.0004
  -1203262.02847   -908533.59146  24782046.6584   24782050.5504   24782046.104
        44.0004         39.0004
 -19528331.65849 -15175411.66448  21134435.2114   21134439.2544   21134435.353
        55.0004         50.0004
 -12399832.83148  -9649900.83247  22530109.4294   22530114.3904   22530108.540
        50.0004         46.0004
  -7406848.53648  -5732816.50747  23866746.4254   23866749.5284   23866744.713
        51.0004         47.0004
  -1122624.55947   -829025.91446  24639158.4944   24639162.2994   24639157.727
        42.0004         37.0004
 -14325812.55448 -11108179.85847  21923653.6534   21923654.2584   21923653.402
        50.0004         45.0004
  -1427060.16146  -1057229.25346  24989914.9564   24989917.2194   24989913.814
        41.0004         36.0004
  -2431780.62747  -1783537.53946  24053388.4544   24053389.7114   24053388.414
        44.0004         39.0004
 20  9  1  1 44  0.0000000  0 10G09G07G27G30G08G05G04G28G13G11
 -18303566.51149 -14225498.94148  21722933.4544   21722937.9044   21722933.087
        54.0004         49.0004
 -20846978.10349 -16199531.86848  20890171.0144   20890172.2644   20890170.583
        55.0004         50.0004
  -1131553.26747   -852656.60146  24795691.1714   24795695.4004   24795690.877
        44.0004         39.0004
 -19558701.50149 -15199076.47148  21128655.7414   21128659.9634   21128655.743
        55.0004         51.0004
 -12373787.31948  -9629605.62747  22535066.1414   22535070.6494   22535065.097
        50.0004         46.0004
  -7401130.22548  -5728360.70747  23867834.9714   23867837.6824   23867832.179
        51.0004         47.0004
  -1015661.45047   -745678.06546  24659512.9464   24659518.6804   24659512.479
        42.0004         37.0004
 -14410498.25648 -11174168.69647  21907538.1554   21907539.5564   21907538.069
        50.0004         45.0004
  -1530365.75246  -1137727.11746  24970254.7554   24970257.6794   24970255.250
        41.0004         36.0004
  -2470590.71447  -1813779.21346  24046001.6314   24046003.0694   24046002.203
        44.0004         39.0004
 20  9  1  1 44 30.0000000  0 10G09G07G27G30G08G05G04G28G13G11
 -18227895.07949 -14166534.22848  21737333.2264   21737337.7534   21737332.940
        54.0004         49.0004
 -20823440.61749 -16181190.97348  20894650.1424   20894651.4634   20894649.626
        55.0004         50.0004
  -1059463.94247   -796483.12546  24809408.2514   24809414.9564   24809407.273
        44.0004         39.0004
 -19588874.20349 -15222587.66348  21122914.2184   21122918.3054   21122914.216
        55.0004         51.0004
 -12347180.76248  -9608873.24847  22540128.2934   22540134.2214   22540127.724
        50.0004         46.0004
  -7394907.11048  -5723511.54647  23869019.9814   23869021.5724   23869019.379
        51.0004         47.0004
   -908571.29847   -662231.20946  24679891.2544   24679895.1344   24679889.778
        42.0004         37.0004
 -14494857.00548 -11239902.76747  21891484.5954   21891486.4924   21891485.154
        50.0004         45.0004
  -1633636.62546  -1218197.88546  24950602.7654   24950605.6504   24950602.456
        41.0004         36.0004
  -2509080.11447  -1843770.85146  24038677.7664   24038681.7314   24038677.412
        43.0004         39.0004
 20  9  1  1 45  0.0000000  0 10G09G07G27G30G08G05G04G28G13G11
 -18151828.09949 -14107261.29148  21751808.4134   21751812.6744   21751807.968
        54.0004         49.0004
 -20799661.16649 -16162661.53848  20899175.2194   20899176.4624   20899174.677
        55.0004         50.0004
   -986996.19347   -740014.81646  24823200.1864   24823204.6104   24823200.555
        44.0004         39.0004
 -19618849.19749 -15245944.79748  21117210.0824   21117214.2164   21117210.105
        55.0004         51.0004
 -12320013.53548  -9587703.97647  22545297.7074   22545302.9574   22545297.828
        50.0004         46.0004
  -7388180.15248  -5718269.77447  23870300.0934   23870301.6564   23870300.309
        51.0004         47.0004
   -801355.94847   -578686.90846  24700293.4694   24700300.5444   24700292.497
        43.0004         39.0004
 -14578887.63448 -11305381.15347  21875494.5754   21875496.2864   21875494.875
        50.0004         45.0004
  -1736870.48546  -1298639.84046  24930959.7524   24930962.2104   24930959.098
        41.0004         37.0004
  -2547245.70547  -1873510.24146  24031415.0214   24031417.8574   24031415.316
        44.0004         40.0004
 20  9  1  1 45 30.0000000  0 10G09G07G27G30G08G05G04G28G13G11
 -18075367.32549 -14047681.50048  21766358.5874   21766362.9574   21766358.128
        54.0004         49.0004
 -20775639.79949 -16143943.60348  20903746.4074   20903747.4734   20903745.823
        55.0004         50.0004
   -914152.30047   -683253.34146  24837062.0744   24837065.7904   24837061.513
        44.0004         39.0004
 -19648626.08449 -15269147.56048  21111543.7924   21111547.7744   21111543.767
        55.0004         51.0004
 -12292286.91748  -9566098.82047  22550573.9204   22550579.2284   22550574.173
        50.0004         45.0004
  -7380950.47048  -5712636.26747  23871674.8054   23871677.0594   23871674.998
        51.0004         47.0004
   -694017.34347   -495046.49846  24720718.8974   24720723.7214   24720719.930
        43.0004         37.0004
 -14662588.59548 -11370602.66347  21859566.7484   21859568.6614   21859566.887
        50.0004         45.0004
  -1840065.12546  -1379051.21446  24911323.0804   24911324.5704   24911322.936
        41.0004         37.0004
  -2585086.04647  -1902996.20646  24024214.8884   24024216.7474   24024214.937
        44.0004         40.0004
 20  9  1  1 46  0.0000000  0 10G09G07G27G30G08G05G04G28G13G11
 -17998514.29448 -13987796.05648  21780982.8584   21780987.5694   21780982.617
        53.0004         49.0004
 -20751376.35349 -16125037.02848  20908363.6384   20908365.0434   20908363.089
        55.0004         50.0004
   -840934.22047   -626200.28546  24850993.8754   24850999.8064   24850994.299
        44.0004         40.0004
 -19678204.27949 -15292195.50048  21105915.2614   21105919.2424   21105915.120
        55.0004         51.0004
 -12264001.22848  -9544058.01947  22555956.8404   22555962.1184   22555956.730
        50.0004         45.0004
  -7373218.97048  -5706611.76547  23873145.7744   23873148.3664   23873144.379
        51.0004         46.0004
   -586557.29546   -411311.33546  24741170.1524   24741173.5594   24741168.443
        41.0004         36.0004
 -14745958.81648 -11435566.44547  21843701.8814   21843703.9614   21843702.321
        50.0004         45.0004
  -1943218.65846  -1459430.55346  24891693.3314   24891696.1064   24891692.390
        41.0004         37.0004
  -2622598.57947  -1932226.73346  24017076.2594   24017078.8484   24017076.382
        45.0004         41.0004
 20  9  1  1 46 30.0000000  0 10G09G07G27G30G08G05G04G28G13G11
 -17921270.80848 -13927606.35548  21795682.2664   21795685.8984   21795681.741
        53.0004         49.0004
 -20726870.58449 -16105941.63348  20913026.8104   20913028.0844   20913026.480
        55.0004         50.0004
   -767344.44047   -568857.63146  24864998.9834   24865003.1544   24864998.889
        45.0004         40.0004
 -19707583.45849 -15315088.36548  21100324.5954   21100328.6334   21100324.606
        55.0004         51.0004
 -12235157.63948  -9521582.50047  22561445.9194   22561449.8474   22561445.696
        50.0004         45.0004
  -7364986.89548  -5700197.18547  23874713.3804   23874714.5224   23874712.644
        51.0004         47.0004
   -478977.89546   -327483.28345  24761639.3034   24761645.7954   24761639.199
        41.0004         35.0004
 -14828997.26848 -11500271.71247  21827899.7614   21827902.2404   21827899.935
        50.0004         46.0004
  -2046329.41546  -1539776.57146  24872070.0274   24872073.5514   24872071.070
        41.0004         37.0004
  -2659781.11447  -1961200.14046  24010001.7684   24010002.5894   24010001.667
        45.0004         40.0004
 20  9  1  1 47  0.0000000  0 10G09G07G27G30G08G05G04G28G13G11
 -17843638.43748 -13867113.63148  21810455.1674   21810459.5834   21810454.686
        53.0004         49.0004
 -20702123.08249 -16086657.87348  20917736.2594   20917737.3444   20917735.548
        55.0004         50.0004
   -693385.04947   -511226.95646  24879071.2014   24879078.0544   24879070.656
        44.0004         39.0004
 -19736762.98749 -15337825.65748  21094771.9174   21094775.9504   21094771.864
        55.0004         51.0004
 -12205757.23748  -9498673.08247  22567040.8624   22567045.2914   22567040.030
        50.0004         45.0004
  -7356255.18148  -5693393.27747  23876374.2604   23876375.7874   23876373.930
        51.0004         47.0004
   -371280.88946   -243563.52945  24782134.9894   24782139.9624   24782134.035
        39.0004         35.0004
 -14911702.37948 -11564717.23747  21812161.8474   21812164.2644   21812162.114
        50.0004         46.0004
  -2149394.90746  -1620087.30546  24852459.2014   24852460.0214   24852457.989
        41.0004         36.0004
  -2696631.38947  -1989914.63546  24002987.7924   24002991.1644   24002986.729
        44.0004         39.0004
 20  9  1  1 47 30.0000000  0 10G09G07G27G30G08G05G04G28G13G11
 -17765618.93448 -13806319.25048  21825301.8904   21825306.0714   21825301.329
        53.0004         49.0004
 -20677133.49749 -16067185.47348  20922491.5104   20922492.8634   20922490.878
        55.0004         50.0004
   -619058.18847   -453309.96546  24893215.9144   24893220.9094   24893215.024
        44.0004         39.0004
 -19765742.44349 -15360407.05148  21089257.2954   21089261.4674   21089257.437
        55.0004         51.0004
 -12175800.12948  -9475329.87147  22572741.1734   22572745.8174   22572741.339
        50.0004         45.0004
  -7347025.14248  -5686201.07347  23878132.2214   23878133.3784   23878131.740
        51.0004         47.0004
   -263468.51347   -159553.95946  24802651.5274   24802655.2074   24802650.944
        42.0004         39.0004
 -14994073.13648 -11628902.21347  21796486.6214   21796488.9334   21796487.471
        51.0004         46.0004
  -2252413.02846  -1700361.15446  24832854.3344   24832856.4764   24832855.280
        41.0004         37.0004
  -2733147.36847  -2018368.60446  23996038.6494   23996041.1904   23996038.708
        44.0004         39.0004
 20  9  1  1 48  0.0000000  0 10G09G07G27G30G08G05G04G28G13G11
 -17687213.84248 -13745224.39548  21840221.6104   21840226.5294   21840221.228
        53.0004         49.0004
 -20651901.35549 -16047524.06648  20927292.8874   20927294.2724   20927292.428
        55.0004         50.0004
   -544366.11047   -395108.34046  24907431.0144   24907435.0294   24907430.851
        44.0004         40.0004
 -19794521.17949 -15382832.03848  21083780.8854   21083784.9774   21083781.011
        55.0004         51.0004
 -12145287.56748  -9451553.83447  22578547.0564   22578552.8044   22578547.599
        50.0004         45.0004
  -7337297.56848  -5678621.14847  23879981.6354   23879983.5464   23879981.392
        51.0004         47.0004
   -155542.30647    -75455.83646  24823187.7924   24823193.8374   24823187.943
        43.0004         38.0004
 -15076108.01648 -11692825.47047  21780876.2894   21780878.6374   21780876.591
        51.0004         46.0004
  -2355382.01546  -1780596.72646  24813260.2224   24813262.7644   24813259.995
        41.0004         37.0004
  -2769326.56047  -2046560.10546  23989154.6544   23989157.5574   23989153.840
        43.0004         39.0004
 20  9  1  1 48 30.0000000  0 10G09G07G27G30G08G05G04G28G13G11
 -17608425.14748 -13683830.64248  21855214.5534   21855219.1424   21855214.174
        53.0004         49.0004
 -20626427.37649 -16027674.21348  20932140.6264   20932142.0354   20932139.981
        55.0004         50.0004
   -469311.26047   -336624.09246  24921712.1704   24921716.9324   24921711.252
        44.0004         39.0004
 -19823098.97049 -15405100.44648  21078342.7954   21078346.7034   21078342.904
        55.0004         51.0004
 -12114220.82748  -9427345.97947  22584459.3904   22584464.4194   22584458.990
        50.0004         45.0004
  -7327073.90348  -5670654.69647  23881927.7224   23881929.0154   23881926.641
        51.0004         47.0004
    -47504.72646      8729.31345  24843747.4774   24843750.8684   24843747.061
        41.0004         35.0004
 -15157806.34948 -11756486.48547  21765329.6614   21765331.5524   21765329.658
        51.0004         46.0004
  -2458299.02347  -1860791.76546  24793676.5044   24793678.1944   24793675.345
        42.0004         37.0004
  -2805166.96847  -2074487.63846  23982334.9364   23982337.5634   23982334.347
        44.0004         40.0004
 20  9  1  1 49  0.0000000  0  9G09G07G27G30G08G05G28G13G11
 -17529254.42548 -13622139.19648  21870280.3754   21870284.7044   21870280.251
        53.0004         49.0004
 -20600711.10849 -16007635.56948  20937034.1974   20937035.4984   20937033.793
        55.0004         50.0004
   -393895.64647   -277858.67046  24936062.5784   24936067.1894   24936063.663
        43.0004         38.0004
 -19851475.11049 -15427211.72448  21072942.7544   21072946.9584   21072942.921
        55.0004         51.0004
 -12082600.77848  -9402706.97347  22590476.1074   22590480.9464   22590476.198
        50.0004         45.0004
  -7316355.04248  -5662302.34847  23883967.0624   23883968.9254   23883966.035
        52.0004         47.0004
 -15239166.55748 -11819884.01847  21749847.6544   21749849.0234   21749847.635
        51.0004         46.0004
  -2561162.39247  -1940945.01146  24774102.7474   24774103.8804   24774102.119
        42.0004         37.0004
  -2840666.22247  -2102149.36646  23975579.3114   23975581.7804   23975578.857
        44.0004         40.0004
 20  9  1  1 49 30.0000000  0  9G09G07G27G30G08G05G28G13G11
 -17449703.38348 -13560151.39948  21885418.3394   21885423.2744   21885418.039
        53.0004         49.0004
 -20574752.52949 -15987408.10748  20941974.2384   20941975.4204   20941973.475
        55.0004         50.0004
   -318121.49347   -218813.87846  24950482.8324   24950488.2084   24950483.588
        43.0004         39.0004
 -19879649.08449 -15449165.46848  21067581.7674   21067585.9134   21067581.680
        55.0004         51.0004
 -12050428.08548  -9377637.32747  22596598.5004   22596603.5294   22596598.659
        50.0004         45.0004
  -7305142.45948  -5653565.30247  23886101.1044   23886103.1044   23886099.737
        52.0004         47.0004
 -15320187.76348 -11883017.39847  21734429.7284   21734431.7194   21734429.321
        51.0004         46.0004
  -2663969.95147  -2021054.76146  24754539.2054   24754540.7814   24754538.832
        42.0004         37.0004
  -2875822.32347  -2129543.67746  23968889.8844   23968891.7984   23968889.899
        44.0004         40.0004
 20  9  1  1 50  0.0000000  0  9G09G07G27G30G08G05G28G13G11
 -17369773.86548 -13497868.69048  21900629.0244   21900633.5774   21900628.272
        53.0004         49.0004
 -20548551.72849 -15966991.90148  20946959.9234   20946961.1624   20946959.195
        55.0004         50.0004
   -241991.27847   -159491.72546  24964969.7204   24964975.2114   24964968.334
        44.0004         39.0004
 -19907620.44249 -15470961.33148  21062258.8254   21062263.0864   21062258.901
        55.0004         51.0004
 -12017703.72148  -9352137.82147  22602825.6224   22602830.6234   22602825.544
        50.0004         45.0004
  -7293437.31848  -5644444.44547  23888329.0144   23888331.0344   23888327.594
        52.0004         47.0004
 -15400868.76348 -11945885.68447  21719077.0604   21719078.4104   21719076.421
        51.0004         46.0004
  -2766719.69747  -2101119.51246  24734985.9434   24734988.1874   24734984.854
        42.0004         37.0004
  -2910632.98447  -2156668.82046  23962264.4824   23962267.0794   23962264.570
        44.0004         39.0004
 20  9  1  1 50 30.0000000  0  9G09G07G27G30G08G05G28G13G11
 -17289467.54948 -13435292.36948  21915910.2174   21915914.8964   21915910.099
        53.0004         49.0004
 -20522108.21649 -15946386.57048  20951991.8624   20951993.0484   20951991.166
        55.0004         50.0004
   -165507.13647    -99893.71646  24979524.8324   24979529.1324   24979524.636
        44.0004         39.0004
 -19935388.55849 -15492598.82248  21056974.8354   21056978.8154   21056974.769
        55.0004         51.0004
 -11984428.85348  -9326209.34847  22609157.7194   22609162.5854   22609157.160
        50.0004         45.0004
  -7281240.36248  -5634940.34147  23890650.0054   23890651.8234   23890650.697
        52.0004         47.0004
 -15481208.13348 -12008487.76247  21703788.3474   21703790.5264   21703788.241
        51.0004         46.0004
  -2869409.81946  -2181137.73946  24715443.6234   24715447.7314   24715443.722
        41.0004         37.0004
  -2945096.30247  -2183523.26746  23955705.6264   23955709.5304   23955705.297
        43.0004         38.0004
 20  9  1  1 51  0.0000000  0 10G09G07G27G30G08G05G04G28G13G11
 -17208786.30748 -13372423.90248  21931263.5724   21931268.2884   21931263.353
        53.0004         49.0004
 -20495422.59649 -15925592.57948  20957069.8024   20957071.3744   20957069.660
        55.0004         50.0004
    -88671.37347    -40021.71746  24994145.0194   24994148.4744   24994145.330
        43.0004         38.0004
 -19962953.02449 -15514077.62648  21051729.3334   21051733.4804   21051729.239
        55.0004         51.0004
 -11950604.73348  -9299852.89047  22615594.4634   22615599.8294   22615593.872
        49.0004         45.0004
  -7268553.27748  -5625054.33147  23893063.8474   23893065.8264   23893063.783
        52.0004         47.0004
                                                                  24946849.768

 -15561205.02048 -12070822.96947  21688565.6034   21688567.5534   21688565.549
        51.0004         46.0004
  -2972037.33947  -2261107.19646  24695915.1414   24695916.2304   24695915.228
        42.0004         37.0004
  -2979210.11947  -2210105.39346  23949213.2424   23949216.5234   23949215.140
        43.0004         39.0004
 20  9  1  1 51 30.0000000  0 10G09G07G27G30G08G05G04G28G13G11
 -17127731.89048 -13309264.65048  21946687.8484   21946692.2644   21946687.252
        53.0004         49.0004
 -20468494.40449 -15904609.57048  20962194.0614   20962195.5134   20962193.546
        55.0004         50.0004
    -11486.32347     20122.52246  25008831.7084   25008839.8954   25008831.413
        43.0004         39.0004
 -19990313.27449 -15535397.29948  21046522.8224   21046527.1104   21046522.977
        55.0004         51.0004
 -11916232.00248  -9273068.93547  22622135.3794   22622140.2444   22622134.970
        49.0004         45.0004
  -7255377.56448  -5614787.57047  23895571.3234   23895574.0194   23895570.423
        52.0004         47.0004
    140909.40148     97205.63046  24967527.4804   24967531.9024   24967527.062
        51.0004         39.0004
 -15640858.08548 -12132890.26847  21673407.8664   21673410.3854   21673408.203
        51.0004         46.0004
  -3074600.44346  -2341026.48746  24676396.5784   24676398.6554   24676396.354
        41.0004         37.0004
  -3012972.55447  -2236413.73946  23942789.4664   23942793.7214   23942789.625
        44.0004         39.0004
 20  9  1  1 52  0.0000000  0  9G09G07G27G30G08G05G28G13G11
 -17046306.12948 -13245816.03148  21962182.5594   21962187.3364   21962181.975
        53.0004         49.0004
 -20441323.72649 -15883437.61648  20967364.7094   20967365.9484   20967364.151
        55.0004         50.0004
     66045.73747     80537.03946  25023587.7474   25023591.3874   25023587.612
        43.0004         39.0004
 -20017468.78849 -15556557.43748  21041355.3384   21041359.5294   21041355.349
        56.0004         51.0004
 -11881312.10948  -9245858.63747  22628779.7124   22628785.3384   22628779.898
        49.0004         45.0004
  -7241714.27848  -5604140.87447  23898171.0524   23898173.7204   23898170.023
        52.0004         47.0004
 -15720166.34848 -12194688.89047  21658316.0464   21658318.2254   21658316.162
        51.0004         46.0004
  -3177097.40046  -2420894.18646  24656893.7434   24656895.6284   24656891.157
        41.0004         37.0004
  -3046381.04247  -2262446.27346  23936433.3494   23936435.7074   23936433.081
        44.0004         40.0004
 20  9  1  1 52 30.0000000  0  9G09G07G27G30G08G05G28G13G11
 -16964510.75148 -13182079.40748  21977747.7254   21977752.7864   21977747.604
        53.0004         49.0004
 -20413910.34549 -15862076.53848  20972581.2464   20972582.5264   20972580.833
        55.0004         50.0004
    143922.59447    141220.30446  25038406.9264   25038411.4704   25038408.024
        44.0004         39.0004
 -20044418.94049 -15577557.55448  21036227.1354   21036231.0214   21036226.643
        56.0004         51.0004
 -11845845.68048  -9218222.46147  22635529.3714   22635534.0294   22635529.456
        49.0004         45.0004
  -7227564.99348  -5593115.48547  23900863.7254   23900865.9904   23900863.745
        52.0004         47.0004
 -15799128.73048 -12256217.99247  21643289.8614   21643292.0734   21643290.114
        51.0004         46.0004
  -3279525.34947  -2500708.17546  24637401.9894   24637401.8444   24637400.993
        42.0004         37.0004
  -3079433.68947  -2288201.52446  23930142.2784   23930145.1514   23930142.099
        44.0004         40.0004
 20  9  1  1 53  0.0000000  0 10G09G07G27G30G08G05G04G28G13G11
 -16882347.62948 -13118056.21848  21993382.6844   21993387.7274   21993382.770
        53.0004         49.0004
 -20386254.49049 -15840526.52248  20977843.9254   20977845.3714   20977843.364
        55.0004         50.0004
    222141.94947    202170.44446  25053291.8024   25053296.8354   25053292.145
        43.0004         38.0004
 -20071163.20349 -15598397.23348  21031137.5964   21031141.7194   21031137.453
        56.0004         51.0004
 -11809833.92348  -9190161.35047  22642381.8894   22642386.8564   22642381.935
        49.0004         45.0004
  -7212930.71148  -5581712.16347  23903648.8674   23903650.7974   23903648.459
        51.0004         47.0004
     98505.97549     63516.74646  25029673.2124   25029677.5004   25029672.582
        54.0004         39.0004
 -15877743.94948 -12317476.57547  21628330.0134   21628332.1164   21628329.919
        51.0004         46.0004
  -3381882.47847  -2580466.95246  24617922.4024   24617925.1824   24617922.147
        42.0004         37.0004
  -3112128.54247  -2313677.96646  23923920.7634   23923924.1674   23923920.986
        44.0004         39.0004
 20  9  1  1 53 30.0000000  0  9G09G07G27G30G08G05G28G13G11
 -16799818.68248 -13053747.98448  22009087.8664   22009092.1284   22009087.208
        53.0004         48.0004
 -20358355.95049 -15818787.39848  20983153.0274   20983154.2144   20983152.396
        55.0004         50.0004
    300701.20947    263385.37946  25068240.9994   25068244.8294   25068240.752
        44.0004         40.0004
 -20097701.18349 -15619076.18048  21026087.6634   21026091.5804   21026087.441
        56.0004         51.0004
 -11773278.51748  -9161676.61647  22649338.6054   22649343.7694   22649337.961
        49.0004         45.0004
  -7197812.86848  -5569932.05547  23906525.5724   23906526.9124   23906525.131
        51.0004         47.0004
 -15956011.22448 -12378464.03747  21613435.6214   21613438.2894   21613435.987
        51.0004         46.0004
  -3484166.74247  -2660168.93946  24598458.9544   24598462.3034   24598459.371
        42.0004         37.0004
  -3144463.55047  -2338873.98746  23917767.4344   23917771.9114   23917767.609
        43.0004         38.0004
 20  9  1  1 54  0.0000000  0  9G09G07G27G30G08G05G28G13G11
 -16716925.68248 -12989156.06648  22024861.7904   22024866.6084   22024861.256
        53.0004         48.0004
 -20330214.57049 -15796859.05548  20988508.0624   20988509.3224   20988507.546
        55.0004         50.0004
    379598.34347    324863.64646  25083255.1664   25083259.0774   25083254.438
        43.0004         38.0004
 -20124032.20149 -15639593.85548  21021077.1054   21021081.0204   21021076.883
        56.0004         51.0004
 -11736180.11448  -9132768.77347  22656397.6644   22656403.2334   22656397.912
        49.0004         44.0004
  -7182212.86248  -5557776.23447  23909494.5984   23909496.0904   23909494.119
        51.0004         46.0004
 -16033929.17348 -12439179.30847  21598609.1314   21598610.7094   21598609.165
        51.0004         46.0004
  -3586375.57147  -2739812.14846  24579010.7454   24579011.9604   24579009.987
        42.0004         37.0004
  -3176436.42747  -2363787.87746  23911683.3954   23911684.8104   23911683.411
        43.0004         39.0004
 20  9  1  1 54 30.0000000  0  9G09G07G27G30G08G05G28G13G11
 -16633670.52848 -12924281.94848  22040704.5784   22040709.1614   22040704.414
        53.0004         48.0004
 -20301830.34249 -15774741.47848  20993909.3174   20993910.6864   20993908.864
        55.0004         50.0004
    458830.90147    386603.28446  25098333.2014   25098336.1884   25098332.884
        43.0004         38.0004
 -20150155.68949 -15659949.81748  21016106.1294   21016109.9964   21016105.690
        56.0004         51.0004
 -11698539.93148  -9103438.75447  22663560.5404   22663566.4644   22663560.309
        49.0004         44.0004
  -7166131.56648  -5545245.37447  23912554.6424   23912556.0904   23912554.316
        51.0004         46.0004
 -16111496.90448 -12499621.66747  21583848.1074   21583850.5214   21583848.652
        51.0004         46.0004
  -3688507.09847  -2819395.13846  24559575.4324   24559575.2704   24559574.958
        42.0004         37.0004
  -3208044.97347  -2388417.88146  23905669.1934   23905670.9034   23905669.409
        44.0004         39.0004
 20  9  1  1 55  0.0000000  0  9G09G07G27G30G08G05G28G13G11
 -16550054.94048 -12859126.97548  22056616.2384   22056621.0304   22056616.089
        53.0004         48.0004
 -20273203.05449 -15752434.49748  20999356.8004   20999358.1464   20999356.469
        55.0004         50.0004
    538396.61847    448602.61046  25113471.4794   25113477.9814   25113471.696
        43.0004         38.0004
 -20176071.01549 -15680143.57448  21011174.3204   21011178.2344   21011174.411
        55.0004         51.0004
 -11660359.23848  -9073687.56847  22670826.5964   22670830.8444   22670826.467
        49.0004         45.0004
  -7149571.06848  -5532341.11447  23915705.9754   23915707.4524   23915705.274
        51.0004         46.0004
 -16188712.84948 -12559789.91047  21569154.5044   21569156.3534   21569154.611
        51.0004         46.0004
  -3790558.96247  -2898916.05346  24540156.3254   24540156.3384   24540155.687
        42.0004         37.0004
  -3239287.53947  -2412762.71746  23899724.1984   23899725.1344   23899723.844
        44.0004         40.0004
 20  9  1  1 55 30.0000000  0  9G09G07G27G30G08G05G28G13G11
 -16466081.02348 -12793692.77748  22072595.9734   22072600.1184   22072595.684
        53.0004         48.0004
 -20244332.66549 -15729938.09448  21004850.7034   21004852.0394   21004850.559
        55.0004         50.0004
    618293.06647    510859.48546  25128677.1694   25128681.4184   25128678.081
        43.0004         38.0004
 -20201777.82649 -15700174.85248  21006282.4594   21006286.3514   21006282.306
        55.0004         51.0004
 -11621639.39748  -9043516.26347  22678194.7174   22678199.0464   22678194.147
        49.0004         44.0004
  -7132532.99648  -5519064.72447  23918947.9924   23918949.5274   23918948.334
        51.0004         46.0004
 -16265576.78348 -12619683.86047  21554527.7414   21554530.2814   21554527.339
        51.0004         46.0004
  -3892529.00947  -2978373.19946  24520750.1274   24520753.8514   24520750.051
        42.0004         37.0004
  -3270162.31047  -2436820.95246  23893847.8204   23893850.2664   23893848.233
        44.0004         40.0004
 20  9  1  1 56  0.0000000  0  9G09G07G27G30G08G05G28G13G11
 -16381750.57148 -12727980.76548  22088643.5984   22088648.5464   22088643.338
        52.0004         48.0004
 -20215219.62349 -15707252.61048  21010390.9484   21010392.2624   21010390.355
        55.0004         50.0004
    698517.92747    573372.35346  25143944.2014   25143948.4534   25143944.036
        43.0004         38.0004
 -20227275.41149 -15720043.09348  21001430.3784   21001434.4914   21001430.121
        55.0004         51.0004
 -11582381.29748  -9012925.53447  22685664.8794   22685670.1294   22685664.646
        49.0004         44.0004
  -7115018.36148  -5505416.98347  23922280.8634   23922282.5134   23922280.600
        51.0004         46.0004
 -16342087.22348 -12679302.36147  21539968.3464   21539970.2784   21539968.246
        51.0004         46.0004
  -3994414.39047  -3057764.38046  24501361.0094   24501364.3044   24501361.088
        42.0004         37.0004
  -3300667.09547  -2460590.85546  23888043.4424   23888045.4734   23888042.551
        44.0004         39.0004
 20  9  1  1 56 30.0000000  0  9G09G07G27G30G08G05G28G13G11
 -16297065.35548 -12661992.31548  22104758.5194   22104762.8194   22104758.434
        52.0004         48.0004
 -20185863.40649 -15684377.64148  21015977.2004   21015978.5254   21015976.794
        55.0004         50.0004
    779069.00747    636139.39746  25159270.2784   25159274.4734   25159269.890
        43.0004         38.0004
 -20252563.09949 -15739747.78548  20996618.2474   20996622.5024   20996618.291
        55.0004         51.0004
 -11542586.14248  -8981916.31447  22693237.7424   22693242.1124   22693237.855
        49.0004         44.0004
  -7097028.52048  -5491398.95447  23925703.9284   23925705.7314   23925703.732
        51.0004         46.0004
 -16418243.02448 -12738644.52047  21525476.6994   21525478.4774   21525476.398
        51.0004         47.0004
  -4096213.47847  -3137088.31046  24481990.6204   24481992.0324   24481989.605
        42.0004         37.0004
  -3330799.74047  -2484070.78346  23882308.1384   23882312.5934   23882308.574
        44.0004         40.0004
 20  9  1  1 57  0.0000000  0  9G09G07G27G30G08G05G28G13G11
 -16212027.52748 -12595729.09448  22120940.8924   22120945.2304   22120940.334
        52.0004         48.0004
 -20156264.15449 -15661313.28848  21021609.7834   21021610.8734   21021609.188
        55.0004         50.0004
    859943.72547    699158.64246  25174659.5154   25174665.5154   25174659.380
        42.0004         38.0004
 -20277640.48949 -15759288.60048  20991846.2294   20991850.2594   20991845.959
        56.0004         51.0004
 -11502255.84948  -8950490.11347  22700911.9624   22700917.6544   22700911.650
        49.0004         44.0004
  -7078565.40948  -5477012.14247  23929217.7194   23929219.1544   23929217.530
        51.0004         46.0004
 -16494043.52648 -12797709.81947  21511052.2584   21511053.4454   21511052.118
        51.0004         47.0004
  -4197924.28347  -3216343.45546  24462635.2764   24462638.0524   24462635.541
        42.0004         37.0004
  -3360558.26047  -2507259.17646  23876646.5614   23876647.5914   23876646.431
        44.0004         40.0004
 20  9  1  1 57 30.0000000  0  9G09G07G27G30G08G05G28G13G11
 -16126638.85748 -12529192.49748  22137189.7024   22137194.7954   22137189.339
        52.0004         48.0004
 -20126421.69249 -15638059.42448  21027288.5164   21027289.8814   21027288.076
        55.0004         50.0004
    941139.79847    762428.28746  25190110.1994   25190114.4814   25190110.958
        42.0004         37.0004
 -20302506.89749 -15778665.01748  20987114.3344   20987118.5164   20987113.944
        56.0004         51.0004
 -11461391.40948  -8918647.69547  22708688.1624   22708692.9574   22708687.858
        49.0004         44.0004
  -7059630.35048  -5462257.58447  23932821.2444   23932822.7344   23932820.985
        51.0004         46.0004
 -16569487.38148 -12856497.21447  21496695.4674   21496696.8244   21496695.630
        51.0004         47.0004
  -4299544.15647  -3295527.74246  24443297.5404   24443300.6084   24443297.636
        42.0004         38.0004
  -3389941.00947  -2530154.80146  23871054.1404   23871056.6824   23871054.925
        45.0004         40.0004
 20  9  1  1 58  0.0000000  0  9G09G07G27G30G08G05G28G13G11
 -16040901.46248 -12462384.17147  22153505.6774   22153509.2834   22153504.665
        52.0004         47.0004
 -20096336.17049 -15614616.16348  21033013.6164   21033014.8384   21033013.115
        55.0004         50.0004
   1022654.71847    825946.41646  25205624.8364   25205627.7514   25205623.296
        42.0004         38.0004
 -20327161.88549 -15797876.69048  20982422.6564   20982426.6474   20982422.423
        56.0004         51.0004
 -11419994.25448  -8886390.17047  22716566.2534   22716572.7414   22716565.374
        49.0004         44.0004
  -7040225.04448  -5447136.59747  23936513.3884   23936514.7894   23936513.563
        51.0004         46.0004
 -16644573.74948 -12915006.04247  21482407.1584   21482409.1494   21482406.880
        51.0004         47.0004
  -4401071.16447  -3374639.68946  24423978.6544   24423981.0314   24423977.708
        43.0004         38.0004
  -3418946.11047  -2552756.15746  23865536.2114   23865537.3494   23865536.109
        45.0004         40.0004
 20  9  1  1 58 30.0000000  0  9G09G07G27G30G08G05G28G13G11
 -15954817.11048 -12395305.48447  22169886.4194   22169890.7734   22169886.132
        52.0004         47.0004
 -20066007.08449 -15590983.11448  21038785.2914   21038786.3454   21038784.467
        55.0004         50.0004
   1104486.30047    889711.24046  25221195.4044   25221200.6384   25221194.724
        42.0004         38.0004
 -20351604.69349 -15816923.02748  20977771.3864   20977775.5454   20977771.277
        56.0004         51.0004
 -11378065.68048  -8853718.56647  22724544.9414   22724549.6794   22724544.911
        49.0004         44.0004
  -7020350.78348  -5431650.19747  23940295.0814   23940297.2664   23940293.906
        51.0004         46.0004
 -16719301.77848 -12973235.65347  21468187.4774   21468189.0434   21468186.931
        51.0004         47.0004
  -4502502.38347  -3453676.96846  24404676.3134   24404678.6914   24404676.363
        42.0004         38.0004
  -3447571.52747  -2575061.67146  23860088.0244   23860090.1514   23860088.078
        44.0004         40.0004
 20  9  1  1 59  0.0000000  0  9G09G07G27G30G08G05G28G13G11
 -15868387.82948 -12327958.01247  22186333.1844   22186337.5834   22186332.881
        52.0004         47.0004
 -20035434.68249 -15567160.47148  21044602.5314   21044604.1584   21044602.213
        55.0004         50.0004
   1186632.03847    953720.91546  25236828.6984   25236833.1674   25236828.443
        43.0004         38.0004
 -20375834.76749 -15835803.59848  20973160.5804   20973164.4474   20973160.415
        56.0004         51.0004
 -11335606.79348  -8820633.72047  22732624.7214   22732629.0914   22732624.647
        49.0004         44.0004
  -7000009.33048  -5415799.75547  23944166.9154   23944168.7154   23944165.402
        51.0004         46.0004
 -16793670.27548 -13031185.10147  21454034.6404   21454036.6204   21454035.050
        52.0004         47.0004
  -4603835.81347  -3532638.04246  24385394.1514   24385395.5504   24385393.900
        43.0004         38.0004
  -3475815.29847  -2597069.76946  23854713.6334   23854715.6094   23854713.733
        44.0004         40.0004
 20  9  1  1 59 30.0000000  0  9G09G07G27G30G08G05G28G13G11
 -15781615.50348 -12260343.25048  22202845.3124   22202849.9974   22202845.332
        52.0004         48.0004
 -20004618.96349 -15543148.23348  21050466.8324   21050468.0054   21050466.464
        55.0004         50.0004
   1269089.72946   1017973.64546  25252518.3844   25252521.5764   25252518.839
        41.0004         36.0004
 -20399851.44049 -15854517.88048  20968590.4024   20968594.1944   20968590.206
        56.0004         51.0004
 -11292619.13148  -8787136.85147  22740805.2584   22740809.6464   22740804.029
        49.0004         44.0004
  -6979202.21748  -5399586.44847  23948126.1334   23948128.3474   23948125.714
        51.0004         46.0004
 -16867678.37348 -13088853.72147  21439952.1154   21439953.7184   21439951.742
        52.0004         47.0004
  -4705069.06747  -3611521.08246  24366129.0704   24366132.3604   24366129.787
        43.0004         38.0004
  -3503675.37547  -2618778.88346  23849411.6574   23849414.9484   23849411.477
        45.0004         40.0004
 20  9  1  2  0  0.0000000  0  9G09G07G27G30G08G05G28G13G11
 -15694502.27748 -12192462.84247  22219422.6114   22219427.4234   22219422.051
        52.0004         47.0004
 -19973559.52549 -15518946.07748  21056377.1314   21056378.6004   21056376.828
        55.0004         50.0004
   1351856.66747   1082467.35646  25268269.4474   25268273.7024   25268270.033
        42.0004         37.0004
 -20423654.28649 -15873065.54848  20964060.8634   20964064.6424   20964060.493
        56.0004         51.0004
 -11249104.13048  -8753229.06647  22749085.3244   22749090.6304   22749085.518
        49.0004         44.0004
  -6957931.09448  -5383011.58847  23952174.6004   23952176.7024   23952173.390
        51.0004         46.0004
 -16941325.25748 -13146240.87247  21425937.2624   21425938.6394   21425937.206
        52.0004         47.0004
  -4806200.40247  -3690324.69246  24346885.1214   24346885.8404   24346885.898
        43.0004         38.0004
  -3531150.19747  -2640187.78546  23844183.6554   23844186.6204   23844182.925
        45.0004         40.0004
 20  9  1  2  0 30.0000000  0  9G09G07G27G30G08G05G28G13G11
 -15607050.04548 -12124318.27748  22236064.5114   22236068.9624   22236063.762
        52.0004         48.0004
 -19942256.51149 -15494554.12548  21062333.9084   21062335.2324   21062333.621
        55.0004         50.0004
   1434930.66047   1147200.30846  25284077.2574   25284081.1424   25284076.604
        42.0004         37.0004
 -20447242.55949 -15891446.01448  20959572.2024   20959575.9314   20959572.168
        56.0004         51.0004
 -11205063.27248  -8718911.52247  22757466.3084   22757470.5744   22757465.744
        49.0004         44.0004
  -6936197.27648  -5366076.18047  23956309.9104   23956312.4244   23956308.287
        51.0004         46.0004
 -17014609.82648 -13203345.70447  21411991.5534   21411993.0074   21411991.557
        52.0004         47.0004
  -4907227.05447  -3769046.73346  24327660.1774   24327663.8804   24327660.441
        43.0004         38.0004
  -3558237.73847  -2661294.92446  23839028.7544   23839030.9194   23839029.178
        45.0004         40.0004
 20  9  1  2  1  0.0000000  0  9G09G07G27G30G08G05G28G13G11
 -15519260.81848 -12055911.11248  22252770.1774   22252775.3064   22252769.614
        52.0004         48.0004
 -19910709.73649 -15469972.22748  21068337.0624   21068338.5924   21068336.701
        54.0004         50.0004
   1518309.23846   1212170.64146  25299945.2424   25299948.5234   25299944.669
        41.0004         37.0004
 -20470615.73549 -15909658.87548  20955124.4264   20955128.3004   20955124.173
        56.0004         51.0004
 -11160497.85248  -8684185.23347  22765947.0084   22765951.9674   22765946.436
        49.0004         44.0004
  -6914003.13148  -5348782.07447  23960533.3634   23960535.2294   23960532.845
        51.0004         46.0004
 -17087531.12448 -13260167.46647  21398115.1944   21398116.6924   21398114.779
        52.0004         47.0004
  -5008146.62347  -3847685.33846  24308454.6864   24308456.9234   24308454.581
        43.0004         38.0004
  -3584935.82047  -2682098.58446  23833948.0704   23833951.0004   23833948.416
        45.0004         40.0004
 20  9  1  2  1 30.0000000  0  9G09G07G27G30G08G05G28G13G11
 -15431136.53948 -11987242.86648  22269539.8794   22269544.2204   22269539.274
        52.0004         48.0004
 -19878919.15249 -15445200.34748  21074386.8074   21074388.1254   21074386.172
        54.0004         50.0004
   1601990.12347   1277376.42146  25315868.2634   25315873.5614   25315868.714
        42.0004         37.0004
 -20493773.07549 -15927703.55048  20950717.6044   20950721.5834   20950717.596
        56.0004         51.0004
 -11115409.22748  -8649051.24847  22774527.1364   22774531.6834   22774525.933
        49.0004         44.0004
  -6891349.89448  -5331130.22847  23964843.4714   23964846.0714   23964843.044
        51.0004         46.0004
 -17160088.32148 -13316705.51347  21384307.9674   21384309.5024   21384308.013
        52.0004         47.0004
  -5108956.79347  -3926238.67746  24289271.7734   24289272.6974   24289272.513
        43.0004         38.0004
  -3611242.93647  -2702597.59246  23828941.7364   23828943.4644   23828941.795
        45.0004         40.0004
 20  9  1  2  2  0.0000000  0  9G09G07G27G30G08G05G28G13G11
 -15342679.33348 -11918315.20148  22286372.4594   22286377.1914   22286372.155
        52.0004         48.0004
 -19846884.88949 -15420238.59348  21080483.0084   21080483.9024   21080482.127
        54.0004         50.0004
   1685970.59347   1342815.81046  25331848.0664   25331852.7794   25331848.972
        42.0004         37.0004
 -20516714.12049 -15945579.68648  20946352.1154   20946355.9834   20946352.016
        56.0004         51.0004
 -11069799.14948  -8613510.93647  22783206.3894   22783210.5594   22783206.170
        49.0004         44.0004
  -6868239.37548  -5313122.06047  23969240.8764   23969243.4804   23969240.357
        51.0004         46.0004
 -17232280.33448 -13372958.99947  21370570.4194   21370571.9184   21370570.309
        52.0004         47.0004
  -5209655.50547  -4004705.20546  24270108.1904   24270113.9864   24270107.996
        43.0004         38.0004
  -3637157.50447  -2722790.74246  23824010.6984   23824013.3804   23824010.992
        44.0004         39.0004
 20  9  1  2  2 30.0000000  0  9G09G07G27G30G08G05G28G13G11
 -15253891.18748 -11849129.65848  22303268.8194   22303273.1544   22303268.138
        52.0004         48.0004
 -19814606.79049 -15395086.83548  21086624.8944   21086626.2144   21086624.588
        54.0004         50.0004
   1770248.59346   1408486.93446  25347884.6574   25347891.8794   25347884.006
        41.0004         36.0004
 -20539438.13349 -15963286.70848  20942027.9704   20942031.7284   20942027.738
        56.0004         51.0004
 -11023669.04748  -8577565.42047  22791984.9004   22791989.4134   22791984.182
        49.0004         44.0004
  -6844673.16148  -5294758.80647  23973725.6374   23973728.4744   23973725.101
        51.0004         46.0004
 -17304106.28548 -13428927.23747  21356901.6374   21356903.2064   21356901.855
        52.0004         47.0004
  -5310240.36647  -4083082.97746  24250969.5144   24250971.6584   24250969.318
        43.0004         38.0004
  -3662677.55747  -2742676.45046  23819153.5174   23819156.4644   23819153.814
        44.0004         40.0004
 20  9  1  2  3  0.0000000  0  9G09G07G27G30G08G05G28G13G11
 -15164774.11048 -11779687.80647  22320226.7394   22320231.7534   22320226.609
        52.0004         47.0004
 -19782084.60849 -15369744.88448  21092813.7634   21092815.0964   21092813.353
        54.0004         50.0004
   1854821.39246   1474387.85146  25363980.7734   25363986.2334   25363980.784
        41.0004         36.0004
 -20561944.51049 -15980824.13848  20937745.0614   20937749.0644   20937745.127
        56.0004         51.0004
 -10977020.53748  -8541215.93347  22800861.8674   22800866.4494   22800861.819
        49.0004         44.0004
  -6820652.93548  -5276041.78647  23978296.9654   23978299.2874   23978296.465
        51.0004         46.0004
 -17375565.43248 -13484609.65947  21343303.6704   21343305.7904   21343303.507
        52.0004         47.0004
  -5410709.11047  -4161370.29046  24231851.9904   24231852.1864   24231851.861
        43.0004         38.0004
  -3687800.70947  -2762252.90446  23814373.8794   23814376.8244   23814373.241
        44.0004         40.0004
 20  9  1  2  3 30.0000000  0  9G09G07G27G30G08G05G28G13G11
 -15075330.18848 -11709991.27047  22337247.4164   22337252.2194   22337247.007
        52.0004         47.0004
 -19749318.35249 -15344212.73848  21099048.9464   21099050.2144   21099048.510
        54.0004         50.0004
   1939686.81747   1540516.69846  25380129.2504   25380136.2544   25380129.154
        42.0004         37.0004
 -20584232.60449 -15998191.48148  20933503.6224   20933507.7234   20933503.759
        56.0004         51.0004
 -10929854.76148  -8504463.39047  22809837.1364   22809841.4074   22809836.492
        49.0004         44.0004
  -6796180.38048  -5256972.28947  23982953.2524   23982956.2304   23982953.358
        51.0004         46.0004
 -17446656.87648 -13540005.55448  21329775.2044   21329777.5664   21329775.790
        52.0004         48.0004
  -5511059.55547  -4239565.43046  24212752.9394   24212754.2124   24212752.600
        43.0004         38.0004
  -3712526.10047  -2781519.38146  23809668.7014   23809671.3524   23809668.514
        45.0004         40.0004
 20  9  1  2  4  0.0000000  0  9G09G07G27G30G08G05G28G13G11
 -14985561.49448 -11640041.66247  22354329.7234   22354335.0854   22354329.232
        52.0004         47.0004
 -19716308.10549 -15318490.46948  21105330.6874   21105331.9794   21105329.966
        54.0004         50.0004
   2024842.23747   1606871.55346  25396332.3404   25396340.2324   25396332.246
        42.0004         37.0004
 -20606301.81449 -16015388.26548  20929304.0384   20929308.0224   20929303.907
        56.0004         51.0004
 -10882173.57548  -8467309.22347  22818910.4344   22818915.1544   22818910.339
        49.0004         44.0004
  -6771257.69548  -5237552.05247  23987696.4044   23987698.8184   23987696.431
        51.0004         46.0004
 -17517379.69048 -13595114.20848  21316317.4994   21316319.1584   21316317.376
        52.0004         48.0004
  -5611288.86047  -4317666.16646  24193680.7784   24193685.1314   24193680.706
        43.0004         38.0004
  -3736851.86147  -2800474.47446  23805039.6754   23805041.8924   23805040.291
        45.0004         40.0004
 20  9  1  2  4 30.0000000  0  9G09G07G27G30G08G05G28G13G11
 -14895470.05848 -11569840.57147  22371473.8574   22371478.0284   22371473.524
        52.0004         47.0004
 -19683053.44549 -15292577.74948  21111658.9894   21111659.8404   21111658.132
        54.0004         50.0004
   2110285.27147   1673450.55946  25412593.0054   25412599.8664   25412593.848
        42.0004         38.0004
 -20628151.49749 -16032413.99248  20925146.2804   20925150.2614   20925146.172
        56.0004         51.0004
 -10833978.54448  -8429754.65847  22828081.7494   22828086.6804   22828081.007
        49.0004         44.0004
  -6745886.28848  -5217782.15347  23992524.1024   23992526.3524   23992523.963
        51.0004         46.0004
 -17587733.08448 -13649935.00148  21302929.6864   21302931.1474   21302929.768
        52.0004         48.0004
  -5711394.75147  -4395670.73946  24174634.6804   24174635.5564   24174633.374
        43.0004         39.0004
  -3760775.82847  -2819116.46846  23800487.6904   23800490.4194   23800488.046
        44.0004         40.0004
 20  9  1  2  5  0.0000000  0  9G09G07G27G30G08G05G28G13G11
 -14805057.98548 -11499389.63547  22388678.2294   22388683.5264   22388678.250
        52.0004         47.0004
 -19649554.51249 -15266474.68448  21118033.4134   21118034.5434   21118032.760
        54.0004         50.0004
   2196013.53946   1740251.79846  25428907.4384   25428914.0484   25428905.883
        41.0004         37.0004
 -20649780.99649 -16049268.14648  20921030.3544   20921034.3904   20921030.069
        56.0004         51.0004
 -10785271.56948  -8391801.17347  22837350.2124   22837355.3864   22837349.690
        49.0004         44.0004
  -6720068.41648  -5197664.36947  23997438.1594   23997440.8404   23997437.348
        51.0004         46.0004
 -17657716.22848 -13704467.28948  21289612.0104   21289613.9134   21289612.219
        52.0004         48.0004
  -5811374.88247  -4473577.30846  24155604.0324   24155607.5364   24155604.771
        43.0004         38.0004
  -3784296.41747  -2837444.18046  23796011.6174   23796013.9724   23796011.807
        44.0004         39.0004
 20  9  1  2  5 30.0000000  0  9G09G07G27G30G08G05G28G13G11
 -14714327.29548 -11428690.43147  22405943.9404   22405949.1374   22405943.583
        52.0004         47.0004
 -19615811.20649 -15240181.20748  21124454.5974   21124455.9304   21124454.119
        54.0004         50.0004
   2282024.61446   1807273.38145  25445275.1094   25445278.4464   25445272.016
        40.0004         35.0004
 -20671189.63749 -16065950.20448  20916956.4834   20916960.2274   20916956.218
        56.0004         51.0004
 -10736053.77448  -8353449.64747  22846716.0514   22846720.5604   22846715.701
        49.0004         44.0004
  -6693805.44248  -5177199.74547  24002436.2364   24002438.1614   24002435.549
        51.0004         46.0004
 -17727328.14148 -13758710.31448  21276365.4714   21276367.4824   21276365.579
        52.0004         48.0004
  -5911226.91647  -4551384.08346  24136607.5564   24136609.2554   24136606.009
        43.0004         39.0004
  -3807411.96847  -2855456.26946  23791613.0514   23791615.0544   23791612.180
        44.0004         39.0004
 20  9  1  2  6  0.0000000  0  9G09G07G27G30G08G05G28G13G11
 -14623280.23148 -11357744.70247  22423270.1744   22423274.2194   22423269.174
        51.0004         47.0004
 -19581823.69549 -15213697.44648  21130922.2404   21130923.2914   21130921.508
        54.0004         50.0004
   2368315.91946   1874513.40046  25461694.7314   25461700.5184   25461696.074
        41.0004         37.0004
 -20692376.86149 -16082459.73648  20912924.6134   20912928.5344   20912924.539
        56.0004         51.0004
 -10686327.11948  -8314701.60147  22856178.8964   22856182.9564   22856178.383
        49.0004         44.0004
  -6667099.41948  -5156389.90147  24007516.9004   24007518.4894   24007516.709
        51.0004         46.0004
 -17796568.36048 -13812663.70148  21263189.1384   21263191.1104   21263189.252
        52.0004         48.0004
  -6010948.76447  -4629089.39246  24117627.4914   24117628.1314   24117627.811
        43.0004         39.0004
  -3830120.85547  -2873151.47646  23787291.3064   23787292.5434   23787291.566
        44.0004         40.0004
 20  9  1  2  6 30.0000000  0  9G09G07G27G30G08G05G28G13G11
 -14531918.69048 -11286553.92547  22440655.2184   22440660.4244   22440654.789
        51.0004         46.0004
 -19547591.60649 -15187023.09948  21137436.4774   21137437.6424   21137435.704
        54.0004         50.0004
   2454885.09147   1941969.82646  25478167.7244   25478173.6014   25478168.591
        42.0004         37.0004
 -20713341.86249 -16098796.10048  20908935.0504   20908939.1544   20908934.994
        56.0004         51.0004
 -10636093.09448  -8275558.20147  22865738.0554   22865743.0484   22865736.955
        49.0004         44.0004
  -6639952.07348  -5135236.15247  24012682.5124   24012685.8524   24012682.411
        51.0004         46.0004
 -17865435.73048 -13866326.55948  21250084.3084   21250086.1134   21250084.681
        52.0004         48.0004
  -6110537.51747  -4706690.99246  24098678.2814   24098678.5064   24098677.729
        43.0004         39.0004
  -3852421.59947  -2890528.65646  23783048.2324   23783049.3384   23783047.487
        44.0004         40.0004
 20  9  1  2  7  0.0000000  0  9G09G07G27G30G08G05G28G13G11
 -14440245.00148 -11215119.90747  22458100.3204   22458105.1804   22458100.126
        51.0004         46.0004
 -19513114.96849 -15160158.18648  21143996.8084   21143998.3824   21143996.474
        54.0004         50.0004
   2541729.62546   2009640.86946  25494696.1624   25494700.3774   25494694.310
        41.0004         37.0004
 -20734084.17049 -16114958.93848  20904987.9614   20904991.9524   20904987.811
        56.0004         51.0004
 -10585353.23048  -8236020.65447  22875394.2124   22875398.0124   22875392.758
        49.0004         44.0004
  -6612365.16248  -5113739.89047  24017933.0074   24017935.8834   24017932.403
        51.0004         46.0004
 -17933929.58148 -13919698.36748  21237050.1044   21237052.3844   21237050.369
        52.0004         48.0004
  -6209991.27347  -4784187.40646  24079751.3294   24079752.3184   24079750.654
        43.0004         39.0004
  -3874312.31847  -2907586.32046  23778881.9424   23778884.5674   23778881.083
        45.0004         40.0004
 20  9  1  2  7 30.0000000  0  8G09G07G30G08G05G28G13G11
 -14348261.12148 -11143444.19647  22475604.3434   22475608.7834   22475603.566
        51.0004         46.0004
 -19478393.61649 -15133102.59248  21150604.4614   21150605.5834   21150603.485
        54.0004         50.0004
 -20754602.96749 -16130947.60848  20901083.3694   20901087.2704   20901083.039
        56.0004         51.0004
 -10534109.80548  -8196090.71647  22885145.1394   22885149.5014   22885144.655
        49.0004         44.0004
  -6584340.52648  -5091902.55147  24023265.3594   24023267.3854   24023265.404
        51.0004         46.0004
 -18002048.92148 -13972778.34748  21224087.7864   21224089.4194   21224087.925
        52.0004         48.0004
  -6309307.24447  -4861576.44946  24060853.7324   24060854.6814   24060852.657
        43.0004         39.0004
  -3895791.05247  -2924322.98246  23774794.7164   23774795.7314   23774794.545
        45.0004         40.0004
 20  9  1  2  8  0.0000000  0  8G09G07G30G08G05G28G13G11
 -14255969.18248 -11071528.42847  22493166.6444   22493171.3094   22493165.966
        51.0004         46.0004
 -19443427.25149 -15105856.07448  21157257.9584   21157259.5024   21157257.683
        54.0004         50.0004
 -20774897.63049 -16146761.63248  20897221.3984   20897225.4484   20897221.360
        56.0004         51.0004
 -10482363.59148  -8155768.99247  22894990.8254   22894995.7224   22894991.385
        48.0004         44.0004
  -6555880.69348  -5069726.10247  24028683.4424   24028684.7054   24028682.553
        51.0004         47.0004
 -18069793.09948 -14025565.98848  21211196.3704   21211198.4334   21211196.241
        52.0004         48.0004
  -6408483.11747  -4938856.32646  24041980.2814   24041982.5204   24041979.699
        43.0004         39.0004
  -3916856.27847  -2940737.42546  23770785.8854   23770787.8554   23770784.491
        45.0004         40.0004
 20  9  1  2  8 30.0000000  0  8G09G07G30G08G05G28G13G11
 -14163371.47748 -10999374.40747  22510787.3444   22510792.2774   22510786.860
        50.0004         46.0004
 -19408216.13649 -15078418.85248  21163958.5684   21163959.9374   21163958.189
        54.0004         50.0004
 -20794967.56549 -16162400.54148  20893402.3654   20893406.2424   20893402.057
        56.0004         51.0004
 -10430117.30748  -8115057.60147  22904933.4924   22904938.2754   22904933.728
        48.0004         44.0004
  -6526987.10248  -5047211.64647  24034181.0814   24034181.6624   24034182.271
        51.0004         47.0004
 -18137161.58448 -14078060.88848  21198376.4814   21198378.4514   21198376.638
        52.0004         48.0004
  -6507516.50147  -5016025.17246  24023134.3814   24023136.0844   24023135.059
        44.0004         39.0004
  -3937506.71147  -2956828.66946  23766855.7414   23766856.7144   23766855.904
        44.0004         40.0004
 20  9  1  2  9  0.0000000  0  8G09G07G30G08G05G28G13G11
 -14070469.98248 -10926983.66647  22528466.0814   22528470.5094   22528465.609
        50.0004         46.0004
 -19372760.08749 -15050790.76748  21170705.5724   21170707.2374   21170705.026
        54.0004         50.0004
 -20814812.01249 -16177863.74348  20889625.9814   20889630.0654   20889625.990
        56.0004         51.0004
 -10377372.09948  -8073957.43547  22914970.7984   22914975.0544   22914970.200
        48.0004         44.0004
  -6497661.77048  -5024360.77847  24039760.9294   24039762.6204   24039761.608
        51.0004         47.0004
 -18204153.41148 -14130262.28848  21185628.5954   21185629.8754   21185628.444
        52.0004         48.0004
  -6606404.91547  -5093081.05346  24004317.9574   24004319.7414   24004318.155
        44.0004         39.0004
  -3957740.76347  -2972595.45046  23763006.5704   23763006.5024   23763005.436
        44.0004         40.0004
 20  9  1  2  9 30.0000000  0  9G09G07G27G30G08G05G28G13G11
 -13977266.90648 -10854357.92647  22546201.9144   22546206.9264   22546201.356
        50.0004         46.0004
 -19337059.12249 -15022971.83948  21177499.5814   21177500.8284   21177498.687
        54.0004         50.0004
    120033.35748     78872.13846  25578094.2994   25578099.5994   25578092.520
        51.0004         37.0004
 -20834430.30049 -16193150.71848  20885892.8464   20885896.7734   20885892.611
        56.0004         51.0004
 -10324129.67848  -8032469.83247  22925102.2314   22925107.6024   22925102.211
        48.0004         44.0004
  -6467907.19848  -5001175.42847  24045422.7044   24045425.3274   24045421.779
        51.0004         47.0004
 -18270767.76348 -14182169.55348  21172952.1424   21172953.6504   21172952.330
        52.0004         48.0004
  -6705145.97147  -5170022.11146  23985526.7464   23985529.9814   23985527.336
        44.0004         39.0004
  -3977556.70347  -2988036.45446  23759234.3044   23759237.9204   23759234.611
        45.0004         40.0004
 20  9  1  2 10  0.0000000  0  9G09G07G27G30G08G05G28G13G11
 -13883764.46248 -10781498.90747  22563994.6974   22563999.6564   22563994.257
        50.0004         46.0004
 -19301112.88749 -14994961.78948  21184339.6774   21184340.8094   21184339.313
        54.0004         50.0004
    208478.68347    147790.52746  25594924.6474   25594930.2774   25594925.328
        46.0004         36.0004
 -20853821.78749 -16208260.96648  20882202.5384   20882206.7594   20882202.664
        56.0004         51.0004
 -10270391.82348  -7990596.17447  22935327.9734   22935333.5324   22935327.831
        48.0004         44.0004
  -6437724.80448  -4977656.71247  24051167.2404   24051169.7414   24051166.176
        51.0004         47.0004
 -18337004.04848 -14233782.21648  21160347.7604   21160349.4594   21160347.886
        53.0004         48.0004
  -6803737.23047  -5246846.45946  23966764.6554   23966767.8164   23966765.233
        44.0004         39.0004
  -3996953.06347  -3003150.47446  23755543.4984   23755545.3874   23755543.723
        45.0004         40.0004
 20  9  1  2 10 30.0000000  0  8G09G07G30G08G05G28G13G11
 -13789964.78348 -10708408.28047  22581844.8284   22581849.4294   22581844.266
        50.0004         46.0004
 -19264921.76249 -14966760.92548  21191226.7104   21191228.1704   21191225.961
        54.0004         50.0004
 -20872985.81949 -16223193.97648  20878555.8614   20878559.9184   20878555.834
        56.0004         51.0004
 -10216160.38248  -7948337.90147  22945647.9604   22945653.0934   22945648.052
        48.0004         44.0004
  -6407116.54348  -4953806.14747  24056990.6844   24056993.5504   24056990.505
        51.0004         47.0004
 -18402861.67948 -14285099.82948  21147815.1374   21147817.1224   21147815.772
        53.0004         48.0004
  -6902176.46647  -5323552.33046  23948033.9644   23948035.4004   23948034.236
        44.0004         40.0004
  -4015928.24447  -3017936.32946  23751931.8154   23751935.2524   23751932.486
        45.0004         40.0004
 20  9  1  2 11  0.0000000  0  8G09G07G30G08G05G28G13G11
 -13695869.98448 -10635087.67847  22599749.8974   22599754.4924   22599749.788
        50.0004         45.0004
 -19228485.10549 -14938368.73448  21198160.1254   21198161.7194   21198159.656
        54.0004         50.0004
 -20891921.59549 -16237949.12448  20874952.3724   20874956.4864   20874952.450
        56.0004         51.0004
 -10161437.33548  -7905696.55647  22956061.2974   22956066.4444   22956061.520
        48.0004         44.0004
  -6376084.71348  -4929625.53147  24062895.1414   24062898.1514   24062895.516
        51.0004         47.0004
 -18468339.39148 -14336121.39948  21135355.3994   21135357.0594   21135355.417
        53.0004         48.0004
  -7000460.80047  -5400137.50046  23929330.3794   23929330.9534   23929329.599
        44.0004         40.0004
  -4034480.78047  -3032392.80346  23748401.9214   23748404.1764   23748402.425
        45.0004         40.0004
 20  9  1  2 11 30.0000000  0  8G09G07G30G08G05G28G13G11
 -13601482.37948 -10561538.93047  22617711.7744   22617716.0684   22617711.295
        50.0004         46.0004
 -19191803.38049 -14909785.57648  21205140.5704   21205142.0164   21205140.184
        54.0004         50.0004
 -20910628.57349 -16252525.99248  20871392.7974   20871396.7654   20871392.444
        56.0004         51.0004
 -10106224.66448  -7862673.69047  22966568.2474   22966573.4094   22966567.986
        48.0004         44.0004
  -6344631.41048  -4905116.49647  24068880.0124   24068882.8694   24068880.039
        51.0004         47.0004
 -18533437.24248 -14386846.97448  21122967.9304   21122969.4764   21122967.643
        53.0004         48.0004
  -7098588.13247  -5476600.33646  23910658.6834   23910660.3574   23910658.047
        44.0004         40.0004
  -4052609.22647  -3046518.86046  23744951.5744   23744955.0474   23744952.169
        45.0004         40.0004
 20  9  1  2 12  0.0000000  0  8G09G07G30G08G05G28G13G11
 -13506804.08848 -10487763.66147  22635727.7204   22635733.1514   22635728.126
        50.0004         46.0004
 -19154876.31549 -14881011.24848  21212167.6754   21212169.3824   21212167.177
        54.0004         50.0004
 -20929105.95349 -16266923.94748  20867876.4874   20867880.5724   20867876.361
        56.0004         51.0004
 -10050523.77948  -7819270.39447  22977167.0854   22977172.4204   22977167.605
        48.0004         44.0004
  -6312758.45648  -4880280.45747  24074945.3574   24074949.3584   24074945.034
        51.0004         46.0004
 -18598153.94448 -14437275.54548  21110652.5554   21110654.3134   21110652.516
        53.0004         48.0004
  -7196555.87747  -5552938.80846  23892016.5314   23892018.4664   23892014.994
        44.0004         40.0004
  -4070311.84447  -3060313.04346  23741584.6684   23741587.1694   23741584.857
        45.0004         41.0004
 20  9  1  2 12 30.0000000  0  8G09G07G30G08G05G28G13G11
 -13411837.27848 -10413763.57947  22653800.6874   22653805.3864   22653799.368
        50.0004         46.0004
 -19117703.71049 -14852045.59348  21219241.5184   21219242.6154   21219240.748
        54.0004         50.0004
 -20947353.05849 -16281142.46948  20864404.2094   20864408.2384   20864404.159
        56.0004         51.0004
  -9994336.66548  -7775488.22547  22987859.9354   22987864.9484   22987859.783
        48.0004         44.0004
  -6280467.59248  -4855118.77747  24081090.3784   24081094.1164   24081089.693
        51.0004         46.0004
 -18662488.93748 -14487406.68148  21098410.2694   21098411.8414   21098409.969
        53.0004         48.0004
  -7294361.83947  -5629151.23046  23873404.2354   23873405.0944   23873403.050
        45.0004         40.0004
  -4087587.28947  -3073774.42546  23738296.1614   23738297.9424   23738296.286
        45.0004         40.0004
 20  9  1  2 13  0.0000000  0  8G09G07G30G08G05G28G13G11
 -13316584.23848 -10339540.44847  22671925.7844   22671930.9174   22671926.140
        50.0004         46.0004
 -19080285.58849 -14822888.62548  21226361.8924   21226363.3904   21226361.233
        54.0004         50.0004
 -20965369.23549 -16295181.04748  20860975.8624   20860979.8384   20860975.635
        56.0004         51.0004
  -9937665.04948  -7731328.52247  22998644.8834   22998649.2744   22998643.770
        48.0004         44.0004
  -6247761.39848  -4829633.47047  24087314.4134   24087317.8694   24087313.025
        51.0004         46.0004
 -18726441.89448 -14537240.13248  21086240.1084   21086241.6754   21086240.183
        53.0004         48.0004
  -7392003.17947  -5705235.35646  23854822.6294   23854823.5254   23854821.849
        45.0004         40.0004
  -4104434.38047  -3086901.98846  23735091.6244   23735092.4564   23735091.861
        45.0004         41.0004
 20  9  1  2 13 30.0000000  0  8G09G07G30G08G05G28G13G11
 -13221047.11048 -10265095.97047  22690106.8204   22690111.4124   22690105.686
        50.0004         46.0004
 -19042621.69149 -14793540.14248  21233528.8814   21233530.6564   21233528.432
        54.0004         50.0004
 -20983153.71049 -16309039.08148  20857591.5024   20857595.6264   20857591.374
        56.0004         51.0004
  -9880511.11348  -7686792.98747  23009520.3264   23009525.8454   23009519.488
        48.0004         44.0004
  -6214641.90848  -4803826.09747  24093616.9054   24093620.8954   24093616.631
        51.0004         46.0004
 -18790011.90548 -14586775.17648  21074143.0794   21074144.4434   21074142.915
        53.0004         48.0004
  -7489477.44747  -5781189.32146  23836273.0014   23836276.4544   23836272.980
        45.0004         40.0004
  -4120851.42147  -3099694.44546  23731965.9424   23731967.1714   23731964.956
        45.0004         40.0004
 20  9  1  2 14  0.0000000  0  9G09G07G27G30G08G05G28G13G11
 -13125228.16348 -10190431.88047  22708339.0964   22708344.9574   22708339.438
        50.0004         46.0004
 -19004711.79949 -14763999.97648  21240743.0404   21240744.4754   21240742.379
        54.0004         50.0004
    107362.29448     66818.23446  25731297.6384   25731303.5464   25731298.652
        52.0004         37.0004
 -21000705.83449 -16322716.06248  20854251.4594   20854255.4754   20854251.551
        56.0004         51.0004
  -9822876.64448  -7641883.01247  23020487.9524   23020492.2864   23020488.054
        48.0004         44.0004
  -6181111.07748  -4777698.21947  24099998.9504   24100001.0354   24099997.432
        51.0004         46.0004
 -18853198.41948 -14636011.38948  21062118.7474   21062120.9914   21062119.160
        53.0004         48.0004
  -7586782.02647  -5857011.05046  23817757.5024   23817758.2074   23817756.482
        45.0004         40.0004
  -4136836.93347  -3112150.64146  23728923.9834   23728927.3194   23728924.086
        45.0004         40.0004
 20  9  1  2 14 30.0000000  0  8G09G07G30G08G05G28G13G11
 -13029129.63848 -10115549.94147  22726626.9834   22726631.3914   22726626.890
        50.0004         45.0004
 -18966556.37149 -14734268.48448  21248003.5584   21248005.1994   21248002.994
        54.0004         50.0004
 -21018024.91249 -16336211.44948  20850955.7804   20850959.8104   20850955.802
        56.0004         51.0004
  -9764763.40548  -7596599.96647  23031545.8454   23031550.9104   23031545.411
        48.0004         44.0004
  -6147171.11348  -4751251.53247  24106457.6804   24106459.5344   24106455.817
        51.0004         46.0004
 -18916000.78348 -14684948.26748  21050167.9634   21050170.1314   21050168.291
        53.0004         48.0004
  -7683914.87447  -5932698.96446  23799273.8864   23799273.7274   23799273.299
        45.0004         40.0004
  -4152389.68847  -3124269.59346  23725965.3684   23725966.9964   23725964.846
        45.0004         40.0004
 20  9  1  2 15  0.0000000  0  8G09G07G30G08G05G28G13G11
 -12932753.76648 -10040451.88247  22744966.8684   22744970.9094   22744966.469
        50.0004         46.0004
 -18928155.26549 -14704345.55348  21255311.2704   21255312.6244   21255310.622
        54.0004         50.0004
 -21035110.22949 -16349524.68648  20847704.6204   20847708.7524   20847704.401
        56.0004         51.0004
  -9706173.64048  -7550945.61047  23042695.7874   23042700.0824   23042695.586
        48.0004         44.0004
  -6112824.46548  -4724487.94947  24112993.4994   24112996.1184   24112992.642
        51.0004         46.0004
 -18978418.23248 -14733585.20848  21038290.4294   21038291.8374   21038290.722
        53.0004         48.0004
  -7780873.37847  -6008251.02746  23780823.7814   23780824.5174   23780823.523
        45.0004         40.0004
  -4167508.18947  -3136050.20746  23723087.4694   23723089.9734   23723088.343
        45.0004         41.0004
 20  9  1  2 15 30.0000000  0  8G09G07G30G08G05G28G13G11
 -12836102.70748  -9965139.39747  22763358.8094   22763364.2634   22763358.232
        50.0004         46.0004
 -18889508.09349 -14674230.88548  21262665.4974   21262666.8564   21262665.127
        54.0004         50.0004
 -21051960.98849 -16362655.15248  20844497.8934   20844501.9544   20844497.901
        56.0004         51.0004
  -9647109.04948  -7504921.26447  23053935.1404   23053940.5844   23053934.513
        48.0004         44.0004
  -6078072.64148  -4697408.63647  24119606.4804   24119608.6284   24119605.913
        51.0004         46.0004
 -19040450.34448 -14781921.89148  21026486.1474   21026488.1934   21026486.208
        53.0004         48.0004
  -7877654.66447  -6083664.99446  23762406.7784   23762407.3854   23762405.453
        45.0004         40.0004
  -4182190.89747  -3147491.19146  23720294.7544   23720295.6344   23720294.450
        45.0004         41.0004
 20  9  1  2 16  0.0000000  0  8G09G07G30G08G05G28G13G11
 -12739178.83748  -9889614.33347  22781803.1624   22781807.1384   22781802.322
        50.0004         46.0004
 -18850614.93749 -14643924.53048  21270066.4714   21270068.1164   21270065.893
        54.0004         50.0004
 -21068576.58249 -16375602.36648  20841336.2214   20841340.1614   20841336.181
        56.0004         51.0004
  -9587571.65448  -7458528.50247  23065264.8174   23065269.3754   23065263.948
        48.0004         44.0004
  -6042918.54548  -4670015.87847  24126295.5774   24126297.5854   24126294.384
        51.0004         46.0004
 -19102096.50848 -14829957.83748  21014755.2554   21014757.1084   21014755.582
        53.0004         48.0004
  -7974257.14647  -6158939.64046  23744024.1924   23744026.0324   23744022.326
        45.0004         40.0004
  -4196436.70947  -3158591.78746  23717582.2794   23717585.0474   23717582.548
        45.0004         40.0004
 20  9  1  2 16 30.0000000  0  8G09G07G30G08G05G28G13G11
 -12641984.30848  -9813878.36147  22800298.3474   22800303.2624   22800297.983
        50.0004         45.0004
 -18811475.62949 -14613426.37848  21277514.4894   21277516.2994   21277514.019
        54.0004         50.0004
 -21084956.16149 -16388365.67448  20838219.3424   20838223.2784   20838219.189
        56.0004         51.0004
  -9527563.32248  -7411768.77147  23076683.6364   23076689.3204   23076683.375
        48.0004         43.0004
  -6007363.89948  -4642310.98947  24133061.9594   24133065.0354   24133060.557
        51.0004         46.0004
 -19163355.98448 -14877692.46748  21003097.8974   21003099.5794   21003097.805
        53.0004         48.0004
  -8070677.20347  -6234072.13546  23725674.8374   23725675.9064   23725673.975
        45.0004         41.0004
  -4210244.56647  -3169351.10146  23714956.0334   23714958.1504   23714955.273
        45.0004         40.0004
 20  9  1  2 17  0.0000000  0  8G09G07G30G08G05G28G13G11
 -12544521.46948  -9737933.30547  22818844.8554   22818849.9554   22818844.470
        50.0004         45.0004
 -18772090.24449 -14582736.47048  21285009.3064   21285010.8054   21285008.897
        54.0004         50.0004
 -21101099.16749 -16400944.63648  20835147.2664   20835151.2174   20835146.975
        56.0004         51.0004
  -9467086.22248  -7364643.76647  23088192.0774   23088197.6354   23088192.189
        48.0004         43.0004
  -5971410.91248  -4614295.72547  24139904.1724   24139905.8364   24139903.801
        51.0004         46.0004
 -19224228.32148 -14925125.42948  20991514.5684   20991516.0924   20991514.570
        53.0004         48.0004
  -8166912.98947  -6309061.04246  23707361.4924   23707363.6584   23707361.661
        45.0004         41.0004
  -4223612.82247  -3179767.85746  23712410.5434   23712412.1244   23712410.090
        44.0004         39.0004
 20  9  1  2 17 30.0000000  0  8G09G07G30G08G05G28G13G11
 -12446792.51148  -9661780.90347  22837441.8444   22837446.9514   22837441.992
        50.0004         45.0004
 -18732458.55549 -14551854.64548  21292551.1964   21292552.4474   21292550.762
        54.0004         50.0004
 -21117004.70149 -16413338.55648  20832120.5014   20832124.5194   20832120.592
        56.0004         51.0004
  -9406142.02848  -7317154.79447  23099789.8224   23099794.1784   23099789.948
        48.0004         43.0004
  -5935061.82648  -4585971.79647  24146819.5764   24146821.3834   24146820.059
        51.0004         46.0004
 -19284713.02948 -14972256.34448  20980004.6124   20980006.1354   20980004.251
        53.0004         48.0004
  -8262961.60147  -6383904.09046  23689082.4934   23689085.8794   23689083.166
        45.0004         41.0004
  -4236540.16747  -3189841.04946  23709950.7624   23709953.2894   23709950.758
        44.0004         40.0004
 20  9  1  2 18  0.0000000  0  8G09G07G30G08G05G28G13G11
 -12348799.76248  -9585422.94347  22856089.2484   22856094.6144   22856089.080
        50.0004         45.0004
 -18692580.48349 -14520780.82948  21300139.5344   21300140.6844   21300139.128
        54.0004         49.0004
 -21132672.11949 -16425546.92748  20829138.9934   20829143.3344   20829138.951
        56.0004         51.0004
  -9344733.27148  -7269303.82547  23111475.2134   23111480.9014   23111474.802
        48.0004         43.0004
  -5898318.86448  -4557340.96147  24153812.9774   24153815.4074   24153813.465
        51.0004         46.0004
 -19344809.56448 -15019084.79048  20968568.2514   20968569.9554   20968568.610
        53.0004         49.0004
  -8358820.69547  -6458599.46046  23670843.1214   23670845.1854   23670841.938
        45.0004         41.0004
  -4249025.39847  -3199569.74646  23707575.9234   23707577.2504   23707575.375
        44.0004         40.0004
 20  9  1  2 18 30.0000000  0  8G09G07G30G08G05G28G13G11
 -12250545.49248  -9508861.19747  22874787.1244   22874792.0304   22874786.577
        50.0004         45.0004
 -18652455.97449 -14489514.98648  21307775.0314   21307776.5084   21307774.603
        54.0004         49.0004
 -21148100.70849 -16437569.19948  20826203.0964   20826207.0184   20826203.151
        56.0004         51.0004
  -9282861.83248  -7221092.32447  23123248.8824   23123254.3134   23123248.213
        48.0004         43.0004
  -5861184.62748  -4528405.22547  24160879.2504   24160880.6894   24160879.130
        50.0004         46.0004
 -19404517.31348 -15065610.28548  20957206.1954   20957208.4914   20957206.592
        53.0004         49.0004
  -8454487.80347  -6533145.24346  23652640.0694   23652640.7644   23652638.392
        45.0004         41.0004
  -4261067.25047  -3208952.94346  23705282.9684   23705286.5214   23705283.940
        45.0004         40.0004
 20  9  1  2 19  0.0000000  0  8G09G07G30G08G05G28G13G11
 -12152032.08248  -9432097.52447  22893533.7204   22893538.2524   22893532.688
        50.0004         45.0004
 -18612085.18149 -14458057.23348  21315457.4024   21315458.7274   21315457.078
        54.0004         49.0004
 -21163289.79049 -16449404.84248  20823312.8834   20823317.0334   20823312.662
        56.0004         51.0004
  -9220529.46348  -7172521.66547  23135110.5294   23135115.6364   23135110.424
        48.0004         43.0004
  -5823661.35048  -4499166.35647  24168018.2914   24168019.1874   24168018.947
        50.0004         46.0004
 -19463835.76048 -15111832.43548  20945918.8164   20945919.9074   20945918.524
        53.0004         49.0004
  -8549960.40447  -6607539.46946  23634470.7914   23634471.6494   23634470.593
        45.0004         41.0004
  -4272664.46847  -3217989.70446  23703077.1584   23703077.6564   23703077.522
        45.0004         40.0004
 20  9  1  2 19 30.0000000  0  9G09G07G30G08G05G28G17G13G11
 -12053261.59448  -9355133.54347  22912328.2064   22912332.8374   22912328.378
        50.0004         45.0004
 -18571467.72749 -14426407.28448  21323186.8094   21323188.1584   21323185.968
        54.0004         50.0004
 -21178238.44649 -16461053.14048  20820468.2334   20820472.0794   20820468.199
        56.0004         51.0004
  -9157738.40248  -7123593.57247  23147058.9494   23147063.5984   23147058.662
        48.0004         43.0004
  -5785751.04648  -4469625.88547  24175231.8834   24175235.2374   24175231.629
        50.0004         46.0004
 -19522764.39448 -15157750.82748  20934704.6114   20934706.1784   20934704.962
        53.0004         49.0004
   -264813.98848   -158553.06947  24644196.4224   24644200.0224   24644195.807
        52.0004         45.0004
  -8645235.37347  -6681779.67846  23616339.3154   23616341.5904   23616339.755
        46.0004         41.0004
  -4283816.08147  -3226679.17546  23700955.6974   23700958.5234   23700954.776
        45.0004         40.0004
 20  9  1  2 20  0.0000000  0  9G09G07G30G08G05G28G17G13G11
 -11954236.47548  -9277971.14747  22931172.4394   22931177.2944   22931172.019
        49.0004         45.0004
 -18530603.51749 -14394565.04948  21330962.7754   21330964.0994   21330962.310
        54.0004         49.0004
 -21192946.07249 -16472513.62448  20817669.3824   20817673.4774   20817669.453
        56.0004         51.0004
  -9094490.75548  -7074309.70247  23159094.9834   23159099.4124   23159094.958
        48.0004         43.0004
  -5747455.89648  -4439785.54547  24182518.3884   24182522.1684   24182518.395
        50.0004         46.0004
 -19581302.59848 -15203364.98648  20923565.3524   20923566.6294   20923565.291
        53.0004         49.0004
   -383736.52648   -251219.98147  24621564.2334   24621568.9874   24621564.410
        50.0004         45.0004
  -8740310.80347  -6755864.40746  23598247.8144   23598249.4194   23598247.240
        46.0004         41.0004
  -4294520.67747  -3235020.36646  23698916.9174   23698921.3594   23698916.466
        44.0004         40.0004
 20  9  1  2 20 30.0000000  0  9G09G07G30G08G05G28G17G13G11
 -11854959.13348  -9200612.20347  22950063.7674   22950069.9464   22950063.321
        49.0004         44.0004
 -18489492.83549 -14362530.75948  21338786.0134   21338787.0284   21338785.389
        54.0004         49.0004
 -21207411.97749 -16483785.75148  20814916.6814   20814920.8384   20814916.707
        56.0004         51.0004
  -9030788.38248  -7024671.49147  23171217.3734   23171222.4144   23171216.238
        48.0004         43.0004
  -5708778.33948  -4409647.23047  24189880.0144   24189883.2774   24189879.005
        50.0004         46.0004
 -19639450.13248 -15248674.72748  20912499.9194   20912501.6914   20912500.114
        53.0004         49.0004
   -502675.94248   -343899.99147  24598934.5244   24598936.7764   24598932.702
        50.0004         45.0004
  -8835184.18947  -6829791.70346  23580193.6164   23580195.8324   23580192.981
        46.0004         41.0004
  -4304777.14447  -3243012.36646  23696967.1334   23696968.5404   23696966.542
        44.0004         40.0004
 20  9  1  2 21  0.0000000  0  9G09G07G30G08G05G28G17G13G11
 -11755431.73348  -9123058.42447  22969003.6244   22969007.8084   22969003.858
        49.0004         44.0004
 -18448135.34049 -14330304.14648  21346656.0834   21346657.3464   21346655.387
        54.0004         49.0004
 -21221635.26149 -16494868.82148  20812210.0804   20812213.9984   20812209.966
        56.0004         51.0004
  -8966633.73147  -6974680.85947  23183425.7004   23183430.2914   23183424.931
        47.0004         43.0004
  -5669720.67948  -4379212.72047  24197313.7874   24197317.8444   24197312.653
        50.0004         46.0004
 -19697206.22648 -15293679.44948  20901509.2264   20901511.2434   20901509.596
        53.0004         49.0004
   -621629.64048   -436591.12547  24576294.9644   24576298.0604   24576295.451
        50.0004         45.0004
  -8929852.57447  -6903559.25146  23562178.5394   23562180.2544   23562178.456
        46.0004         41.0004
  -4314584.24847  -3250654.21746  23695099.4184   23695101.0594   23695099.342
        44.0004         40.0004
 20  9  1  2 21 30.0000000  0  9G09G07G30G08G05G28G17G13G11
 -11655656.63148  -9045311.62047  22987990.1894   22987995.3584   22987989.819
        49.0004         44.0004
 -18406530.92649 -14297885.13448  21354572.9704   21354574.4514   21354572.547
        54.0004         49.0004
 -21235615.26949 -16505762.32748  20809549.5934   20809553.7204   20809549.701
        56.0004         51.0004
  -8902028.89147  -6924339.42747  23195719.6144   23195723.8544   23195718.169
        47.0004         43.0004
  -5630285.36648  -4348483.93147  24204817.0474   24204819.6014   24204817.434
        50.0004         46.0004
 -19754570.63648 -15338378.96548  20890593.1454   20890594.7474   20890593.423
        53.0004         49.0004
   -740594.67448   -529291.12747  24553659.5854   24553661.4664   24553658.372
        50.0004         46.0004
  -9024313.51847  -6977165.15846  23544202.8454   23544205.2874   23544203.877
        46.0004         41.0004
  -4323940.80247  -3257945.02146  23693318.8254   23693321.0844   23693318.879
        44.0004         40.0004
 20  9  1  2 22  0.0000000  0  9G09G07G30G08G05G28G17G13G11
 -11555636.14048  -8967373.60947  23007023.6934   23007028.6144   23007022.816
        49.0004         44.0004
 -18364679.64549 -14265273.75648  21362537.0764   21362538.2014   21362536.585
        54.0004         49.0004
 -21249351.20649 -16516465.65148  20806935.9004   20806939.8934   20806935.780
        56.0004         51.0004
  -8836976.14247  -6873648.98547  23208098.3834   23208103.2214   23208097.606
        47.0004         43.0004
  -5590474.84148  -4317462.80047  24212392.9934   24212394.7774   24212392.585
        50.0004         46.0004
 -19811542.86048 -15382772.88548  20879751.7824   20879753.5904   20879751.595
        53.0004         49.0004
   -859568.45848   -621997.93947  24531017.1924   24531021.6494   24531017.285
        50.0004         46.0004
  -9118564.71847  -7050607.63546  23526268.1404   23526270.0694   23526267.294
        46.0004         41.0004
  -4332845.68747  -3264883.83546  23691625.6824   23691626.2314   23691625.834
        45.0004         40.0004
 20  9  1  2 22 30.0000000  0  9G09G07G30G08G05G28G17G13G11
 -11455372.58048  -8889246.20147  23026103.0344   23026108.6334   23026102.698
        49.0004         44.0004
 -18322581.41949 -14232469.95748  21370547.7914   21370549.5674   21370547.575
        54.0004         49.0004
 -21262842.36149 -16526978.23548  20804368.4624   20804372.4484   20804368.390
        56.0004         51.0004
  -8771477.01747  -6822610.72147  23220562.8874   23220566.9814   23220561.902
        47.0004         43.0004
  -5550290.84348  -4286150.64147  24220040.7614   24220040.8504   24220040.732
        51.0004         46.0004
 -19868122.46848 -15426860.87448  20868985.2664   20868986.5444   20868985.100
        53.0004         49.0004
   -978548.21948   -714709.40247  24508376.8724   24508380.1654   24508376.487
        51.0004         46.0004
  -9212602.94447  -7123884.15246  23508373.1344   23508374.9084   23508373.085
        46.0004         41.0004
  -4341298.24947  -3271470.22446  23690014.7614   23690018.8174   23690014.642
        45.0004         40.0004
 20  9  1  2 23  0.0000000  0  9G09G07G30G08G05G28G17G13G11
 -11354868.33848  -8810931.23647  23045228.1144   23045233.5004   23045228.263
        49.0004         44.0004
 -18280236.18249 -14199473.67948  21378606.0164   21378607.5144   21378605.715
        54.0004         49.0004
 -21276087.99449 -16537299.50548  20801847.8214   20801852.0274   20801847.858
        56.0004         52.0004
  -8705533.90947  -6771226.48447  23233110.5214   23233116.0424   23233110.829
        47.0004         43.0004
  -5509736.40548  -4254549.81147  24227758.7384   24227760.7864   24227758.508
        51.0004         46.0004
 -19924308.99248 -15470642.56948  20858292.9514   20858294.9684   20858293.155
        53.0004         49.0004
  -1097531.36548   -807423.51747  24485736.2794   24485738.6204   24485735.518
        51.0004         46.0004
  -9306426.22247  -7196993.18146  23490518.8584   23490521.6154   23490519.249
        46.0004         41.0004
  -4349296.93747  -3277702.94446  23688494.1394   23688494.8884   23688494.184
        45.0004         40.0004
 20  9  1  2 23 30.0000000  0  9G09G07G30G08G05G28G17G13G11
 -11254125.77048  -8732430.57347  23064399.4414   23064404.3134   23064399.144
        49.0004         44.0004
 -18237643.78449 -14166284.81348  21386711.1164   21386712.8184   21386710.506
        54.0004         49.0004
 -21289087.34449 -16547428.86448  20799374.3474   20799378.3484   20799374.135
        56.0004         52.0004
  -8639149.33347  -6719498.26147  23245743.4564   23245748.9764   23245743.807
        47.0004         43.0004
  -5468813.62348  -4222661.97547  24235546.4004   24235547.8724   24235546.096
        51.0004         46.0004
 -19980101.89848 -15514117.54648  20847676.1584   20847677.6274   20847676.071
        53.0004         49.0004
  -1216515.28148   -900138.21447  24463093.9924   24463097.4364   24463092.454
        51.0004         46.0004
  -9400031.33147  -7269932.20246  23472708.2344   23472709.5864   23472705.284
        46.0004         41.0004
  -4356840.72547  -3283581.19946  23687058.5054   23687061.7514   23687057.771
        45.0004         41.0004
 20  9  1  2 24  0.0000000  0  9G09G07G30G08G05G28G17G13G11
 -11153147.19348  -8653745.99847  23083614.3944   23083620.3674   23083614.289
        49.0004         44.0004
 -18194804.39749 -14132903.47848  21394863.3144   21394864.5734   21394862.757
        54.0004         49.0004
 -21301839.61249 -16557365.69248  20796947.7244   20796951.5444   20796947.443
        56.0004         51.0004
  -8572324.79147  -6667427.20347  23258460.4284   23258465.1604   23258459.179
        47.0004         43.0004
  -5427525.07548  -4190489.11947  24243403.3484   24243405.8774   24243403.342
        51.0004         46.0004
 -20035500.92148 -15557285.59848  20837134.0034   20837135.3614   20837134.197
        53.0004         49.0004
  -1335496.61548   -992850.89347  24440452.5114   24440455.9814   24440451.531
        51.0004         46.0004
  -9493416.68647  -7342699.99846  23454935.7924   23454937.2274   23454935.895
        46.0004         41.0004
  -4363928.90347  -3289104.43946  23685709.7114   23685711.5254   23685709.038
        45.0004         40.0004
 20  9  1  2 24 30.0000000  0  9G09G07G30G08G05G28G17G13G11
 -11051934.90548  -8574879.32347  23102874.5824   23102879.8624   23102875.237
        48.0004         44.0004
 -18151717.47849 -14099329.27248  21403062.4824   21403063.7504   21403062.013
        54.0004         49.0004
 -21314344.10249 -16567109.44848  20794568.1074   20794572.0744   20794567.881
        56.0004         51.0004
  -8505062.65047  -6615015.15447  23271259.1054   23271264.0754   23271260.214
        47.0004         43.0004
  -5385873.29348  -4158033.23447  24251328.3344   24251329.8644   24251328.378
        51.0004         46.0004
 -20090505.61048 -15600146.38248  20826666.8904   20826668.3924   20826666.986
        53.0004         49.0004
  -1454473.21248  -1085559.87447  24417809.9454   24417814.1944   24417810.120
        51.0004         46.0004
  -9586579.74547  -7415294.55446  23437208.3254   23437210.1614   23437208.800
        46.0004         41.0004
  -4370560.11547  -3294271.61446  23684448.4154   23684449.6944   23684448.382
        45.0004         41.0004
 20  9  1  2 25  0.0000000  0  9G09G07G30G08G05G28G17G13G11
 -10950491.32148  -8495832.40247  23122179.0684   23122183.6514   23122178.671
        48.0004         44.0004
 -18108383.62049 -14065562.64448  21411308.3534   21411310.0374   21411308.126
        54.0004         49.0004
 -21326600.00049 -16576659.49548  20792235.6814   20792239.8884   20792235.705
        56.0004         51.0004
  -8437365.42147  -6562264.07647  23284141.7094   23284146.5184   23284141.348
        47.0004         43.0004
  -5343860.35448  -4125295.93547  24259323.6794   24259323.2314   24259323.652
        51.0004         46.0004
 -20145115.61848 -15642699.61948  20816274.9384   20816276.5404   20816275.158
        53.0004         49.0004
  -1573442.10048  -1178262.86047  24395170.7454   24395175.3264   24395171.256
        51.0004         46.0004
  -9679517.16347  -7487713.29646  23419521.9084   23419524.0224   23419521.075
        46.0004         41.0004
  -4376733.38947  -3299081.95046  23683273.3214   23683273.8404   23683273.297
        45.0004         40.0004
 20  9  1  2 25 30.0000000  0  9G09G07G30G08G05G28G17G13G11
 -10848818.69948  -8416607.01547  23141526.9174   23141532.2484   23141526.446
        48.0004         44.0004
 -18064802.49749 -14031603.34148  21419601.6954   21419603.1294   21419601.525
        54.0004         49.0004
 -21338606.50649 -16586015.21348  20789950.9134   20789954.9204   20789951.066
        56.0004         51.0004
  -8369235.32747  -6509175.69747  23297106.6254   23297111.3824   23297106.530
        47.0004         43.0004
  -5301488.57848  -4092279.01547  24267386.6524   24267387.7454   24267386.497
        51.0004         46.0004
 -20199330.49748 -15684944.96048  20805958.3934   20805959.8614   20805958.426
        53.0004         49.0004
  -1692400.37348  -1270957.55847  24372534.5634   24372538.3244   24372534.386
        50.0004         46.0004
  -9772226.47447  -7559954.30946  23401880.1104   23401882.4944   23401880.102
        46.0004         41.0004
  -4382447.92747  -3303534.83646  23682185.1974   23682187.8844   23682186.387
        45.0004         40.0004
 20  9  1  2 26  0.0000000  0  9G09G07G30G08G05G28G17G13G11
 -10746919.50448  -8337205.08147  23160917.7344   23160922.3864   23160917.378
        48.0004         44.0004
 -18020973.88649 -13997451.18848  21427942.2784   21427943.5064   21427941.700
        54.0004         49.0004
 -21350362.91649 -16595176.04848  20787713.9534   20787717.9844   20787713.802
        56.0004         51.0004
  -8300674.67547  -6455751.82547  23310152.8004   23310157.8904   23310152.755
        47.0004         43.0004
  -5258760.82848  -4058984.68847  24275515.9584   24275520.0564   24275515.275
        51.0004         46.0004
 -20253149.85848 -15726882.10148  20795716.8544   20795718.1414   20795716.826
        53.0004         49.0004
  -1811345.41848  -1363641.92747  24349898.8324   24349903.0054   24349899.334
        50.0004         46.0004
  -9864705.29947  -7632015.69846  23384282.7824   23384284.5554   23384282.166
        46.0004         41.0004
  -4387702.61947  -3307629.39046  23681185.7054   23681186.0874   23681185.212
        45.0004         40.0004
 20  9  1  2 26 30.0000000  0  9G09G07G30G08G05G28G17G13G11
 -10644796.09948  -8257628.44447  23180351.4304   23180355.8714   23180350.308
        48.0004         43.0004
 -17976897.66749 -13963106.09248  21436329.6184   21436330.8374   21436329.102
        54.0004         49.0004
 -21361868.46449 -16604141.40748  20785524.5554   20785528.5134   20785524.262
        56.0004         51.0004
  -8231685.39547  -6401993.96047  23323280.9694   23323286.3964   23323280.952
        47.0004         43.0004
  -5215679.11148  -4025414.56447  24283713.4154   24283717.1334   24283713.558
        50.0004         46.0004
 -20306573.47948 -15768510.87848  20785550.2004   20785552.0594   20785550.799
        53.0004         49.0004
  -1930274.26248  -1456313.62347  24327269.2184   24327273.6304   24327268.654
        50.0004         46.0004
  -9956950.79047  -7703895.27846  23366728.0054   23366730.3684   23366727.196
        46.0004         41.0004
  -4392496.51547  -3311364.88546  23680272.8094   23680275.4624   23680273.230
        45.0004         40.0004
 20  9  1  2 27  0.0000000  0  9G09G07G30G08G05G28G17G13G11
 -10542450.86248  -8177878.92547  23199826.8994   23199831.9904   23199825.975
        48.0004         44.0004
 -17932574.19349 -13928568.32548  21444764.4394   21444765.8394   21444763.289
        54.0004         49.0004
 -21373122.38449 -16612910.69648  20783382.9074   20783387.0744   20783382.752
        56.0004         52.0004
  -8162269.91647  -6347903.99147  23336491.1124   23336495.4534   23336490.565
        47.0004         43.0004
  -5172246.47848  -3991570.99447  24291978.2584   24291984.5854   24291977.872
        50.0004         46.0004
 -20359600.93648 -15809830.95648  20775459.5734   20775461.3334   20775459.886
        53.0004         49.0004
  -2049184.81948  -1548971.08547  24304642.1364   24304643.7074   24304640.480
        51.0004         46.0004
 -10048960.64447  -7775591.25546  23349218.5834   23349220.9644   23349218.614
        46.0004         41.0004
  -4396828.79347  -3314740.67946  23679449.9154   23679450.9354   23679449.126
        45.0004         40.0004
