     2.11           OBSERVATION DATA    M (MIXED)           RINEX VERSION / TYPE
teqc  2017Aug18     UNAVCO Archive Ops  20170902 11:49:27UTCPGM / RUN BY / DATE
Solaris x86 5.10|AMD64|cc SC5.8 -xarch=amd64|=+|=+          COMMENT
BIT 2 OF LLI FLAGS DATA COLLECTED UNDER A/S CONDITION       COMMENT
TABL                                                        MARKER NAME
49901M001                                                   MARKER NUMBER
Ken Hudnut          U.S. Geological Survey                  OBSERVER / AGENCY
5303K57287          TRIMBLE NETR9       5.10                REC # / TYPE / VERS
5000115197          TRM57971.00     NONE                    ANT # / TYPE
 -2448550.1126 -4668099.0769  3582741.0240                  APPROX POSITION XYZ
        0.1256        0.0000        0.0000                  ANTENNA: DELTA H/E/N
     1     1                                                WAVELENGTH FACT L1/2
     7    L1    L2    C1    P2    P1    S1    S2            # / TYPES OF OBSERV
    30.0000                                                 INTERVAL
    18                                                      LEAP SECONDS
input file: tabl201709010000a.tgd                           COMMENT
Forced Modulo Decimation to 30 seconds                      COMMENT
RINEX file created by UNAVCO GPS Archive.                   COMMENT
For more information contact archive-gps@unavco.org         COMMENT
Monument ID: 19535                                          COMMENT
UNAVCO 4-char name:   TABL                                  COMMENT
4-char name from Log or data file: TABL                     COMMENT
Monument location: 34.38184887 -117.67828227 2228.0286      COMMENT
Visit ID: 114852                                            COMMENT
doi:10.7283/T5SN0763                                        COMMENT
End of DB comments                                          COMMENT
 SNR is mapped to RINEX snr flag value [0-9]                COMMENT
  L1 & L2: min(max(int(snr_dBHz/6), 0), 9)                  COMMENT
  2017     9     1     0     0    0.0000000     GPS         TIME OF FIRST OBS
                                                            END OF HEADER
 17  9  1  0  0  0.0000000  0 13G14G18G21G24G16G20G27G10G15G32S38S35
                                S33
 126923140.885 6  98901144.50543  24152652.102    24152659.668
        38.800          20.900
 109805346.751 8  85562666.41746  20895245.398    20895246.750
        48.200          38.400
 111492837.814 8  86877588.92746  21216370.961    21216372.633
        49.900          39.000
 125516786.099 6  97805277.65743  23885031.477    23885038.535
        40.800          22.600
 130568349.837 6 101741499.58543  24846313.000    24846316.570
        38.800          19.600
 128343954.072 6 100008342.55543  24423038.367    24423042.270
        37.900          20.400
 114236452.762 8  89015338.82946  21738445.359    21738449.578
        48.400          37.100
 109895330.128 8  85632798.00347  20912365.945    20912370.680
        51.900          42.100
 122054284.767 7  95107300.19644  23226138.305    23226141.539
        46.600          28.300
 119876717.473 7  93410505.00645  22811766.563    22811770.629
        46.300          31.700
 195312804.099 7                  37166817.750
        46.300
 195902350.005 7                  37278977.250
        46.600
 197527707.966 7                  37603760.688
        43.200
 17  9  1  0  0 30.0000000  0 13G14G18G21G24G16G20G27G10G15G32S38S35
                                S33
 126816118.476 6  98817750.45943  24132285.961    24132297.555
        37.900          19.300
 109827311.541 7  85579781.84046  20899425.211    20899426.496
        47.800          38.700
 111505944.810 8  86887802.18646  21218865.539    21218866.898
        49.600          39.200
 125469653.742 6  97768551.22443  23876062.258    23876069.367
        41.600          22.600
 130636586.844 6 101794671.24143  24859298.594    24859302.008
        39.800          20.900
 128428843.425 6 100074490.03543  24439191.930    24439196.289
        38.900          20.400
 114194874.424 7  88982940.13346  21730533.031    21730538.289
        47.100          37.900
 109872629.346 8  85615109.10346  20908046.086    20908051.023
        51.100          41.900
 122148620.824 7  95180808.78544  23244089.914    23244092.859
        46.500          29.300
 119777199.644 7  93332958.73345  22792828.578    22792834.133
        47.500          33.200
 195312870.461 7                  37166830.469
        47.900
 195902386.072 7                  37278984.594
        47.300
 197529149.268 7                  37604034.250
        44.100
 17  9  1  0  1  0.0000000  0 13G14G18G21G24G16G20G27G10G15G32S38S35
                                S33
 126709193.560 6  98734432.40443  24111938.961    24111951.902
        41.700          19.900
 109849431.975 8  85597018.54746  20903634.367    20903636.094
        48.000          37.800
 111519348.248 8  86898246.41546  21221416.438    21221417.867
        50.100          39.300
 125422876.466 7  97732101.50743  23867161.406    23867166.891
        42.200          23.500
 130704986.330 6 101847969.50943  24872314.195    24872318.414
        40.500          21.700
 128513711.800 6 100140621.18843  24455342.836    24455345.449
        38.600          18.600
 114153840.563 8  88950965.72246  21722724.094    21722729.645
        48.200          37.400
 109850189.478 8  85597623.50946  20903775.961    20903780.469
        50.700          41.800
 122243242.784 7  95254540.15544  23262095.766    23262098.797
        46.100          29.500
 119677931.415 7  93255606.94545  22773938.547    22773945.223
        45.400          32.400
 195312937.063 7                  37166842.984
        47.600
 195902422.234 7                  37278991.688
        47.200
 197530586.615 7                  37604309.656
        45.100
 17  9  1  0  1 30.0000000  0 13G14G18G21G24G16G20G27G10G15G32S38S35
                                S33
 126602367.882 7  98651191.71343  24091612.313    24091620.195
        43.800          20.100
 109871706.489 8  85614375.31146  20907872.844    20907874.957
        48.300          38.100
 111533048.656 8  86908922.04346  21224023.063    21224025.113
        50.000          39.700
 125376456.553 6  97695930.25843  23858326.883    23858333.773
        40.900          22.600
 130773544.953 6 101901391.80643  24885361.133    24885365.441
        39.400          20.100
 128598558.275 6 100206735.29443  24471488.539    24471491.645
        36.600          19.300
 114113352.285 8  88919416.43546  21715019.742    21715024.316
        48.100          38.400
 109828009.593 8  85580340.50346  20899555.125    20899559.707
        51.300          41.700
 122338147.664 7  95328491.98544  23280155.516    23280158.852
        46.500          29.200
 119578914.907 7  93178451.23845  22755096.109    22755102.555
        45.900          32.600
 195313004.284 8                  37166856.594
        48.000
 195902458.712 8                  37278998.453
        49.200
 197532018.197 7                  37604581.563
        44.600
 17  9  1  0  2  0.0000000  0 13G14G18G21G24G16G20G27G10G15G32S38S35
                                S33
 126495643.671 7  98568030.18543  24071303.844    24071302.938
        44.000          19.600
 109894133.138 8  85631850.62646  20912140.695    20912142.512
        48.800          38.100
 111547046.463 8  86919829.42646  21226686.617    21226688.746
        50.000          39.400
 125330396.542 6  97660039.42443  23849561.734    23849569.234
        41.100          22.600
 130842259.078 6 101954935.20543  24898436.305    24898440.586
        39.200          19.300
 128683382.280 6 100272831.85643  24487629.625    24487633.406
        36.100          19.000
 114073410.679 8  88888293.09746  21707419.039    21707424.055
        48.400          37.600
 109806088.534 8  85563259.17346  20895383.820    20895388.285
        51.900          41.600
 122433332.155 7  95402661.70044  23298268.383    23298271.461
        45.500          27.400
 119480151.890 8  93101493.10845  22736302.344    22736307.355
        48.700          33.200
 195313071.568 8                  37166868.813
        48.200
 195902495.315 8                  37279006.875
        48.700
 197533446.027 7                  37604851.859
        44.700
 17  9  1  0  2 30.0000000  0 13G14G18G21G24G16G20G27G10G15G32S38S35
                                S33
 126389023.546 7  98484949.68543  24051014.539    24051012.641
        43.600          19.000
 109916711.773 8  85649444.36746  20916437.242    20916439.043
        48.800          38.600
 111561343.039 8  86930969.61746  21229407.352    21229409.434
        50.000          39.200
 125284699.359 6  97624431.30143  23840866.477    23840872.945
        41.600          23.400
 130911125.896 6 102008597.62443  24911541.766    24911546.020
        38.900          20.900
 128768183.283 5 100338910.51042  24503766.484    24503770.828
        35.500          17.800
 114034017.438 7  88857597.07746  21699923.195    21699927.504
        47.800          37.500
 109784425.991 8  85546379.27747  20891261.602    20891266.582
        51.600          42.200
 122528793.960 7  95477047.49044  23316434.406    23316437.063
        45.200          28.700
 119381645.067 7  93024734.63345  22717557.133    22717562.277
        47.800          32.700
 195313137.316 8                  37166881.172
        48.800
 195902531.382 8                  37279012.328
        48.200
 197534868.722 7                  37605124.906
        42.600
 17  9  1  0  3  0.0000000  0 13G14G18G21G24G16G20G27G10G15G32S38S35
                                S33
 126282510.701 6  98401952.81543  24030743.938    24030744.773
        39.200          19.900
 109939442.239 8  85667156.42646  20920762.859    20920764.301
        48.500          37.700
 111575939.965 8  86942343.83346  21232185.047    21232186.750
        50.600          40.000
 125239367.685 7  97589108.00544  23832240.570    23832247.266
        42.100          24.800
 130980142.888 6 102062377.09343  24924675.430    24924679.633
        40.100          20.400
 128852961.118 6 100404971.12842  24519899.211    24519903.129
        36.000          16.300
 113995174.355 8  88827329.75246  21692531.352    21692535.594
        48.700          37.100
 109763021.652 8  85529700.59646  20887188.258    20887192.957
        51.200          41.700
 122624530.365 7  95551647.25344  23334652.289    23334655.992
        44.200          28.000
 119283397.242 7  92948177.91745  22698861.336    22698867.703
        45.200          32.700
 195313203.300 8                  37166893.906
        48.500
 195902567.250 8                  37279019.234
        48.800
 197536286.509 7                  37605392.719
        44.200
 17  9  1  0  3 30.0000000  0 13G14G18G21G24G16G20G27G10G15G32S38S35
                                S33
 126176107.098 5  98319041.00543  24010496.828    24010499.789
        33.700          20.100
 109962323.945 7  85684986.33346  20925117.141    20925119.148
        47.900          38.400
 111590838.692 8  86953953.22746  21235020.539    21235022.309
        50.900          40.100
 125194404.702 7  97554071.96243  23823684.047    23823690.492
        42.000          22.800
 131049307.004 6 102116271.13043  24937836.305    24937840.363
        38.500          18.600
 128937715.860 5 100471013.73642  24536028.281    24536031.652
        35.400          15.600
 113956883.170 8  88797492.47646  21685244.531    21685249.176
        48.600          37.600
 109741875.161 8  85513222.81947  20883164.375    20883168.785
        52.400          42.500
 122720538.845 7  95626459.00644  23352922.180    23352925.516
        45.100          29.100
 119185410.969 7  92871824.99645  22680214.852    22680222.094
        47.800          33.900
 195313270.106 8                  37166906.172
        48.400
 195902603.146 8                  37279026.672
        49.100
 197537700.293 7                  37605662.250
        43.900
 17  9  1  0  4  0.0000000  0 13G14G18G21G24G16G20G27G10G15G32S38S35
                                S33
 126069814.782 5  98236215.81043  23990269.953    23990275.344
        34.800          20.600
 109985354.829 8  85702932.48046  20929499.734    20929501.539
        49.200          38.100
 111606039.183 8  86965797.74946  21237913.109    21237914.633
        50.300          39.600
 125149811.659 7  97519324.22543  23815197.344    23815204.352
        42.000          22.800
 131118615.115 6 102170277.43043  24951026.008    24951028.957
        40.000          18.600
 129022446.361 6 100537037.43442  24552151.773    24552155.141
        36.100          16.300
 113919144.552 8  88768085.76546  21678063.289    21678068.145
        48.800          37.300
 109720985.188 8  85496944.93746  20879189.094    20879193.582
        52.200          41.900
 122816816.229 7  95701480.31344  23371243.234    23371246.785
        45.200          29.000
 119087687.891 8  92795677.21545  22661619.000    22661624.449
        48.900          33.800
 195313335.527 7                  37166918.969
        47.900
 195902639.828 8                  37279033.000
        48.600
 197539108.547 7                  37605931.953
        43.600
 17  9  1  0  4 30.0000000  0 13G14G18G21G24G16G20G27G10G15G32S38S35
                                S33
 125963636.084 6  98153479.24143  23970063.711    23970071.051
        39.500          21.300
 110008534.678 8  85720994.70446  20933910.648    20933912.258
        49.300          38.600
 111621542.720 8  86977878.41846  21240863.227    21240865.152
        50.000          39.400
 125105591.911 7  97484867.32344  23806783.344    23806790.051
        42.800          25.900
 131188063.883 6 102224393.27043  24964241.797    24964245.016
        40.400          18.600
 129107152.736 6 100603042.37242  24568270.203    24568274.430
        36.000          16.300
 113881960.144 8  88739110.91146  21670987.531    21670992.055
        49.300          37.500
 109700351.360 8  85480866.64947  20875262.500    20875267.344
        51.500          42.200
 122913359.926 7  95776709.12344  23389615.273    23389618.000
        45.300          29.300
 118990230.704 7  92719736.60345  22643073.188    22643078.289
        47.200          34.300
 195313401.649 7                  37166931.375
        47.100
 195902675.587 7                  37279040.125
        47.000
 197540513.099 7                  37606199.984
        42.200
 17  9  1  0  5  0.0000000  0 13G14G18G21G24G16G20G27G10G15G32S38S35
                                S33
 125857574.001 6  98070833.61243  23949881.773    23949884.832
        41.800          20.900
 110031862.646 8  85739172.34646  20938349.992    20938351.012
        49.300          38.400
 111637350.740 8  86990196.34146  21243871.195    21243872.930
        50.200          39.400
 125061747.834 6  97450703.19344  23798439.664    23798447.145
        41.300          24.500
 131257650.490 6 102278616.60743  24977483.250    24977487.563
        38.900          19.900
 129191834.534 6 100669028.20842  24584385.867    24584388.574
        38.000          15.600
 113845331.573 8  88710569.18746  21664017.148    21664021.676
        48.600          37.700
 109679973.303 8  85464987.66347  20871384.688    20871389.500
        51.600          42.300
 123010167.307 7  95852143.41745  23408036.984    23408039.973
        45.100          30.000
 118893041.993 7  92644005.16945  22624578.828    22624584.602
        47.500          34.300
 195313467.090 8                  37166944.406
        48.500
 195902711.683 8                  37279047.891
        48.300
 197541912.050 7                  37606463.313
        43.000
 17  9  1  0  5 30.0000000  0 13G14G18G21G24G16G20G27G10G15G32S38S35
                                S33
 125751630.267 6  97988280.20043  23929720.453    23929722.492
        40.500          19.300
 110055337.752 8  85757464.63346  20942817.258    20942818.473
        49.300          38.700
 111653463.717 8  87002751.89846  21246937.453    21246938.813
        50.000          40.000
 125018282.346 7  97416834.02644  23790168.891    23790175.586
        42.100          24.100
 131327371.604 6 102332944.67943  24990750.016    24990754.035
        38.100          18.300
 129276491.025 6 100734994.26442  24600495.477    24600498.586
        38.400          15.600
 113809259.767 8  88682461.28846  21657153.102    21657157.496
        48.400          38.600
 109659849.910 8  85449307.11947  20867555.453    20867559.805
        51.800          42.400
 123107235.256 7  95927780.75044  23426508.523    23426511.699
        45.600          29.900
 118796123.639 7  92568484.44545  22606135.742    22606141.723
        47.800          35.000
 195313532.573 7                  37166956.313
        46.200
 195902747.360 7                  37279054.359
        46.700
 197543306.449 7                  37606728.531
        42.000
 17  9  1  0  6  0.0000000  0 14G08G14G18G21G24G16G20G27G10G15G32S38
                                S35S33
 127452712.84215                  24253459.234
        31.900
 125645807.512 6  97905821.05443  23909582.742    23909585.262
        36.900          20.400
 110078959.401 8  85775871.11546  20947312.047    20947314.145
        49.300          38.900
 111669882.520 8  87015545.75846  21250061.984    21250063.559
        50.800          39.000
 124975197.202 7  97383261.22243  23781969.570    23781975.949
        42.100          22.500
 131397224.300 6 102387375.31343  25004043.602    25004046.484
        38.900          18.600
 129361122.231 6 100800940.59742  24616600.133    24616603.598
        38.200          16.300
 113773746.218 7  88654788.39346  21650394.711    21650399.484
        47.100          37.700
 109639980.773 8  85433824.68646  20863774.508    20863778.871
        52.000          41.200
 123204561.410 7  96003619.29644  23445028.953    23445032.336
        45.400          28.500
 118699478.151 7  92493176.34345  22587745.023    22587750.602
        47.600          33.500
 195313599.171 7                  37166969.750
        47.400
 195902783.764 8                  37279060.375
        48.500
 197544695.993 7                  37606994.281
        42.200
 17  9  1  0  6 30.0000000  0 13G14G18G21G24G16G20G27G10G15G32S38S35
                                S33
 125540108.457 6  97823458.19643  23889468.875    23889473.648
        38.400          21.500
 110102727.009 8  85794391.33546  20951834.914    20951836.680
        48.700          38.800
 111686608.606 8  87028579.05846  21253244.844    21253246.445
        50.300          39.900
 124932495.493 7  97349987.22143  23773844.383    23773850.125
        42.000          22.500
 131467205.660 6 102441906.17943  25017360.109    25017363.113
        36.200          18.600
 129445727.787 6 100866867.02242  24632700.047    24632704.090
        38.700          15.600
 113738792.338 8  88627551.62746  21643743.656    21643748.320
        48.000          38.200
 109620365.362 8  85418539.96646  20860041.781    20860046.332
        52.100          41.700
 123302142.670 7  96079656.61744  23463598.156    23463601.035
        44.900          28.900
 118603108.124 7  92418082.83045  22569406.563    22569411.590
        46.700          34.100
 195313664.333 8                  37166981.563
        48.000
 195902820.073 7                  37279067.000
        47.600
 197546080.637 7                  37607256.859
        42.100
 17  9  1  0  7  0.0000000  0 13G14G18G21G24G16G20G27G10G15G32S38S35
                                S33
 125434535.105 6  97741193.33943  23869379.016    23869384.148
        40.600          21.500
 110126639.933 8  85813024.77946  20956385.047    20956387.160
        48.000          37.900
 111703643.119 8  87041852.70146  21256486.344    21256487.805
        49.800          38.700
 124890180.048 6  97317014.19743  23765791.289    23765798.414
        41.400          22.800
 131537312.873 6 102496535.14643  25030702.297    25030705.148
        38.600          19.000
 129530307.147 6 100932773.01042  24648795.359    24648798.289
        37.800          13.900
 113704399.426 7  88600751.96646  21637198.805    21637203.039
        47.300          38.100
 109601003.024 8  85403452.43946  20856357.367    20856361.254
        52.100          41.600
 123399976.603 7  96155890.83244  23482215.016    23482218.172
        45.600          27.100
 118507015.764 8  92343205.69845  22551120.250    22551125.895
        48.300          34.800
 195313729.240 7                  37166993.859
        47.200
 195902856.111 7                  37279073.844
        47.900
 197547460.902 7                  37607520.000
        42.600
 17  9  1  0  7 30.0000000  0 13G14G18G21G24G16G20G27G10G15G32S38S35
                                S33
 125329089.446 7  97659028.04943  23849314.813    23849317.289
        42.200          21.500
 110150696.113 7  85831769.85246  20960963.148    20960964.277
        47.700          39.100
 111720986.204 8  87055366.78046  21259786.320    21259788.375
        48.800          39.400
 124848252.551 6  97284343.49843  23757812.789    23757819.844
        40.700          23.300
 131607542.058 6 102551259.15642  25044064.641    25044069.848
        37.200          17.400
 129614859.689 6 100998658.07752  24664884.820    24664888.004
        36.500          15.600
 113670568.380 7  88574390.11146  21630761.063    21630765.516
        46.500          38.300
 109581892.781 8  85388561.36647  20852721.047    20852724.926
        50.300          42.400
 123498060.109 7  96232319.50744  23500879.414    23500882.324
        44.200          27.800
 118411202.967 8  92268546.46045  22532887.539    22532893.750
        48.000          34.300
 195313794.797 7                  37167005.953
        47.300
 195902891.242 8                  37279081.031
        48.200
 197548837.516 7                  37607780.203
        44.400
 17  9  1  0  8  0.0000000  0 13G14G18G21G24G16G20G27G10G15G32S38S35
                                S33
 125223774.292 6  97576964.45643  23829272.945    23829273.551
        41.500          20.900
 110174895.680 8  85850626.65946  20965568.016    20965569.734
        48.100          38.200
 111738638.889 8  87069122.10646  21263145.820    21263147.324
        49.500          39.000
 124806715.790 6  97251977.25343  23749908.750    23749915.031
        40.500          23.000
 131677890.647 5 102606076.17642  25057452.141    25057456.160
        35.500          17.800
 129699385.109 5 101064522.01042  24680969.125    24680972.797
        35.400          14.800
 113637300.473 7  88548467.08846  21624430.242    21624434.406
        47.200          37.900
 109563034.010 8  85373866.22746  20849131.867    20849136.297
        50.700          41.800
 123596390.374 7  96308940.46944  23519591.039    23519594.727
        44.100          25.800
 118315672.225 7  92194106.97345  22514708.570    22514714.797
        46.200          34.100
 195313859.395 7                  37167018.313
        47.400
 195902927.163 7                  37279088.203
        47.500
 197550206.871 7                  37608040.031
        42.500
 17  9  1  0  8 30.0000000  0 13G14G18G21G24G16G20G27G10G15G32S38S35
                                S33
 125118592.383 5  97495004.66643  23809257.156    23809258.160
        34.600          19.600
 110199238.002 8  85869594.70446  20970200.258    20970201.984
        48.900          38.700
 111756603.092 8  87083120.17446  21266564.453    21266565.648
        50.500          38.800
 124765572.481 6  97219917.60643  23742079.391    23742085.609
        40.200          22.300
 131748356.006 5 102660984.18442  25070861.125    25070865.586
        35.400          17.400
 129783883.498 5 101130364.87442  24697048.594    24697051.426
        35.500          13.900
 113604597.430 7  88522984.21046  21618206.922    21618211.469
        47.200          38.400
 109544426.653 8  85359367.00046  20845591.227    20845595.559
        51.500          41.600
 123694965.145 7  96385751.96744  23538349.383    23538352.715
        44.000          26.500
 118220426.360 7  92119889.44945  22496584.008    22496589.215
        47.400          34.500
 195313925.001 8                  37167031.531
        48.500
 195902963.911 7                  37279094.844
        47.100
 197551572.917 7                  37608302.516
        42.400
 17  9  1  0  9  0.0000000  0 13G14G18G21G24G16G20G27G10G15G32S38S35
                                S33
 125013545.401 5  97413149.85043  23789266.828    23789269.020
        35.700          19.000
 110223721.578 8  85888672.81746  20974859.133    20974860.883
        49.300          37.900
 111774879.080 8  87097361.19646  21270041.953    21270044.090
        50.600          38.600
 124724824.838 6  97188166.26843  23734325.367    23734331.207
        40.000          21.800
 131818934.331 5 102715980.26842  25084291.164    25084295.656
        34.500          17.400
 129868354.248 5 101196186.15052  24713122.289    24713125.660
        35.000          14.800
 113572459.906 7  88497941.98946  21612091.219    21612095.527
        46.500          37.600
 109526069.419 8  85345062.66746  20842097.711    20842102.457
        51.500          41.700
 123793781.360 7  96462751.59344  23557153.711    23557157.332
        43.700          26.000
 118125467.073 8  92045895.26145  22478513.898    22478518.945
        48.100          34.500
 195313989.781 8                  37167043.328
        48.400
 195902998.509 7                  37279100.844
        47.300
 197552933.374 7                  37608560.297
        44.600
 17  9  1  0  9 30.0000000  0 13G14G18G21G24G16G20G27G10G15G32S38S35
                                S33
 124908636.062 6  97331402.43843  23769303.711    23769307.223
        40.900          21.300
 110248346.432 8  85907861.02446  20979545.195    20979546.816
        48.800          38.400
 111793467.975 8  87111846.05046  21273579.188    21273581.051
        49.600          39.400
 124684475.860 6  97156725.57543  23726646.836    23726653.711
        39.900          22.300
 131889623.28815 102771062.53952  25097744.539    25097747.344
        35.500          16.900
 129952797.103 5 101261985.72142  24729191.383    24729194.777
        34.800          14.800
 113540889.431 7  88473341.62346  21606083.656    21606088.383
        46.600          39.400
 109507962.143 8  85330953.12546  20838651.938    20838656.582
        51.100          41.900
 123892836.434 7  96539937.34944  23576003.195    23576006.852
        43.400          24.700
 118030797.023 7  91972126.44445  22460498.508    22460504.000
        46.600          34.100
 195314054.395 7                  37167056.031
        47.900
 195903035.235 7                  37279107.922
        47.600
 197554289.734 7                  37608819.281
        43.200
 17  9  1  0 10  0.0000000  0 13G14G18G21G24G16G20G27G10G15G32S38S35
                                S33
 124803866.710 7  97249764.09143  23749368.703    23749370.516
        44.700          22.600
 110273111.536 8  85927158.50346  20984258.250    20984259.934
        49.100          38.300
 111812370.808 8  87126575.52546  21277176.648    21277178.391
        49.800          38.700
 124644527.475 6  97125597.05043  23719044.992    23719051.852
        38.500          22.500
 131960419.568 5 102826228.41442  25111215.867    25111218.926
        35.400          16.900
 130037211.636 5 101327763.35342  24745254.563    24745258.957
        34.800          15.600
 113509887.032 8  88449183.92746  21600184.039    21600188.891
        49.000          38.000
 109490104.009 8  85317037.70547  20835253.711    20835258.648
        51.300          42.500
 123992127.598 7  96617307.08944  23594897.445    23594900.996
        43.800          25.300
 117936418.418 7  91898584.70045  22442538.938    22442545.027
        47.400          34.300
 195314119.103 7                  37167068.266
        47.000
 195903070.464 7                  37279114.813
        47.800
 197555640.995 7                  37609074.703
        42.400
 17  9  1  0 10 30.0000000  0 13G14G18G21G24G16G20G27G10G15G32S38S35
                                S33
 124699239.434 7  97168236.49843  23729457.023    23729459.883
        42.800          21.300
 110298015.929 8  85946564.52246  20988996.914    20988998.586
        48.800          38.400
 111831588.101 8  87141550.03346  21280833.508    21280834.766
        49.900          39.400
 124604981.946 6  97094782.40443  23711519.836    23711526.004
        39.200          22.800
 132031319.815 5 102881475.27342  25124707.539    25124710.688
        35.000          17.800
 130121597.61415 101393518.48652  24761313.359    24761316.883
        33.800          13.900
 113479453.675 8  88425469.61746  21594392.789    21594397.160
        48.900          38.700
 109472494.218 8  85303315.79547  20831902.766    20831907.152
        51.800          42.400
 124091652.000 7  96694858.55343  23613836.563    23613840.414
        42.800          23.600
 117842333.338 7  91825271.69745  22424635.281    22424640.820
        47.500          35.000
 195314183.945 7                  37167080.516
        47.800
 195903105.753 8                  37279121.859
        48.000
 197556986.670 7                  37609331.891
        43.200
 17  9  1  0 11  0.0000000  0 13G14G18G21G24G16G20G27G10G15G32S38S35
                                S33
 124594757.197 6  97086821.84143  23709573.508    23709576.965
        38.400          21.100
 110323059.221 8  85966078.77846  20993762.859    20993764.559
        48.900          38.300
 111851121.572 8  87156770.90546  21284550.383    21284551.645
        50.800          39.400
 124565841.980 6  97064283.77243  23704070.531    23704078.082
        37.900          22.600
 132102321.532 6 102936801.22742  25138219.430    25138222.223
        36.600          17.800
 130205954.863 5 101459251.41242  24777366.477    24777369.578
        34.200          14.800
 113449590.886 8  88402199.92046  21588710.031    21588714.555
        48.400          38.900
 109455132.543 8  85289787.22647  20828599.031    20828603.359
        52.100          42.000
 124191407.321 7  96772589.95644  23632819.961    23632822.895
        44.100          25.100
 117748544.528 7  91752189.55545  22406787.281    22406792.512
        47.200          35.100
 195314249.351 8                  37167093.359
        48.000
 195903142.034 8                  37279128.453
        48.000
 197558329.513 7                  37609587.375
        44.400
 17  9  1  0 11 30.0000000  0 13G14G18G21G24G16G20G27G10G15G32S38S35
                                S33
 124490421.896 6  97005521.61743  23689719.898    23689722.414
        37.300          21.300
 110348240.172 8  85985700.30546  20998554.648    20998556.328
        49.100          38.500
 111870971.298 8  87172238.21646  21288327.945    21288329.488
        50.300          39.100
 124527109.924 6  97034103.05943  23696700.938    23696706.836
        38.300          21.800
 132173421.375 6 102992203.68142  25151749.297    25151752.813
        37.800          17.800
 130290282.71515                  24793413.063
        32.200
 113420299.305 8  88379375.31946  21583136.672    21583141.109
        48.400          38.700
 109438017.910 8  85276451.15547  20825342.250    20825346.730
        51.800          42.400
 124291390.354 7  96850498.79344  23651845.883    23651848.656
        44.300          24.800
 117655053.790 7  91679339.67545  22388997.133    22389002.203
        46.000          34.800
 195314314.300 8                  37167105.281
        48.600
 195903177.772 7                  37279134.547
        46.800
 197559665.347 7                  37609842.609
        44.200
 17  9  1  0 12  0.0000000  0 13G14G18G21G24G16G20G27G10G15G32S38S35
                                S33
 124386235.510 6  96924337.48243  23669892.805    23669896.781
        39.500          21.500
 110373557.909 8  86005428.41446  21003372.234    21003373.742
        49.000          37.800
 111891137.945 8  87187952.47046  21292165.523    21292167.551
        50.300          39.100
 124488787.893 6  97004241.77243  23689408.398    23689415.156
        38.400          22.300
 132244616.063 6 103047680.01642  25165296.211    25165299.520
        38.100          16.900
 130374580.71515                  24809452.656
        31.300
 113391579.760 8  88356996.46546  21577671.086    21577675.879
        48.700          39.200
 109421149.430 8  85263306.89747  20822132.023    20822136.699
        50.800          42.100
 124391598.390 7  96928582.95844  23670914.297    23670917.434
        44.700          25.800
 117561863.129 7  91606723.61045  22371263.289    22371268.254
        46.600          34.200
 195314379.274 7                  37167118.766
        46.600
 195903213.023 7                  37279142.438
        47.500
 197560997.957 7                  37610095.969
        42.800
 17  9  1  0 12 30.0000000  0 13G14G18G21G24G16G20G27G10G15G32S38S35
                                S33
 124282200.884 6  96843271.62443  23650096.367    23650099.879
        41.300          22.500
 110399012.122 8  86025262.87146  21008215.969    21008217.660
        48.700          38.100
 111911622.895 8  87203914.77546  21296063.555    21296065.746
        50.000          39.400
 124450878.733 6  96974702.21043  23682194.680    23682201.871
        38.200          22.500
 132315902.684 6 103103227.98142  25178862.688    25178864.082
        38.000          16.300
 130458848.98315                  24825489.352
        34.000
 113363433.719 7  88335064.48946  21572314.813    21572319.809
        46.700          38.700
 109404526.926 8  85250354.30047  20818968.625    20818973.527
        50.700          42.200
 124492028.936 7  97006840.50244  23690025.633    23690028.973
        44.200          26.500
 117468975.284 7  91534343.50345  22353587.102    22353592.754
        47.100          34.200
 195314442.990 7                  37167129.906
        47.600
 195903249.437 7                  37279148.266
        47.300
 197562324.785 7                  37610346.656
        42.400
 17  9  1  0 13  0.0000000  0 13G14G18G21G24G16G20G27G10G15G32S38S35
                                S33
 124178320.961 6  96762326.30043  23630328.375    23630331.211
        41.600          22.500
 110424602.328 7  86045203.29446  21013085.383    21013087.438
        47.600          37.900
 111932427.559 8  87220126.19646  21300022.875    21300024.230
        50.200          38.900
 124413384.200 6  96945485.77543  23675059.195    23675066.223
        38.300          22.800
 132387278.822 6 103158845.69442  25192444.766    25192447.371
        36.400          16.300
 130543087.39715                  24841520.102
        33.900
 113335862.345 7  88313580.31146  21567068.148    21567072.813
        47.800          38.300
 109388149.918 8  85237592.99946  20815852.258    20815857.676
        50.700          41.900
 124592679.351 7  97085269.36844  23709179.531    23709182.652
        44.900          27.900
 117376392.610 7  91462201.20445  22335969.117    22335974.688
        47.500          34.600
 195314507.355 7                  37167142.875
        46.700
 195903283.864 7                  37279155.766
        47.400
 197563647.542 7                  37610600.391
        42.300
 17  9  1  0 13 30.0000000  0 13G14G18G21G24G16G20G27G10G15G32S38S35
                                S33
 124074597.415 6  96681502.83543  23610590.688    23610593.492
        41.800          22.500
 110450328.018 8  86065249.29246  21017981.094    21017982.457
        48.800          38.300
 111953552.464 8  87236587.14246  21304042.828    21304043.773
        50.800          39.000
 124376307.268 6  96916594.69744  23668004.484    23668010.016
        40.400          24.300
 132458741.369 5 103214530.74342  25206043.172    25206049.270
        35.800          16.300
 130627295.778 5 101787499.92742  24857544.891    24857548.129
        34.500          14.800
 113308866.622 8  88292544.68146  21561931.289    21561935.652
        48.700          39.700
 109372017.753 8  85225022.49447  20812782.602    20812787.305
        50.200          42.300
 124693546.966 7  97163867.45944  23728373.789    23728376.582
        45.000          27.600
 117284117.358 7  91390298.45745  22318410.227    22318415.309
        47.900          35.400
 195314572.437 8                  37167154.594
        48.200
 195903319.722 7                  37279162.500
        47.900
 197564964.189 7                  37610850.250
        44.000
 17  9  1  0 14  0.0000000  0 13G14G18G21G24G16G20G27G10G15G32S38S35
                                S33
 123971032.353 7  96600802.89343  23590883.414    23590886.594
        42.200          22.800
 110476187.532 8  86085399.57146  21022902.188    21022903.637
        49.100          37.600
 111974998.173 8  87253298.07346  21308123.383    21308124.910
        50.200          38.900
 124339649.670 6  96888030.43744  23661027.961    23661035.195
        38.300          24.200
 132530286.599 6 103270280.29342  25219657.859    25219663.172
        36.500          15.600
 130711473.175 5 101853092.66242  24873563.086    24873566.148
        35.500          16.300
 113282447.056 8  88271958.01746  21556903.766    21556907.879
        49.200          38.400
 109356129.249 8  85212641.84746  20809758.820    20809764.121
        51.500          41.700
 124794628.712 7  97242632.43844  23747609.078    23747612.156
        45.400          28.700
 117192151.271 7  91318636.61745  22300909.445    22300915.035
        47.100          34.800
 195314637.692 8                  37167166.469
        48.500
 195903355.688 8                  37279169.594
        48.100
 197566277.382 7                  37611100.188
        42.100
 17  9  1  0 14 30.0000000  0 13G14G18G21G24G16G20G27G10G15G32S38S35
                                S33
 123867628.176 6  96520228.32443  23571205.430    23571211.566
        41.800          22.200
 110502180.356 8  86105653.72246  21027848.727    21027850.023
        48.200          38.500
 111996765.504 8  87270259.61446  21312265.914    21312267.645
        49.100          38.500
 124303414.042 6  96859794.89643  23654133.078    23654139.406
        39.000          23.000
 132601911.578 6 103326091.91342  25233288.938    25233292.480
        39.200          16.300
 130795619.166 6 101918660.96442  24889575.656    24889578.957
        37.700          16.300
 113256604.631 8  88251821.06746  21551986.273    21551990.953
        49.000          39.100
 109340483.942 8  85200450.70747  20806781.695    20806786.582
        51.900          42.100
 124895921.841 7  97321562.12644  23766884.242    23766887.195
        45.300          27.600
 117100496.651 7  91247217.47146  22283468.391    22283473.594
        47.200          36.000
 195314701.655 7                  37167178.625
        47.300
 195903391.014 7                  37279176.359
        47.500
 197567586.093 7                  37611346.547
        42.900
 17  9  1  0 15  0.0000000  0 13G14G18G21G24G16G20G27G10G15G32S38S35
                                S33
 123764387.644 6  96439781.16643  23551558.781    23551564.699
        38.000          23.600
 110528306.149 8  86126011.48746  21032819.906    21032821.426
        48.200          38.100
 112018855.637 8  87287472.69446  21316469.297    21316470.918
        49.600          38.300
 124267602.453 6  96831889.79543  23647318.039    23647324.355
        40.600          23.800
 132673613.635 5 103381963.61542  25246932.461    25246934.020
        35.600          16.300
 130879734.258 6 101984205.18842  24905582.555    24905586.055
        36.000          17.800
 113231340.562 8  88232134.77946  21547178.523    21547182.996
        49.300          38.100
 109325081.390 8  85188448.73346  20803850.938    20803855.508
        51.500          41.800
 124997423.966 7  97400654.65044  23786199.625    23786202.719
        45.400          28.100
 117009155.993 7  91176042.97145  22266086.492    22266091.879
        47.700          35.500
 195314766.489 7                  37167191.109
        47.000
 195903426.661 8                  37279183.031
        48.200
 197568887.034 7                  37611597.250
        42.600
 17  9  1  0 15 30.0000000  0 14G08G14G18G21G24G16G20G27G10G15G32S38
                                S35S33
 125879220.05915                  23954035.570
        32.400
 123661312.870 6  96359463.20243  23531945.203    23531947.535
        38.900          22.200
 110554563.800 8  86146472.00046  21037816.367    21037818.262
        48.400          38.200
 112041269.251 8  87304937.84446  21320734.547    21320736.316
        49.800          39.400
 124232217.269 6  96804316.99343  23640584.609    23640591.520
        38.600          22.600
 132745389.494 5 103437892.74042  25260590.547    25260592.348
        32.900          14.800
 130963817.776 6 102049724.76842  24921582.625    24921586.594
        36.100          16.900
 113206655.395 8  88212899.58946  21542480.914    21542485.738
        49.600          38.400
 109309920.653 8  85176635.17047  20800965.891    20800970.527
        51.800          42.100
 125099132.227 7  97479907.81344  23805554.281    23805557.512
        45.700          28.700
 116918131.124 7  91105114.55445  22248765.117    22248770.184
        47.600          35.500
 195314830.562 7                  37167203.484
        46.600
 195903461.849 7                  37279189.203
        47.500
 197570184.793 7                  37611844.531
        42.200
 17  9  1  0 16  0.0000000  0 14G08G14G18G21G24G16G20G27G10G15G32S38
                                S35S33
 125799905.26615                  23938942.477
        32.000
 123558406.060 6  96279276.15443  23512362.359    23512363.227
        41.100          22.200
 110580953.038 8  86167035.04346  21042838.469    21042839.945
        48.500          37.700
 112064007.651 8  87322656.06546  21325061.570    21325062.969
        48.700          39.100
 124197260.917 6  96777078.30343  23633932.172    23633939.496
        39.600          23.600
 132817236.281 5 103493877.21042  25274263.133    25274266.340
        34.800          14.800
 131047869.274 5 102115219.43842  24937576.469    24937581.063
        35.500          16.300
 113182550.317 8  88194116.42346  21537893.961    21537898.574
        48.400          38.300
 109295001.382 8  85165009.77546  20798126.758    20798131.410
        49.500          41.800
 125201044.212 7  97559319.70844  23824947.734    23824950.676
        45.500          29.600
 116827424.686 7  91034434.23345  22231503.945    22231509.855
        47.900          35.500
 195314893.880 7                  37167215.438
        46.300
 195903497.557 7                  37279196.125
        46.800
 197571477.630 7                  37612087.969
        42.100
 17  9  1  0 16 30.0000000  0 14G08G14G18G21G24G16G20G27G10G15G32S38
                                S35S33
 125720956.94715                  23923917.359
        30.700
 123455669.386 6  96199221.71243  23492812.125    23492814.578
        41.300          22.800
 110607472.841 8  86187699.82846  21047884.500    21047886.598
        48.200          38.100
 112087070.570 8  87340627.14146  21329450.414    21329451.730
        49.500          39.400
 124162735.090 6  96750175.11043  23627362.461    23627368.305
        40.500          23.000
 132889151.072 6 103549914.72042  25287948.734    25287953.445
        37.400          15.600
 131131888.499 5 102180688.93242  24953564.875    24953569.227
        35.800          16.300
 113159025.842 8  88175785.65646  21533417.898    21533422.180
        50.300          38.900
 109280322.594 8  85153571.76746  20795333.219    20795338.434
        50.500          41.800
 125303156.781 7  97638887.90744  23844378.680    23844382.094
        46.100          29.900
 116737038.379 8  90964003.38346  22214304.203    22214309.914
        48.600          36.300
 195314958.238 7                  37167227.344
        47.600
 195903532.694 7                  37279202.828
        47.300
 197572765.417 7                  37612332.953
        43.300
 17  9  1  0 17  0.0000000  0 14G08G14G18G21G24G16G20G27G10G15G32S38
                                S35S33
 125642378.29315                  23908965.516
        32.200
 123353106.018 6  96119302.30244  23473294.797    23473300.309
        40.600          25.200
 110634122.957 7  86208466.14546  21052956.273    21052957.441
        47.700          37.000
 112110459.946 8  87358852.61746  21333900.953    21333903.094
        49.300          37.700
 124128642.593 6  96723609.58243  23620875.047    23620880.703
        39.800          23.600
 132961130.995 6 103606002.95642  25301645.164    25301651.824
        37.900          17.800
 131215875.764 6 102246133.52342  24969547.563    24969551.266
        37.200          16.300
 113136083.214 8  88157908.28346  21529051.555    21529055.891
        49.400          38.700
 109265884.092 8  85142320.99447  20792586.031    20792590.668
        51.700          42.000
 125405467.505 7  97718610.51944  23863848.125    23863851.383
        46.500          29.900
 116646974.852 8  90893824.07945  22197165.492    22197170.816
        48.900          35.200
 195315022.159 8                  37167240.344
        48.400
 195903567.879 8                  37279209.891
        48.300
 197574049.133 7                  37612578.484
        43.600
 17  9  1  0 17 30.0000000  0 14G08G14G18G21G24G16G20G27G10G15G32S38
                                S35S33
 125564171.518 5                  23894084.273
        33.200
 123250717.974 6  96039519.44444  23453810.602    23453817.816
        40.500          24.700
 110660902.768 7  86229333.52546  21058052.047    21058053.680
        47.500          37.900
 112134176.926 7  87377333.37746  21338414.484    21338416.617
        47.300          39.300
 124094985.766 6  96697383.52943  23614470.320    23614475.723
        40.500          22.900
 133033173.131 6 103662139.69543  25315354.305    25315358.555
        37.500          18.300
 131299830.778 6 102311553.00542  24985524.531    24985527.281
        37.600          16.900
 113113723.187 8  88140484.89646  21524796.805    21524801.270
        49.600          39.200
 109251685.230 8  85131256.94447  20789884.563    20789888.832
        51.100          43.000
 125507973.936 7  97798485.63344  23883354.484    23883357.359
        46.300          28.800
 116557236.313 8  90823897.96846  22180088.984    22180094.070
        48.300          36.100
 195315086.927 7                  37167252.000
        47.500
 195903603.524 7                  37279216.656
        47.800
 197575326.584 7                  37612821.422
        43.700
 17  9  1  0 18  0.0000000  0 14G08G14G18G21G24G16G20G27G10G15G32S38
                                S35S33
 125486338.974 5                  23879272.266
        34.500
 123148506.569 6  95959874.26344  23434360.828    23434365.633
        41.200          24.800
 110687810.611 7  86250300.68146  21063172.180    21063174.051
        46.900          37.600
 112158220.667 7  87396068.75146  21342989.563    21342991.488
        47.500          38.800
 124061765.921 6  96671497.97743  23608148.391    23608155.039
        39.500          23.600
 133105273.486 6 103718321.67442  25329074.555    25329077.352
        36.400          14.800
 131383752.330 6 102376946.39142  25001494.008    25001498.156
        37.300          16.300
 113091945.774 8  88123515.48546  21520652.508    21520656.980
        49.800          38.400
 109237724.515 8  85120378.47147  20787227.289    20787232.359
        51.100          42.400
 125610673.065 7  97878510.89344  23902897.359    23902900.277
        46.000          27.400
 116467824.020 7  90754226.09645  22163073.992    22163079.547
        47.800          35.800
 195315149.375 8                  37167263.609
        48.100
 195903638.207 7                  37279223.328
        47.900
 197576600.878 7                  37613063.203
        43.100
 17  9  1  0 18 30.0000000  0 14G08G14G18G21G24G16G20G27G10G15G32S38
                                S35S33
 125408883.185 5                  23864532.523
        33.100
 123046475.230 6  95880369.39443  23414944.367    23414947.008
        40.100          23.000
 110714846.860 8  86271367.88046  21068317.344    21068318.727
        48.100          37.900
 112182593.226 8  87415060.33146  21347627.906    21347629.195
        49.500          39.200
 124028986.072 6  96645955.27143  23601910.820    23601917.047
        40.000          21.500
 133177429.963 5 103774547.49842  25342805.680    25342807.766
        35.000          14.800
 131467641.196 6 102442314.32042  25017456.766    25017462.027
        36.200          16.300
 113070752.609 8  88107001.33046  21516619.477    21516624.051
        49.200          38.700
 109224002.301 8  85109685.84147  20784616.008    20784620.797
        51.100          42.600
 125713562.561 7  97958684.48644  23922476.391    23922478.816
        44.700          28.200
 116378741.116 8  90684810.88546  22146122.102    22146127.766
        48.100          36.000
 195315212.621 7                  37167276.172
        47.200
 195903673.362 7                  37279229.516
        47.800
 197577868.297 7                  37613305.219
        42.200
 17  9  1  0 19  0.0000000  0 14G08G14G18G21G24G16G20G27G10G15G32S38
                                S35S33
 125331806.254 5  97661218.44942  23849865.211    23849869.266
        32.800          15.600
 122944625.938 6  95801006.37643  23395563.281    23395565.922
        41.400          22.200
 110742010.401 8  86292534.27646  21073486.234    21073488.031
        48.100          37.000
 112207294.572 8  87434308.12946  21352328.148    21352330.367
        49.800          38.400
 123996647.906 6  96620756.76043  23595756.750    23595762.793
        38.100          22.300
 133249639.487 5 103830814.54142  25356546.719    25356549.945
        33.900          15.600
 131551496.757 5 102507656.28242  25033415.063    25033419.656
        34.900          15.600
 113050143.903 8  88090942.60746  21512697.813    21512702.699
        49.300          38.100
 109210517.412 8  85099178.14546  20782049.953    20782054.832
        51.200          41.700
 125816639.215 7  98039003.91844  23942091.063    23942093.961
        46.300          28.500
 116289989.258 7  90615653.63046  22129233.227    22129238.668
        47.100          36.000
 195315275.204 7                  37167288.078
        46.800
 195903708.727 7                  37279236.484
        47.500
 197579131.552 7                  37613545.719
        42.400
 17  9  1  0 19 30.0000000  0 13G08G14G18G21G24G16G27G10G15G32S38S35
                                S33
 125255111.189 5  97601456.13042  23835270.945    23835276.914
        34.600          15.600
 122842961.177 7  95721787.16644  23376217.227    23376221.426
        43.700          25.700
 110769301.131 8  86313799.77946  21078679.758    21078681.582
        48.800          38.100
 112232326.529 8  87453813.53846  21357091.578    21357093.426
        49.500          38.600
 123964754.281 6  96595904.61143  23589687.539    23589692.855
        39.900          22.200
 133321899.622 5 103887121.18842  25370296.680    25370301.465
        32.400          16.300
 113030120.925 8  88075340.28346  21508887.461    21508892.648
        48.400          38.600
 109197269.696 8  85088855.25747  20779528.930    20779533.852
        50.800          42.300
 125919901.194 7  98119467.77344  23961741.422    23961744.387
        45.800          28.900
 116201571.051 8  90546756.36146  22112407.625    22112412.891
        48.200          36.100
 195315338.863 7                  37167300.313
        47.600
 195903744.098 7                  37279243.531
        47.400
 197580391.387 7                  37613785.484
        42.600
 17  9  1  0 20  0.0000000  0 13G08G14G18G21G24G16G27G10G15G32S38S35
                                S33
 125178800.016 5  97541992.89642  23820749.211    23820754.883
        34.600          17.400
 122741482.793 7  95642713.20044  23356906.945    23356912.207
        42.900          25.500
 110796717.846 7  86335163.45446  21083896.836    21083898.430
        46.800          37.800
 112257689.333 7  87473576.75546  21361918.297    21361919.703
        47.300          37.900
 123933306.699 6  96571400.08043  23583703.563    23583709.441
        39.800          22.800
 133394206.395 6 103943463.99742  25384056.859    25384060.199
        36.500          15.600
 113010683.886 8  88060194.54346  21505188.609    21505193.762
        48.800          37.700
 109184258.175 8  85078716.42446  20777052.906    20777057.410
        50.800          41.700
 126023345.142 7  98200073.41244  23981426.227    23981429.047
        45.200          27.800
 116113488.214 8  90478120.42446  22095646.266    22095651.418
        48.000          36.200
 195315402.111 8                  37167311.781
        48.300
 195903779.737 7                  37279249.781
        46.500
 197581643.313 7                  37614023.344
        42.200
 17  9  1  0 20 30.0000000  0 13G08G14G18G21G24G16G27G10G15G32S38S35
                                S33
 125102874.724 6  97482830.33042  23806302.445    23806307.711
        37.400          17.800
 122640193.297 6  95563786.40144  23337630.961    23337636.348
        39.900          24.700
 110824259.990 7  86356624.85446  21089138.164    21089139.160
        47.000          37.700
 112283383.677 8  87493598.29446  21366807.625    21366809.414
        48.500          39.300
 123902307.182 6  96547244.62243  23577804.234    23577810.238
        39.700          22.900
 133466557.047 6 103999841.06242  25397825.766    25397826.766
        38.900          15.600
 112991833.363 8  88045505.82346  21501601.789    21501606.137
        49.200          38.400
 109171482.104 8  85068761.05947  20774621.891    20774626.465
        51.400          42.200
 126126968.605 7  98280818.93944  24001144.914    24001148.281
        45.200          27.200
 116025742.821 7  90409747.42646  22078948.672    22078953.930
        47.300          36.300
 195315465.030 7                  37167324.484
        47.900
 195903815.389 7                  37279255.656
        46.500
 197582892.066 7                  37614259.609
        42.200
 17  9  1  0 21  0.0000000  0 13G08G14G18G21G24G16G27G10G15G32S38S35
                                S33
 125027337.734 6  97423970.35843  23791927.383    23791932.934
        36.900          18.600
 122539094.639 6  95485008.26143  23318393.391    23318395.121
        38.300          23.200
 110851926.424 8  86378183.11546  21094402.953    21094404.320
        48.800          38.100
 112309409.855 8  87513878.41646  21371760.125    21371762.648
        49.200          39.100
 123871757.797 6  96523439.97243  23571991.055    23571996.621
        40.900          21.700
 133538948.419 6 104056249.85242  25411601.164    25411602.832
        38.100          16.900
 112973569.699 8  88031274.39646  21498126.313    21498130.641
        48.800          38.200
 109158940.519 8  85058988.40047  20772235.188    20772239.793
        52.000          42.100
 126230768.703 7  98361702.09744  24020897.305    24020900.742
        44.200          26.400
 115938336.595 8  90341638.71846  22062316.305    22062321.133
        49.300          36.800
 195315527.215 7                  37167336.359
        47.300
 195903850.118 7                  37279263.063
        47.200
 197584135.062 7                  37614499.016
        42.200
 17  9  1  0 21 30.0000000  0 13G08G14G18G21G24G16G27G10G15G32S38S35
                                S33
 124952191.749 5  97365415.08143  23777627.422    23777632.289
        34.500          18.600
 122438189.796 7  95406381.16944  23299191.438    23299193.602
        42.600          25.200
 110879717.332 8  86399838.36346  21099691.203    21099693.008
        48.000          38.300
 112335769.388 8  87534418.29646  21376776.117    21376778.516
        49.300          39.600
 123841660.691 6  96499987.73743  23566263.516    23566269.348
        39.500          23.000
 133611378.126 5 104112688.57742  25425382.828    25425387.199
        35.600          16.900
 112955894.180 8  88017501.26746  21494762.602    21494766.922
        49.500          38.700
 109146633.534 8  85049398.56547  20769893.586    20769898.270
        51.800          42.400
 126334743.386 7  98442721.28544  24040683.852    24040687.078
        44.200          25.600
 115851272.377 7  90273796.51446  22045748.148    22045752.973
        47.800          36.500
 195315589.930 7                  37167347.547
        46.400
 195903885.518 8                  37279270.047
        48.000
 197585373.470 7                  37614733.547
        42.200
 17  9  1  0 22  0.0000000  0 13G08G14G18G21G24G16G27G10G15G32S38S35
                                S33
 124877438.786 5  97307166.06343  23763402.469    23763407.160
        35.700          19.300
 122337480.514 7  95327906.51944  23280028.117    23280031.660
        44.400          24.600
 110907631.557 7  86421589.69646  21105003.039    21105004.641
        47.500          37.500
 112362463.213 8  87555218.67546  21381856.125    21381857.434
        49.600          38.400
 123812018.060 6  96476889.61644  23560622.797    23560628.875
        41.200          24.400
 133683842.685 5 104169154.47842  25439174.141    25439176.820
        34.800          16.900
 112938806.888 8  88004186.49646  21491511.016    21491515.824
        50.200          38.400
 109134560.030 8  85039990.66247  20767595.773    20767600.559
        51.600          42.200
 126438889.604 7  98523874.15544  24060501.930    24060505.328
        44.500          24.400
 115764551.784 7  90206222.06946  22029245.766    22029250.719
        46.800          36.400
 195315652.621 7                  37167360.047
        46.600
 195903920.170 7                  37279276.672
        47.900
 197586606.584 7                  37614968.234
        42.200
 17  9  1  0 22 30.0000000  0 13G08G14G18G21G24G16G27G10G15G32S38S35
                                S33
 124803081.293 6  97249225.16843  23749252.023    23749257.066
        36.300          18.300
 122236969.524 7  95249586.35044  23260900.313    23260907.156
        42.000          24.700
 110935669.048 8  86443437.08746  21110338.508    21110340.180
        48.300          37.300
 112389490.915 8  87576279.20446  21386999.625    21387000.516
        50.200          39.000
 123782831.619 6  96454146.99644  23555068.531    23555075.004
        40.500          24.300
 133756339.580 6 104225645.57842  25452970.125    25452971.762
        38.400          16.900
 112922308.642 8  87991330.73046  21488371.492    21488375.914
        49.300          38.000
 109122719.539 8  85030764.31947  20765342.641    20765347.281
        51.400          42.500
 126543204.747 7  98605158.63343  24080352.258    24080355.672
        44.200          22.900
 115678177.089 8  90138917.15046  22012809.063    22012815.000
        50.100          36.800
 195315715.186 8                  37167371.188
        48.300
 195903954.616 7                  37279283.094
        47.600
 197587835.365 7                  37615202.359
        43.100
 17  9  1  0 23  0.0000000  0 13G08G14G18G21G24G16G27G10G15G32S38S35
                                S33
 124729121.625 6  97191594.31743  23735178.414    23735183.504
        36.800          20.400
 122136659.017 6  95171422.32843  23241812.734    23241817.016
        39.500          23.500
 110963828.874 8  86465379.80146  21115696.945    21115698.793
        48.300          36.800
 112416853.999 8  87597601.06646  21392206.313    21392207.938
        48.500          38.900
 123754103.641 6  96431761.58543  23549602.195    23549608.371
        40.000          23.900
 133828865.573 6 104282159.14442  25466769.891    25466772.707
        36.500          14.800
 112906399.948 7  87978934.32946  21485344.109    21485348.715
        47.200          38.000
 109111111.527 8  85021719.13146  20763133.906    20763138.234
        50.600          41.800
 126647686.500 7  98686572.97443  24100234.844    24100238.469
        45.100          23.600
 115592150.379 8  90071883.40645  21996439.086    21996443.883
        49.900          35.800
 195315778.018 7                  37167383.938
        46.600
 195903990.162 8                  37279290.297
        48.100
 197589058.428 7                  37615434.766
        42.700
 17  9  1  0 23 30.0000000  0 12G08G14G18G21G24G27G10G15G32S38S35S33
 124655561.913 6  97134275.08843  23721180.203    23721185.488
        36.600          21.500
 122036550.953 7  95093416.11144  23222762.258    23222763.688
        42.300          25.700
 110992110.803 7  86487417.66546  21121078.820    21121080.230
        47.600          37.500
 112444552.984 8  87619184.67646  21397477.211    21397479.074
        48.500          38.700
 123725836.146 6  96409734.98944  23544222.320    23544228.660
        40.500          25.400
 112891081.063 8  87966997.53346  21482429.164    21482433.883
        50.700          38.200
 109099735.081 8  85012854.38647  20760969.055    20760973.258
        52.200          42.300
 126752332.173 7  98768115.03143  24120148.438    24120150.879
        44.700          22.800
 115506473.511 8  90005122.22846  21980134.953    21980139.387
        49.100          37.100
 195315840.726 7                  37167395.313
        46.600
 195904025.482 7                  37279296.859
        46.300
 197590276.760 7                  37615666.641
        42.300
 17  9  1  0 24  0.0000000  0 12G08G14G18G21G24G27G10G15G32S38S35S33
 124582404.513 6  97077269.35643  23707258.047    23707264.461
        37.700          21.300
 121936647.507 7  95015569.39244  23203751.641    23203752.320
        44.300          25.700
 111020513.611 8  86509549.72646  21126484.102    21126485.520
        48.100          37.100
 112472588.465 8  87641030.51446  21402812.125    21402813.949
        48.800          38.100
 123698031.024 6  96388068.71944  23538932.227    23538938.051
        41.100          24.700
 112876352.447 8  87955520.70346  21479626.352    21479631.086
        49.400          38.000
 109088589.535 8  85004169.54947  20758847.922    20758852.645
        51.500          42.300
 126857138.854 7  98849782.55343  24140092.023    24140095.375
        43.700          22.200
 115421148.425 8  89938635.19746  21963898.414    21963903.352
        50.000          36.600
 195315902.805 7                  37167406.656
        47.200
 195904060.217 7                  37279302.156
        46.500
 197591490.632 7                  37615897.891
        42.200
 17  9  1  0 24 30.0000000  0 12G08G14G18G21G24G27G10G15G32S38S35S33
 124509652.193 6  97020579.28243  23693414.695    23693419.980
        38.000          21.700
 121836951.377 7  94937884.18844  23184778.953    23184782.973
        42.900          25.400
 111049036.802 8  86531775.57446  21131911.469    21131913.301
        48.400          37.500
 112500961.610 8  87663139.43146  21408211.992    21408213.246
        49.600          39.000
 123670690.069 6  96366764.11844  23533728.969    23533734.605
        41.000          24.100
 112862214.808 8  87944504.36046  21476935.813    21476940.359
        50.100          38.100
 109077674.561 8  84995664.38347  20756771.109    20756775.660
        52.700          42.500
 126962104.086 7  98931573.61743  24160066.195    24160069.082
        43.400          20.900
 115336177.457 8  89872424.10546  21947728.922    21947734.430
        50.200          37.300
 195315964.425 8                  37167419.453
        48.300
 195904094.640 7                  37279310.453
        47.800
 197592698.418 7                  37616127.734
        43.000
 17  9  1  0 25  0.0000000  0 12G08G14G18G21G24G27G10G15G32S38S35S33
 124437306.681 6  96964206.17843  23679647.180    23679652.426
        38.700          22.800
 121737464.599 6  94860362.02644  23165847.438    23165854.145
        39.900          26.100
 111077680.363 7  86554095.23146  21137362.406    21137363.664
        47.800          36.500
 112529672.621 8  87685511.63446  21413675.047    21413676.188
        48.700          38.000
 123643815.441 6  96345822.87844  23528614.766    23528620.984
        41.200          24.500
 112848668.389 7  87933948.71246  21474358.180    21474362.957
        47.000          38.300
 109066989.405 8  84987338.29747  20754737.617    20754742.141
        49.300          42.400
 127067225.225 6  99013486.15743  24180070.211    24180073.492
        41.900          20.400
 115251562.517 8  89806490.39246  21931626.961    21931632.176
        49.200          36.100
 195316026.122 7                  37167431.672
        46.000
 195904129.440 7                  37279316.500
        47.500
 197593901.523 7                  37616357.969
        42.500
 17  9  1  0 25 30.0000000  0 12G08G14G18G21G24G27G10G15G32S38S35S33
 124365370.148 6  96908151.76743  23665958.422    23665964.375
        39.400          22.900
 121638189.446 7  94783004.80444  23146956.000    23146960.625
        42.800          25.400
 111106442.891 7  86576507.59746  21142835.367    21142836.660
        47.700          37.200
 112558722.391 8  87708147.79946  21419202.563    21419204.250
        49.000          38.300
 123617409.229 7  96325246.65944  23523590.430    23523595.938
        43.100          26.300
 112835713.531 8  87923854.03046  21471893.273    21471897.289
        49.300          38.300
 109056533.298 8  84979190.69947  20752747.711    20752752.332
        52.400          42.500
 127172499.977 7  99095518.40443  24200103.313    24200106.074
        42.100          21.100
 115167305.469 8  89740835.58246  21915593.742    21915598.617
        50.100          37.400
 195316087.546 7                  37167442.469
        46.500
 195904164.707 7                  37279322.641
        46.600
 197595099.749 7                  37616584.859
        42.100
 17  9  1  0 26  0.0000000  0 12G08G14G18G21G24G27G10G15G32S38S35S33
 124293845.014 6  96852417.93643  23652347.883    23652352.891
        40.300          23.900
 121539127.780 7  94705813.99844  23128105.609    23128106.641
        43.700          25.000
 111135324.025 7  86599012.38046  21148331.555    21148332.551
        47.000          36.900
 112588111.000 8  87731047.99646  21424794.961    21424797.258
        48.800          37.900
 123591473.042 6  96305036.68144  23518654.359    23518659.996
        40.600          24.600
 112823350.489 8  87914220.48946  21469540.617    21469545.270
        49.600          38.400
 109046305.537 8  84971221.01446  20750801.336    20750806.191
        52.000          41.900
 127277925.404 6  99177668.04343  24220165.125    24220167.844
        40.600          18.600
 115083408.230 8  89675461.16346  21899628.516    21899633.148
        50.300          37.300
 195316148.308 7                  37167454.938
        46.200
 195904198.758 7                  37279329.594
        46.600
 197596292.477 7                  37616809.531
        42.300
 17  9  1  0 26 30.0000000  0 12G08G14G18G21G24G27G10G15G32S38S35S33
 124222733.958 6  96797006.73143  23638816.508    23638820.781
        41.800          23.600
 121440282.748 6  94628791.97243  23109295.344    23109296.730
        40.400          23.900
 111164324.225 8  86621609.93546  21153849.742    21153851.941
        48.100          37.500
 112617840.119 8  87754213.53546  21430452.180    21430454.867
        48.300          38.400
 123566008.810 6  96285194.47444  23513808.805    23513814.148
        40.300          25.800
 112811580.295 8  87905048.91546  21467300.438    21467304.906
        50.000          39.000
 109036306.186 8  84963429.31347  20748898.422    20748903.258
        52.200          42.100
 127383499.246 6  99259933.32743  24240254.703    24240257.824
        39.200          18.300
 114999873.540 8  89610369.21246  21883731.914    21883737.141
        49.700          37.400
 195316211.172 7                  37167466.313
        47.900
 195904233.332 7                  37279335.984
        47.500
 197597480.569 7                  37617039.234
        43.200
 17  9  1  0 27  0.0000000  0 12G08G14G18G21G24G27G10G15G32S38S35S33
 124152038.752 6  96741919.59244  23625362.188    23625368.668
        41.700          24.700
 121341656.039 6  94551939.98444  23090527.523    23090531.133
        40.600          25.500
 111193442.057 8  86644299.15646  21159391.234    21159392.777
        49.300          37.100
 112647909.822 8  87777644.44446  21436174.570    21436176.723
        49.100          38.800
 123541018.539 7  96265721.54344  23509053.070    23509058.926
        42.000          25.200
 112800402.722 8  87896339.11646  21465173.852    21465177.801
        50.500          39.200
 109026534.074 8  84955814.69946  20747039.086    20747043.305
        52.200          41.200
 127489218.949 6  99342312.25142  24260373.055    24260376.016
        39.000          17.800
 114916702.711 8  89545560.81246  21867905.445    21867910.297
        49.500          37.500
 195316273.056 7                  37167477.906
        47.000
 195904268.418 7                  37279342.609
        47.100
 197598663.531 7                  37617263.781
        42.100
 17  9  1  0 27 30.0000000  0 12G08G14G18G21G24G27G10G15G32S38S35S33
 124081761.370 6  96687158.02644  23611989.813    23611994.813
        41.300          25.900
 121243249.701 7  94475259.77044  23071802.102    23071807.328
        44.300          26.400
 111222676.713 8  86667079.40846  21164954.352    21164955.965
        49.100          37.200
 112678320.150 8  87801340.78946  21441961.836    21441963.246
        50.200          38.500
 123516503.774 7  96246619.16444  23504387.570    23504393.781
        42.100          25.500
 112789817.657 8  87888091.02446  21463159.188    21463164.445
        49.400          38.600
 109016988.212 8  84948376.35247  20745222.742    20745227.148
        52.600          42.600
 127595081.412 6  99424802.44942  24280517.820    24280521.297
        39.200          16.900
 114833897.356 8  89481037.19846  21852148.125    21852153.121
        50.800          38.300
 195316334.414 7                  37167490.594
        47.500
 195904302.511 7                  37279349.453
        46.600
 197599841.238 7                  37617488.188
        42.400
 17  9  1  0 28  0.0000000  0 12G08G14G18G21G24G27G10G15G32S38S35S33
 124011904.784 7  96632724.34243  23598696.375    23598701.363
        42.100          22.600
 121145066.249 7  94398753.26544  23053117.867    23053121.973
        43.200          26.000
 111252028.437 7  86689950.88746  21170539.961    21170541.246
        47.500          37.700
 112709072.827 8  87825303.89246  21447813.328    21447814.555
        48.800          37.700
 123492466.762 6  96227889.05444  23499813.703    23499819.098
        41.500          25.200
 112779826.049 8  87880305.35346  21461257.820    21461262.609
        49.200          38.000
 109007668.644 8  84941114.36046  20743449.078    20743453.563
        51.700          41.600
 127701084.641 6  99507402.37842  24300688.891    24300693.254
        39.800          17.400
 114751460.180 8  89416800.45246  21836460.391    21836466.332
        49.500          37.500
 195316395.733 7                  37167501.563
        47.200
 195904337.107 7                  37279355.375
        47.700
 197601014.370 7                  37617709.109
        42.300
 17  9  1  0 28 30.0000000  0 12G08G14G18G21G24G27G10G15G32S38S35S33
 123942470.761 6  96578619.94044  23585483.789    23585488.180
        41.800          25.700
 121047107.742 6  94322421.98643  23034476.883    23034478.633
        39.600          23.200
 111281496.299 8  86712912.85746  21176147.375    21176148.094
        48.800          37.500
 112740168.087 8  87849533.93846  21453731.039    21453732.082
        49.800          38.300
 123468908.951 6  96209532.37744  23495331.133    23495336.453
        41.700          25.300
 112770427.884 7  87872982.11246  21459469.383    21459473.898
        47.700          38.800
 108998574.566 8  84934028.08047  20741718.477    20741722.934
        52.000          42.300
 127807226.007 6  99590109.87242  24320888.148    24320890.945
        40.500          16.300
 114669392.830 8  89352851.90146  21820843.719    21820849.402
        50.200          38.800
 195316457.193 7                  37167513.172
        46.500
 195904372.080 7                  37279362.422
        47.500
 197602183.435 7                  37617933.453
        42.000
 17  9  1  0 29  0.0000000  0 12G08G14G18G21G24G27G10G15G32S38S35S33
 123873461.266 6  96524846.33744  23572351.461    23572356.820
        41.800          25.300
 120949376.454 7  94246267.75144  23015878.922    23015880.820
        43.300          24.500
 111311079.567 7  86735964.74946  21181776.578    21181778.242
        47.500          36.700
 112771606.234 7  87874031.17946  21459713.320    21459715.328
        46.800          37.600
 123445832.295 6  96191550.60544  23490939.266    23490945.570
        41.100          24.400
 112761623.297 8  87866121.39846  21457794.289    21457799.188
        48.100          37.900
 108989705.140 8  84927116.84346  20740030.945    20740035.352
        51.900          41.500
 127913502.860 6  99672922.95042  24341112.516    24341115.379
        40.500          16.900
 114587697.132 8  89289192.95446  21805297.367    21805301.797
        50.200          37.700
 195316518.403 7                  37167524.203
        46.700
 195904406.419 7                  37279369.641
        47.000
 197603345.437 7                  37618153.469
        42.600
 17  9  1  0 29 30.0000000  0 12G08G14G18G21G24G27G10G15G32S38S35S33
 123804878.923 7  96471405.59244  23559300.242    23559305.938
        42.300          25.800
 120851874.747 7  94170292.50744  22997325.734    22997329.086
        45.400          26.200
 111340778.147 8  86759106.49946  21187428.094    21187429.676
        48.800          38.600
 112803388.167 8  87898796.30346  21465761.039    21465763.414
        48.300          38.300
 123423238.249 6  96173944.87544  23486640.203    23486645.633
        41.400          24.600
 112753412.699 8  87859723.53846  21456231.688    21456236.406
        48.400          38.600
 108981060.121 8  84920380.47746  20738385.758    20738390.000
        51.600          41.600
 128019912.992 6  99755839.93142  24361361.109    24361363.910
        40.000          15.600
 114506375.261 8  89225825.29946  21789822.125    21789827.855
        49.400          38.700
 195316579.580 7                  37167536.813
        46.900
 195904440.803 7                  37279375.219
        46.900
 197604503.342 7                  37618374.594
        42.600
 17  9  1  0 30  0.0000000  0 12G08G14G18G21G24G27G10G15G32S38S35S33
 123736725.478 7  96418299.03744  23546331.125    23546336.594
        42.600          26.500
 120754604.654 7  94094497.69144  22978815.523    22978819.867
        43.000          27.400
 111370591.046 8  86782337.32746  21193101.664    21193103.027
        50.700          37.600
 112835514.677 8  87923829.92246  21471875.078    21471877.063
        48.100          37.900
 123401129.057 7  96156716.94844  23482433.180    23482438.855
        42.100          25.500
 112745795.927 8  87853788.37646  21454782.539    21454786.844
        49.800          38.700
 108972638.518 8  84913818.18646  20736783.180    20736787.492
        52.900          41.400
 128126453.368 6  99838858.32242  24381634.586    24381637.754
        38.100          14.800
 114425428.785 8  89162750.14546  21774418.773    21774424.262
        50.700          37.800
 195316641.464 7                  37167548.719
        46.500
 195904475.388 7                  37279381.766
        47.900
 197605656.172 7                  37618595.484
        42.800
 17  9  1  0 30 30.0000000  0 12G08G14G18G21G24G27G10G15G32S38S35S33
 123669003.234 6  96365528.47544  23533444.375    23533449.273
        41.900          25.700
 120657568.311 6  94018884.94244  22960350.547    22960352.223
        39.300          26.000
 111400518.011 8  86805657.04246  21198796.453    21198798.023
        49.200          37.800
 112867985.662 8  87949131.97046  21478053.680    21478055.074
        48.000          38.100
 123379506.149 6  96139867.98144  23478317.922    23478323.988
        41.800          25.900
 112738773.094 8  87848316.05046  21453445.688    21453450.605
        48.400          38.700
 108964439.699 8  84907429.50047  20735222.656    20735227.590
        52.200          42.200
 128233121.537 6                  24401932.484
        36.100
 114344859.566 8  89099968.98746  21759086.836    21759092.461
        50.000          38.700
 195316702.836 7                  37167559.563
        46.700
 195904510.007 7                  37279388.766
        47.200
 197606803.176 7                  37618810.984
        42.700
 17  9  1  0 31  0.0000000  0 12G08G14G18G21G24G27G10G15G32S38S35S33
 123601714.277 7  96313095.56644  23520639.203    23520644.414
        43.000          26.700
 120560768.132 7  93943456.25644  22941929.875    22941930.805
        44.500          25.200
 111430558.546 7  86829065.25646  21204512.961    21204514.078
        47.600          36.900
 112900801.922 7  87974703.06146  21484298.398    21484300.055
        47.100          37.400
 123358371.386 6  96123399.36143  23474295.891    23474301.953
        40.800          23.200
 112732344.572 8  87843306.80246  21452222.563    21452227.086
        50.400          38.500
 108956463.355 8  84901214.17846  20733705.117    20733709.168
        52.400          41.800
 128339915.049 5                  24422254.945
        35.900
 114264669.781 8  89037483.46946  21743826.766    21743832.168
        49.900          37.300
 195316763.363 7                  37167571.063
        47.400
 195904543.930 7                  37279395.703
        46.400
 197607944.076 7                  37619029.563
        42.400
 17  9  1  0 31 30.0000000  0 12G08G14G18G21G24G27G10G15G32S38S35S33
 123534861.046 6  96261002.16644  23507917.641    23507922.992
        41.100          25.600
 120464206.099 7  93868213.21644  22923554.414    22923556.676
        45.100          27.500
 111460712.139 8  86852561.56646  21210250.906    21210252.504
        48.100          37.600
 112933963.981 8  88000543.59246  21490609.031    21490611.008
        48.000          38.700
 123337726.115 6  96107312.13844  23470367.625    23470373.711
        41.000          25.300
 112726510.409 8  87838760.70546  21451112.555    21451116.863
        49.300          38.600
 108948708.834 8  84895171.69347  20732229.617    20732233.582
        51.400          42.000
 128446831.716 5                  24442600.578
        34.800
 114184861.278 8  88975295.06346  21728640.039    21728644.543
        51.200          38.700
 195316824.282 7                  37167582.828
        47.000
 195904578.214 7                  37279402.156
        47.000
 197609083.182 7                  37619245.594
        42.300
 17  9  1  0 32  0.0000000  0 12G08G14G18G21G24G27G10G15G32S38S35S33
 123468445.416 6  96209249.75144  23495279.711    23495284.488
        41.000          25.500
 120367884.564 7  93793157.52744  22905224.805    22905229.008
        43.700          26.500
 111490978.523 8  86876145.75246  21216010.211    21216012.156
        48.300          36.700
 112967472.339 7  88026653.98146  21496985.258    21496987.914
        47.200          37.900
 123317572.012 7  96091607.68344  23466532.727    23466538.359
        42.100          25.400
 112721270.575 7  87834677.71746  21450115.414    21450119.480
        47.700          38.100
 108941175.435 8  84889301.52146  20730795.875    20730800.551
        51.200          41.100
 128553868.954 6                  24462969.930
        36.000
 114105435.794 8  88913405.12646  21713525.586    21713531.184
        50.500          38.200
 195316884.697 7                  37167595.031
        47.100
 195904612.583 7                  37279408.578
        47.900
 197610214.515 7                  37619460.703
        43.100
 17  9  1  0 32 30.0000000  0 12G08G14G18G21G24G27G10G15G32S38S35S33
 123402469.396 6  96157839.89044  23482724.227    23482729.195
        39.900          25.300
 120271805.460 6  93718290.67044  22886941.742    22886945.109
        41.800          27.800
 111521357.028 8  86899817.32246  21221791.047    21221793.305
        48.800          37.900
 113001327.220 7  88053034.40646  21503427.852    21503430.012
        47.200          38.200
 123297910.838 7  96076287.31844  23462791.313    23462796.520
        42.200          24.000
 112716624.893 7  87831057.71246  21449231.438    21449235.500
        47.200          38.900
 108933862.385 8  84883603.04747  20729404.141    20729408.945
        49.300          42.300
 128661023.836 6                  24483360.586
        36.700
 114026395.029 8  88851814.94046  21698484.820    21698489.605
        50.300          38.300
 195316945.966 7                  37167605.875
        47.200
 195904646.919 7                  37279415.094
        46.900
 197611341.826 7                  37619675.000
        42.400
 17  9  1  0 33  0.0000000  0 12G08G14G18G21G24G27G10G15G32S38S35S33
 123336935.240 6  96106774.34543  23470253.969    23470259.094
        39.700          23.600
 120175971.084 7  93643614.59244  22868705.164    22868706.949
        44.800          28.000
 111551846.973 8  86923575.71346  21227593.227    21227594.754
        48.000          37.100
 113035529.487 8  88079685.50146  21509936.367    21509938.148
        49.400          37.300
 123278744.410 6  96061352.45444  23459142.773    23459149.621
        41.600          24.500
 112712573.627 7  87827900.87246  21448460.273    21448465.008
        47.000          38.200
 108926769.337 8  84878076.02346  20728054.578    20728059.309
        52.000          41.700
 128768294.180 5                  24503773.180
        35.500
 113947740.969 8  88790526.09746  21683517.781    21683522.578
        52.000          37.700
 195317006.482 7                  37167617.547
        47.000
 195904681.633 7                  37279421.375
        46.400
 197612462.945 7                  37619888.281
        43.700
 17  9  1  0 33 30.0000000  0 12G08G14G18G21G24G27G10G15G32S38S35S33
 123271844.840 6  96056054.56744  23457867.289    23457872.332
        39.700          24.700
 120080383.719 7  93569131.02344  22850515.633    22850516.910
        44.900          28.600
 111582448.482 8  86947421.04046  21233416.070    21233417.891
        49.100          37.300
 113070079.991 8  88106607.93946  21516511.430    21516512.414
        50.300          37.500
 123260074.490 7  96046804.52044  23455590.984    23455596.949
        42.600          24.700
 112709116.737 7  87825207.19846  21447802.227    21447807.195
        46.900          39.200
 108919895.624 8  84872719.87947  20726746.227    20726750.652
        52.100          42.600
 128875677.642 5                  24524207.570
        33.400
 113869475.491 8  88729540.06146  21668624.281    21668628.930
        50.400          38.100
 195317065.976 7                  37167628.813
        47.700
 195904715.133 7                  37279426.578
        46.900
 197613579.884 7                  37620102.078
        42.900
 17  9  1  0 34  0.0000000  0 12G08G14G18G21G24G27G10G15G32S38S35S33
 123207200.521 6  96005682.40344  23445565.500    23445570.738
        40.400          25.000
 119985045.827 7  93494841.78644  22832372.688    22832376.609
        42.600          27.200
 111613160.677 8  86971352.61646  21239260.750    21239262.355
        48.100          36.400
 113104978.654 8  88133801.67046  21523152.000    21523153.875
        49.900          37.600
 123241902.520 7  96032644.57344  23452133.273    23452138.836
        42.400          25.100
 112706254.328 7  87822976.75046  21447257.852    21447262.098
        47.000          38.200
 108913240.857 8  84867534.34146  20725480.000    20725484.711
        52.200          41.600
 128983172.051 5                  24544660.508
        30.300
 113791600.574 8  88668858.33946  21653804.805    21653809.957
        50.600          38.300
 195317126.641 7                  37167640.578
        46.400
 195904749.740 7                  37279434.094
        47.400
 197614691.786 7                  37620313.375
        42.100
 17  9  1  0 34 30.0000000  0 12G08G14G18G21G24G27G10G15G32S38S35S33
 123143004.091 6  95955659.23244  23433349.695    23433354.914
        40.600          26.500
 119889959.029 7  93420748.17744  22814277.852    22814282.961
        43.400          29.200
 111643983.267 7  86995370.21746  21245126.188    21245127.543
        46.900          37.500
 113140226.755 8  88161267.69746  21529859.563    21529862.180
        50.100          38.600
 123224230.116 6  96018873.88244  23448769.547    23448775.379
        41.600          26.600
 112703986.155 8  87821209.34146  21446826.414    21446830.887
        48.300          39.200
 108906804.343 8  84862518.87947  20724254.984    20724259.895
        50.800          42.900
 129090774.67714                  24565138.055
        29.900
 113714117.812 8  88608482.19246  21639060.430    21639065.617
        51.600          38.700
 195317187.621 7                  37167652.125
        47.600
 195904784.390 7                  37279441.141
        46.400
 197615797.775 7                  37620522.906
        42.400
 17  9  1  0 35  0.0000000  0 12G08G14G18G21G24G27G10G15G32S38S35S33
 123079258.035 6  95905986.99744  23421219.547    23421224.449
        39.900          26.000
 119795125.674 7  93346852.11944  22796232.078    22796235.125
        45.000          27.800
 111674915.877 7  87019473.54146  21251012.555    21251013.754
        47.600          36.600
 113175824.420 8  88189006.11446  21536633.828    21536635.777
        50.300          37.300
 123207058.477 7  96005493.42844  23445501.289    23445507.699
        42.300          25.800
 112702312.238 7  87819904.98546  21446507.477    21446512.207
        47.000          38.000
 108900585.535 8  84857673.06346  20723071.484    20723076.145
        51.800          41.700
 129198482.68314                  24585634.117
        28.600
 113637029.115 8  88548413.12246  21624391.180    21624396.141
        51.900          38.600
 195317249.397 7                  37167663.797
        47.700
 195904818.423 7                  37279446.922
        47.000
 197616900.310 7                  37620734.703
        42.100
 17  9  1  0 35 30.0000000  0 12G08G14G18G21G24G27G10G15G32S38S35S33
 123015963.868 6  95856666.89744  23409174.195    23409179.648
        40.900          24.800
 119700547.724 7  93273155.08444  22778233.969    22778236.469
        43.800          27.400
 111705958.069 7  87043662.25646  21256919.555    21256921.352
        47.900          37.500
 113211771.932 8  88217017.15446  21543474.328    21543476.492
        50.800          38.200
 123190389.403 7  95992504.60044  23442330.258    23442336.121
        42.200          26.000
 112701232.122 8  87819063.32846  21446302.195    21446306.477
        49.500          38.800
 108894583.514 8  84852996.16447  20721929.641    20721934.512
        52.500          42.700
 129306293.938 5                  24606147.922
        30.300
 113560335.943 8  88488652.23646  21609796.555    21609801.910
        50.800          39.500
 195317309.015 7                  37167675.172
        47.700
 195904853.374 7                  37279454.438
        47.400
 197617995.685 7                  37620942.891
        42.400
 17  9  1  0 36  0.0000000  0 12G08G14G18G21G24G27G10G15G32S38S35S33
 122953123.790 6  95807700.61944  23397216.500    23397221.770
        41.400          26.700
 119606227.537 6  93199658.84344  22760286.039    22760288.598
        41.500          27.300
 111737109.303 8  87067935.93746  21262847.461    21262849.488
        48.400          36.800
 113248069.790 8  88245301.17046  21550381.617    21550383.234
        50.800          37.900
 123174224.014 6  95979908.22344  23439253.141    23439260.410
        41.400          24.200
 112700745.724 8  87818684.30946  21446209.656    21446213.871
        48.900          38.100
 108888797.811 8  84848487.83747  20720828.945    20720833.344
        53.000          42.100
 129414206.318 5                  24626686.805
        32.200
 113484040.126 8  88429200.99946  21595278.430    21595283.262
        51.700          39.400
 195317368.602 7                  37167686.625
        46.800
 195904886.965 7                  37279460.250
        47.300
 197619087.320 7                  37621148.875
        42.800
 17  9  1  0 36 30.0000000  0 12G08G14G18G21G24G27G10G15G32S38S35S33
 122890739.799 6  95759089.73844  23385345.023    23385351.027
        41.500          28.100
 119512166.802 7  93126364.80144  22742386.492    22742390.570
        43.500          29.400
 111768368.482 8  87092293.72846  21268795.813    21268797.367
        48.100          36.800
 113284717.907 8  88273858.11446  21557355.375    21557356.992
        49.700          36.400
 123158563.654 6  95967705.35144  23436273.570    23436280.254
        40.900          26.000
 112700852.715 8  87818767.67446  21446229.977    21446234.598
        49.300          39.200
 108883227.743 8  84844147.53547  20719768.711    20719773.320
        51.800          42.200
 129522216.622 5                  24647240.969
        35.400
 113408143.236 8  88370060.59546  21580835.258    21580840.914
        50.900          39.500
 195317428.392 7                  37167698.500
        47.400
 195904920.814 7                  37279467.391
        47.400
 197620173.311 7                  37621356.438
        42.900
 17  9  1  0 37  0.0000000  0 12G08G14G18G21G24G27G10G15G32S38S35S33
 122828813.416 6  95710835.42644  23373561.023    23373566.656
        41.700          28.100
 119418367.491 7  93053274.51644  22724536.328    22724540.430
        44.700          27.900
 111799735.340 8  87116735.42946  21274764.867    21274766.805
        48.600          37.200
 113321716.530 8  88302688.19846  21564396.031    21564397.797
        49.900          36.900
 123143410.319 6  95955897.62244  23433390.000    23433395.574
        41.300          24.700
 112701552.839 8  87819313.22046  21446363.070    21446367.172
        49.000          38.100
 108877872.589 8  84839974.68746  20718749.344    20718754.129
        52.000          41.800
 129630322.488 5                  24667812.672
        35.700
 113332646.973 8  88311232.35446  21566468.750    21566473.945
        50.700          38.800
 195317487.719 7                  37167709.531
        47.600
 195904955.157 7                  37279473.531
        46.900
 197621253.352 7                  37621562.813
        42.000
 17  9  1  0 37 30.0000000  0 12G08G14G18G21G24G27G10G15G32S38S35S33
 122767347.342 7  95662939.80644  23361864.711    23361869.305
        42.100          29.600
 119324832.417 7  92980390.09444  22706737.539    22706739.785
        42.000          27.200
 111831210.100 8  87141261.20746  21280754.164    21280756.156
        49.300          37.800
 113359066.631 8  88331792.15646  21571503.336    21571505.645
        50.500          37.500
 123128764.687 6  95944485.48644  23430603.094    23430609.461
        41.800          25.700
 112702846.279 8  87820321.09646  21446609.539    21446613.980
        49.900          38.600
 108872732.296 8  84835969.27946  20717771.336    20717775.844
        52.200          41.700
 129738521.995 5                  24688401.414
        35.400
 113257553.462 8  88252717.98146  21552179.070    21552183.977
        52.200          39.800
 195317547.683 8                  37167720.547
        48.000
 195904987.951 7                  37279479.594
        47.700
 197622330.100 6                  37621765.125
        41.900
 17  9  1  0 38  0.0000000  0 12G08G14G18G21G24G27G10G15G32S38S35S33
 122706342.920 7  95615403.92544  23350255.430    23350260.707
        42.100          29.000
 119231563.422 7  92907712.96344  22688989.516    22688992.090
        42.900          27.200
 111862792.167 8  87165870.60446  21286764.492    21286765.711
        48.400          36.500
 113396768.745 8  88361170.42046  21578677.914    21578679.738
        50.700          37.300
 123114629.219 6  95933470.85444  23427912.953    23427919.445
        40.600          24.500
 112704732.543 8  87821790.89246  21446968.344    21446972.660
        50.000          39.000
 108867805.960 8  84832130.57946  20716833.820    20716838.184
        52.900          41.800
 129846812.316 5                  24709008.453
        35.100
 113182864.134 8  88194518.52446  21537965.992    21537970.988
        51.200          39.400
 195317606.534 7                  37167732.031
        47.000
 195905022.561 8                  37279486.391
        48.300
 197623399.158 7                  37621966.969
        43.700
 17  9  1  0 38 30.0000000  0 12G08G14G18G21G24G27G10G15G32S38S35S33
 122645802.503 7  95568229.60544  23338734.766    23338740.637
        42.000          28.700
 119138562.507 7  92835244.79944  22671292.227    22671296.070
        44.600          28.800
 111894481.131 7  87190563.30046  21292793.984    21292796.109
        47.800          37.500
 113434823.482 8  88390823.43546  21585919.625    21585920.621
        50.200          37.300
 123101004.584 7  95922854.29444  23425320.891    23425327.121
        42.400          25.600
 112707211.421 8  87823722.48646  21447439.680    21447444.383
        48.400          38.700
 108863093.138 8  84828458.26047  20715937.172    20715941.676
        51.200          42.200
 129955191.726 5                  24729633.430
        33.200
 113108580.837 8  88136635.44546  21523830.398    21523835.801
        51.700          39.900
 195317665.893 7                  37167742.875
        46.300
 195905055.492 8                  37279493.547
        48.100
 197624464.317 6                  37622172.359
        41.900
 17  9  1  0 39  0.0000000  0 12G08G14G18G21G24G27G10G15G32S38S35S33
 122585728.338 6  95521418.59644  23327303.289    23327308.992
        41.600          28.100
 119045831.662 7  92762987.02944  22653645.664    22653649.902
        43.600          28.000
 111926277.069 7  87215339.35246  21298844.938    21298846.543
        47.700          36.800
 113473231.376 8  88420751.64146  21593228.469    21593230.070
        50.700          36.200
 123087892.718 6  95912637.28444  23422826.508    23422831.352
        41.100          25.700
 112710282.867 7  87826115.81346  21448024.703    21448029.176
        47.300          39.000
 108858593.596 8  84824952.14046  20715080.805    20715085.176
        51.200          41.600
 130063657.888 5                  24750274.891
        31.900
 113034705.460 8  88079070.26346  21509772.664    21509777.320
        51.900          39.200
 195317726.670 7                  37167754.109
        46.600
 195905090.145 7                  37279499.141
        46.700
 197625523.753 6                  37622372.063
        41.900
 17  9  1  0 39 30.0000000  0 12G08G14G18G21G24G27G10G15G32S38S35S33
 122526121.962 7  95474972.07444  23315960.680    23315965.203
        42.500          26.400
 118953373.419 7  92690941.65944  22636051.547    22636054.230
        44.100          28.400
 111958179.759 8  87240198.58046  21304915.953    21304917.289
        48.000          37.600
 113511992.696 7  88450955.25946  21600604.422    21600606.770
        47.600          37.300
 123075294.781 6  95902820.76144  23420428.117    23420433.910
        40.500          24.800
 112713946.543 8  87828970.61146  21448721.555    21448726.352
        49.100          39.200
 108854306.671 8  84821611.67547  20714265.133    20714269.402
        51.900          42.200
 130172208.289 5                  24770930.422
        31.500
 112961239.670 8  88021824.22846  21495792.039    21495797.426
        50.700          39.500
 195317787.031 7                  37167766.250
        47.000
 195905124.423 7                  37279506.063
        47.300
 197626578.010 6                  37622572.375
        41.800
 17  9  1  0 40  0.0000000  0 12G08G14G18G21G24G27G10G15G32S38S35S33
 122466984.970 6  95428891.32944  23304706.781    23304712.289
        40.800          27.200
 118861189.474 7  92619110.07144  22618509.313    22618511.836
        44.100          28.300
 111990187.848 7  87265139.94346  21311006.688    21311008.238
        46.800          36.900
 113551106.882 8  88481433.85146  21608047.305    21608050.023
        48.200          36.900
 123063211.531 6  95893405.26744  23418128.219    23418134.879
        40.500          24.600
 112718201.483 7  87832286.15146  21449531.156    21449535.918
        47.500          38.600
 108850231.269 8  84818436.06646  20713489.719    20713493.672
        51.600          41.100
 130280839.84914                  24791601.859
        29.100
 112888184.595 8  87964898.21546  21481890.602    21481895.148
        50.400          39.000
 195317846.374 7                  37167777.297
        47.500
 195905157.608 7                  37279512.500
        47.000
 197627628.531 6                  37622773.375
        41.100
 17  9  1  0 40 30.0000000  0 11G08G14G18G21G24G27G10G32S38S35S33
 122408319.254 7  95383177.80444  23293543.617    23293549.238
        42.300          27.000
 118769281.729 7  92547493.69245  22601019.680    22601023.344
        43.200          30.400
 112022300.893 8  87290163.09746  21317117.969    21317120.008
        48.600          37.300
 113590574.554 8  88512187.87646  21615558.203    21615560.434
        49.500          37.300
 123051644.689 6  95884392.18044  23415927.477    23415933.902
        40.900          25.700
 112723047.403 8  87836062.18246  21450453.336    21450458.223
        48.800          38.800
 108846366.898 8  84815424.87047  20712754.148    20712758.625
        52.100          42.300
 112815541.859 8  87908293.53046  21468066.938    21468071.730
        52.100          39.800
 195317905.606 8                  37167788.438
        48.000
 195905192.237 7                  37279519.266
        47.000
 197628672.879 7                  37622972.516
        42.100
 17  9  1  0 41  0.0000000  0 11G08G14G18G21G24G27G10G32S38S35S33
 122350126.924 6  95337833.14944  23282469.844    23282475.195
        41.700          27.900
 118677652.607 7  92476094.41144  22583583.336    22583587.770
        43.100          29.600
 112054519.004 8  87315268.12346  21323248.555    21323250.211
        49.100          36.900
 113630396.359 8  88543217.83146  21623136.055    21623137.727
        49.800          36.600
 123040595.224 6  95875782.22344  23413825.219    23413830.848
        40.900          26.300
 112728484.071 8  87840298.55146  21451488.148    21451492.320
        48.700          38.700
 108842713.257 8  84812577.88247  20712059.141    20712063.484
        50.200          42.300
 112743313.351 8  87852011.61746  21454322.141    21454326.965
        50.700          38.700
 195317964.801 8                  37167799.859
        48.000
 195905225.822 7                  37279524.563
        46.600
 197629711.700 6                  37623171.188
        41.900
 17  9  1  0 41 30.0000000  0 12G08G14G18G21G24G27G10G15G32S38S35S33
 122292409.924 7  95292858.87844  23271486.602    23271491.309
        42.200          27.800
 118586304.176 7  92404913.84944  22566200.563    22566203.656
        43.400          29.300
 112086842.070 8  87340454.92246  21329399.727    21329401.113
        48.700          38.000
 113670572.705 8  88574524.06146  21630781.492    21630783.082
        48.100          37.700
 123030064.782 6  95867576.70844  23411820.336    23411826.703
        41.900          27.100
 112734511.271 8  87844995.05746  21452635.313    21452639.578
        49.800          39.600
 108839269.962 8  84809894.79447  20711403.672    20711407.836
        52.500          42.300
 130607192.51215                  24853707.531
        32.000
 112671500.861 8  87796053.85346  21440656.820    21440661.414
        51.900          39.400
 195318024.824 7                  37167810.688
        47.500
 195905259.499 7                  37279532.141
        47.800
 197630747.007 6                  37623366.188
        41.800
 17  9  1  0 42  0.0000000  0 12G08G14G18G21G24G27G10G15G32S38S35S33
 122235169.268 7  95248255.76344  23260593.570    23260598.570
        42.300          26.300
 118495237.219 7  92333952.64644  22548870.750    22548872.512
        43.900          28.700
 112119268.584 8  87365722.33546  21335569.914    21335571.773
        48.100          36.600
 113711102.599 8  88606105.77646  21638493.734    21638495.195
        49.900          36.900
 123020054.254 6  95859776.31744  23409915.883    23409922.488
        40.600          24.300
 112741127.264 8  87850150.37446  21453893.875    21453897.922
        48.500          38.700
 108836035.254 8  84807374.24647  20710788.430    20710792.648
        51.400          42.400
 130716126.24515                  24874436.313
        34.500
 112600104.713 8  87740420.54446  21427070.609    21427075.715
        52.000          39.400
 195318082.559 7                  37167822.563
        46.500
 195905292.882 7                  37279537.766
        47.800
 197631773.090 7                  37623561.797
        42.200
 17  9  1  0 42 30.0000000  0 12G08G14G18G21G24G27G10G15G32S38S35S33
 122178407.928 7  95204026.16344  23249793.273    23249798.762
        42.800          27.900
 118404455.204 7  92263213.45544  22531595.289    22531598.316
        42.100          29.200
 112151799.478 8  87391071.07846  21341760.516    21341762.105
        48.200          37.600
 113751987.964 8  88637964.48946  21646274.266    21646276.086
        50.000          37.600
 123010564.645 6  95852381.86044  23408110.492    23408115.613
        41.700          27.700
 112748333.026 8  87855765.24946  21455265.336    21455269.414
        49.700          39.400
 108833010.049 8  84805016.94147  20710212.750    20710217.344
        50.800          43.000
 130825130.30215                  24895179.250
        34.600
 112529128.031 8  87685114.06446  21413563.883    21413569.227
        50.900          39.500
 195318141.351 7                  37167833.625
        47.800
 195905326.736 8                  37279544.000
        48.200
 197632796.917 6                  37623754.484
        41.900
 17  9  1  0 43  0.0000000  0 12G08G14G18G21G24G27G10G15G32S38S35S33
 122122126.854 7  95160170.78144  23239083.344    23239088.313
        43.000          27.900
 118313959.599 7  92192697.43044  22514374.641    22514378.902
        43.300          29.300
 112184433.796 7  87416500.41246  21347970.609    21347972.504
        47.500          37.200
 113793228.309 8  88670099.81846  21654122.195    21654124.313
        48.800          37.000
 123001597.835 7  95845394.77844  23406404.352    23406409.676
        42.100          25.100
 112756127.328 8  87861838.73746  21456748.352    21456752.285
        49.100          37.900
 108830193.074 8  84802821.90147  20709676.445    20709681.141
        52.900          42.900
 130934201.81115                  24915934.406
        34.200
 112458571.550 8  87630135.01346  21400137.680    21400142.059
        51.400          39.200
 195318199.433 7                  37167844.781
        47.300
 195905359.751 7                  37279550.375
        46.700
 197633814.507 6                  37623953.672
        41.700
 17  9  1  0 43 30.0000000  0 12G08G14G18G21G24G27G10G15G32S38S35S33
 122066328.346 7  95116691.43944  23228465.141    23228470.188
        42.000          27.800
 118223752.988 7  92122406.61145  22497208.750    22497213.297
        43.600          30.500
 112217171.839 7  87442010.56846  21354200.641    21354202.379
        47.800          36.900
 113834824.696 8  88702512.58046  21662037.516    21662039.762
        49.100          37.400
 122993154.622 6  95838815.66544  23404797.023    23404802.832
        40.300          25.600
 112764510.163 8  87868370.81346  21458343.609    21458348.141
        49.300          38.800
 108827584.386 8  84800789.15447  20709179.867    20709184.633
        52.200          42.900
 131043339.032 5                  24936703.086
        35.000
 112388437.411 8  87575485.08246  21386791.500    21386796.922
        50.600          40.000
 195318259.412 7                  37167855.531
        47.200
 195905393.407 7                  37279556.531
        47.200
 197634827.105 7                  37624143.078
        42.000
 17  9  1  0 44  0.0000000  0 12G08G14G18G21G24G27G10G15G32S38S35S33
 122011014.204 6  95073589.54244  23217938.594    23217944.035
        41.400          28.500
 118133836.926 7  92052342.20544  22480098.453    22480101.750
        43.100          29.100
 112250012.537 7  87467600.72546  21360449.719    21360451.586
        47.900          36.500
 113876776.845 7  88735202.56046  21670020.773    21670023.063
        47.400          36.500
 122985235.873 6  95832645.22844  23403290.398    23403295.746
        41.400          24.700
 112773480.493 7  87875360.68746  21460050.422    21460054.633
        47.300          38.700
 108825182.958 8  84798917.91647  20708723.414    20708727.426
        52.100          43.300
 131152538.996 5                  24957482.281
        32.800
 112318726.740 8  87521165.09646  21373525.961    21373530.980
        50.500          39.100
 195318317.950 7                  37167867.109
        47.600
 195905426.876 7                  37279562.563
        47.500
 197635833.647 7                  37624334.547
        42.700
 17  9  1  0 44 30.0000000  0 12G08G14G18G21G24G27G10G15G32S38S35S33
 121956185.867 6  95030866.22444  23207505.547    23207510.887
        41.400          28.300
 118044213.158 7  91982505.54645  22463043.211    22463046.230
        42.700          30.000
 112282956.206 8  87493271.10646  21366718.617    21366720.313
        48.700          37.500
 113919084.916 8  88768169.86146  21678071.734    21678073.996
        49.300          37.400
 122977843.530 6  95826884.95744  23401883.094    23401889.598
        39.900          25.500
 112783037.833 8  87882807.96746  21461869.023    21461873.738
        49.300          39.400
 108822988.436 8  84797207.88447  20708305.523    20708309.902
        52.500          42.700
 131261799.637 5                  24978273.461
        31.200
 112249441.123 8  87467176.32346  21360341.414    21360346.672
        50.700          40.300
 195318375.675 8                  37167877.813
        48.000
 195905460.145 7                  37279569.172
        47.900
 197636836.519 7                  37624525.438
        43.900
 17  9  1  0 45  0.0000000  0 12G08G14G18G21G24G27G10G15G32S38S35S33
 121901845.233 6  94988522.89844  23197164.336    23197169.977
        41.700          27.600
 117954884.032 7  91912898.46344  22446044.766    22446048.387
        44.600          28.900
 112316002.354 8  87519021.35045  21373007.180    21373008.891
        48.800          35.900
 113961748.945 8  88801414.54846  21686190.281    21686192.617
        48.300          36.500
 122970977.987 6  95821535.23544  23400577.273    23400582.539
        41.000          25.000
 112793181.546 8  87890712.15646  21463799.742    21463804.449
        48.000          38.900
 108821000.243 8  84795658.65147  20707927.055    20707931.391
        49.700          42.100
 131371118.74115                  24999076.414
        30.500
 112180582.063 8  87413519.94946  21347237.781    21347242.570
        51.000          39.700
 195318433.845 7                  37167888.766
        47.900
 195905493.949 7                  37279575.672
        47.600
 197637832.702 7                  37624714.297
        42.100
 17  9  1  0 45 30.0000000  0 12G08G14G18G21G24G27G10G15G32S38S35S33
 121847994.047 7  94946560.97244  23186917.133    23186922.633
        43.200          29.700
 117865851.660 7  91843522.63945  22429102.477    22429106.273
        43.200          30.000
 112349150.598 8  87544851.14346  21379315.234    21379316.820
        49.300          36.900
 114004769.190 7  88834936.81146  21694376.719    21694378.875
        47.000          36.500
 122964640.360 6  95816596.83343  23399370.172    23399376.602
        39.400          23.500
 112803910.943 8  87899072.73746  21465841.594    21465845.816
        48.400          39.200
 108819217.885 8  84794269.80447  20707587.953    20707592.371
        50.700          42.600
 131480493.803 5                  25019889.492
        30.300
 112112151.056 8  87360197.10146  21334215.609    21334221.098
        51.200          40.100
 195318492.134 7                  37167900.594
        46.300
 195905527.523 7                  37279581.844
        47.300
 197638824.234 7                  37624904.828
        43.300
 17  9  1  0 46  0.0000000  0 12G08G14G18G21G24G27G10G15G32S38S35S33
 121794634.076 7  94904981.78644  23176763.008    23176768.188
        43.800          29.100
 117777117.361 7  91774379.04645  22412216.813    22412220.156
        43.500          30.000
 112382400.388 8  87570760.06145  21385642.570    21385644.063
        48.500          35.900
 114048146.300 7  88868737.13845  21702631.117    21702632.621
        47.000          35.800
 122958831.708 6  95812070.61544  23398265.609    23398271.398
        39.900          25.200
 112815225.450 8  87907889.22646  21467994.750    21467999.039
        50.200          38.100
 108817640.844 8  84793040.94447  20707287.922    20707292.656
        50.300          42.200
 131589923.06214                  25040711.461
        25.900
 112044149.598 8  87307208.98646  21321275.477    21321280.707
        51.300          40.500
 195318550.161 7                  37167910.625
        46.400
 195905560.536 7                  37279589.109
        46.400
 197639810.187 6                  37625092.719
        41.900
 17  9  1  0 46 30.0000000  0 11G08G14G18G21G24G27G10G32S38S35S33
 121741767.028 7  94863786.69945  23166702.828    23166707.996
        44.100          30.000
 117688683.943 7  91705469.92845  22395388.758    22395391.145
        44.000          30.000
 112415751.995 8  87596748.33346  21391989.109    21391990.078
        48.700          36.800
 114091880.602 8  88902815.81446  21710953.711    21710955.297
        48.900          36.900
 122953553.294 6  95807957.60144  23397261.344    23397267.414
        40.300          24.200
 112827124.653 8  87917161.33846  21470258.445    21470263.016
        49.600          39.400
 108816268.992 8  84791971.96547  20707026.859    20707031.242
        51.800          42.900
 111976579.483 8  87254556.99446  21308417.461    21308422.512
        51.500          40.800
 195318608.802 7                  37167922.250
        46.300
 195905594.212 7                  37279595.031
        46.600
 197640791.376 7                  37625278.531
        42.300
 17  9  1  0 47  0.0000000  0 11G08G14G18G21G24G27G10G32S38S35S33
 121689394.161 7  94822976.67444  23156736.805    23156741.848
        44.200          29.300
 117600552.928 7  91636796.43745  22378618.016    22378620.914
        45.300          30.000
 112449205.121 8  87622815.69445  21398354.969    21398356.008
        48.900          35.800
 114135971.703 8  88937172.47845  21719343.719    21719345.918
        49.800          35.900
 122948805.876 6  95804258.33144  23396356.844    23396363.672
        39.100          25.000
 112839607.367 8  87926888.11546  21472634.328    21472638.543
        50.700          39.200
 108815101.333 8  84791062.09546  20706804.500    20706808.918
        51.800          41.900
 111909441.728 8  87202241.88946  21295641.195    21295645.684
        51.200          39.600
 195318666.522 7                  37167933.516
        46.700
 195905627.824 8                  37279601.906
        48.000
 197641767.960 7                  37625463.516
        42.200
 17  9  1  0 47 30.0000000  0 11G08G14G18G21G24G27G10G32S38S35S33
 121637517.110 7  94782553.02144  23146864.125    23146869.848
        43.500          29.400
 117512725.731 7  91568359.71044  22361904.930    22361907.984
        44.700          29.900
 112482758.664 8  87648961.31146  21404740.258    21404741.434
        49.000          36.500
 114180419.294 8  88971806.96246  21727801.773    21727804.582
        49.100          36.900
 122944590.227 6  95800973.39644  23395554.664    23395560.789
        39.800          26.700
 112852672.259 8  87937068.55046  21475119.984    21475125.172
        49.300          39.300
 108814136.775 8  84790310.49647  20706620.813    20706625.664
        51.600          42.400
 111842737.157 8  87150264.34146  21282948.070    21282953.027
        51.100          40.800
 195318724.535 7                  37167944.438
        47.500
 195905660.589 7                  37279607.516
        47.500
 197642737.437 6                  37625649.859
        41.900
 17  9  1  0 48  0.0000000  0 11G08G14G18G21G24G27G10G32S38S35S33
 121586137.922 7  94742517.31644  23137087.594    23137092.695
        44.100          29.100
 117425204.888 7  91500161.66144  22345250.336    22345252.949
        44.100          29.900
 112516412.904 8  87675185.39446  21411144.367    21411145.867
        48.500          36.100
 114225224.592 8  89006720.15646  21736328.375    21736330.371
        48.900          37.000
 122940907.684 7  95798103.87744  23394854.320    23394860.414
        42.600          26.900
 112866319.529 8  87947702.79246  21477717.461    21477722.160
        48.900          38.300
 108813375.815 8  84789717.54246  20706476.156    20706480.738
        52.400          41.600
 111776468.135 8  87098626.18046  21270337.281    21270342.551
        50.800          40.200
 195318782.019 7                  37167955.781
        47.900
 195905694.435 8                  37279613.922
        48.000
 197643703.239 7                  37625831.391
        42.200
 17  9  1  0 48 30.0000000  0 11G08G14G18G21G24G27G10G32S38S35S33
 121535257.979 7  94702870.61244  23127405.383    23127410.047
        45.100          29.600
 117337991.927 7  91432203.54545  22328654.344    22328656.125
        45.900          30.800
 112550167.287 8  87701487.51746  21417567.102    21417569.520
        49.100          36.400
 114270386.979 8  89041911.58746  21744922.383    21744924.270
        49.700          37.100
 122937758.987 7  95795650.39744  23394255.305    23394261.141
        43.300          28.300
 112880547.930 8  87958789.83846  21480424.805    21480428.941
        49.000          38.000
 108812817.525 8  84789282.51347  20706370.164    20706374.145
        51.800          42.500
 111710635.680 8  87047328.18746  21257809.828    21257814.289
        50.500          40.700
 195318839.655 7                  37167966.547
        47.100
 195905727.948 8                  37279620.859
        48.700
 197644662.732 7                  37626014.406
        42.100
 17  9  1  0 49  0.0000000  0 11G08G14G18G21G24G27G10G32S38S35S33
 121484878.743 7  94663614.09044  23117818.273    23117823.645
        44.700          29.300
 117251089.294 7  91364487.23745  22312117.359    22312119.586
        46.500          30.900
 112584021.856 8  87727867.68946  21424009.578    21424010.582
        48.800          36.200
 114315907.163 8  89077381.81546  21753584.656    21753586.488
        50.300          36.300
 122935145.100 6  95793613.60944  23393757.773    23393763.875
        41.100          28.900
 112895356.616 8  87970329.06246  21483242.984    21483247.660
        50.600          38.300
 108812461.413 8  84789005.01647  20706302.016    20706306.402
        50.900          42.100
 111645241.133 8  86996371.43546  21245365.641    21245370.156
        50.600          40.200
 195318898.006 7                  37167977.453
        47.400
 195905761.166 7                  37279626.938
        47.800
 197645617.153 6                  37626197.375
        41.700
 17  9  1  0 49 30.0000000  0 11G08G14G18G21G24G27G10G32S38S35S33
 121435001.904 7  94624749.02445  23108327.211    23108332.715
        44.900          30.400
 117164498.295 7  91297013.77145  22295638.961    22295641.965
        44.300          30.400
 112617976.320 8  87754325.71246  21430470.938    21430472.762
        50.200          36.300
 114361784.355 8  89113130.24046  21762314.664    21762316.762
        49.300          36.100
 122933066.862 6  95791994.22844  23393362.461    23393368.668
        41.000          28.100
 112910744.596 8  87982319.68746  21486171.234    21486175.793
        50.200          39.200
 108812306.873 8  84788884.60546  20706272.672    20706277.199
        52.500          41.900
 111580285.719 8  86945756.86446  21233004.766    21233009.992
        51.500          40.200
 195318955.147 8                  37167988.016
        48.200
 195905794.144 7                  37279632.484
        47.200
 197646566.280 6                  37626376.969
        41.700
 17  9  1  0 50  0.0000000  0 11G08G14G18G21G24G27G10G32S38S35S33
 121385629.163 7  94586276.77944  23098932.281    23098937.266
        45.000          29.800
 117078220.939 7  91229784.70045  22279221.586    22279224.195
        45.700          30.900
 112652030.200 7  87780861.20045  21436951.305    21436953.027
        47.700          35.000
 114408019.465 8  89149157.55446  21771112.781    21771115.258
        48.100          36.100
 122931524.993 6  95790792.76644  23393068.773    23393075.629
        41.700          28.600
 112926711.132 8  87994761.11946  21489209.273    21489213.805
        50.100          38.300
 108812353.494 8  84788920.93446  20706281.961    20706286.492
        52.500          41.600
 111515770.928 8  86895485.61746  21220728.000    21220733.234
        50.800          40.600
 195319012.265 8                  37167999.578
        48.500
 195905827.147 7                  37279639.156
        47.200
 197647509.530 7                  37626557.734
        42.900
 17  9  1  0 50 30.0000000  0 11G08G14G18G21G24G27G10G32S38S35S33
 121336762.141 7  94548198.59344  23089632.563    23089638.270
        46.200          29.800
 116992259.322 7  91162801.64145  22262863.539    22262865.262
        46.500          32.000
 112686183.787 8  87807474.38046  21443450.141    21443451.859
        48.200          36.200
 114454613.079 8  89185464.21946  21779979.742    21779981.660
        49.100          37.100
 122930520.314 7  95790009.90744  23392878.297    23392883.895
        43.400          29.300
 112943255.416 8  88007652.76146  21492357.492    21492362.039
        50.300          38.300
 108812600.962 8  84789113.76747  20706328.883    20706333.215
        51.900          42.500
 111451698.204 8  86845558.86846  21208535.422    21208540.098
        51.000          40.800
 195319068.815 8                  37168010.063
        48.100
 195905859.393 7                  37279646.141
        47.900
 197648448.391 6                  37626735.031
        41.700
 17  9  1  0 51  0.0000000  0 11G08G14G18G21G24G27G10G32S38S35S33
 121288401.915 7  94510515.31145  23080430.125    23080435.805
        45.100          30.900
 116906615.513 7  91096066.25845  22246565.625    22246568.066
        45.000          30.500
 112720436.704 8  87834164.96345  21449968.539    21449970.281
        48.900          35.900
 114501563.956 7  89222049.27546  21788914.180    21788916.090
        47.700          36.100
 122930053.884 7  95789646.46844  23392789.141    23392795.137
        42.900          29.800
 112960376.310 8  88020993.69846  21495615.797    21495619.914
        50.500          38.700
 108813048.600 8  84789462.57847  20706413.727    20706418.375
        51.900          42.100
 111388068.644 8  86795977.43246  21196427.094    21196432.066
        49.100          40.300
 195319124.735 8                  37168021.188
        48.300
 195905892.409 7                  37279651.906
        46.500
 197649381.278 6                  37626912.969
        41.800
 17  9  1  0 51 30.0000000  0 11G08G14G18G21G24G27G10G32S38S35S33
 121240550.328 7  94473228.35745  23071324.391    23071329.586
        45.700          30.400
 116821291.340 7  91029579.91745  22230328.773    22230332.082
        45.300          31.300
 112754788.543 7  87860932.62446  21456505.508    21456506.883
        47.500          36.300
 114548873.398 8  89258913.74146  21797916.875    21797918.547
        48.600          36.300
 122930126.470 7  95789703.03044  23392802.656    23392808.684
        43.900          28.000
 112978073.260 8  88034783.52446  21498983.164    21498988.020
        49.600          39.400
 108813696.330 8  84789967.31647  20706537.281    20706541.633
        50.600          42.400
 111324884.047 8  86746742.69446  21184403.484    21184408.699
        50.000          41.300
 195319182.730 8                  37168032.078
        48.100
 195905925.688 7                  37279657.688
        47.500
 197650309.482 7                  37627089.547
        42.000
 17  9  1  0 52  0.0000000  0 11G08G14G18G21G24G27G10G32S38S35S33
 121193209.143 7  94436339.13245  23062316.047    23062321.484
        46.000          30.800
 116736288.375 7  90963343.87545  22214153.297    22214156.637
        44.700          30.300
 112789239.091 8  87887777.20945  21463061.156    21463062.645
        49.300          34.900
 114596540.987 8  89296057.27345  21806987.547    21806989.918
        50.300          35.500
 122930738.284 7  95790179.77944  23392919.188    23392924.992
        42.900          26.200
 112996345.077 8  88049021.28146  21502460.391    21502465.152
        48.900          38.200
 108814543.471 8  84790627.43146  20706698.445    20706702.867
        51.700          41.700
 111262145.363 8  86697855.44746  21172464.852    21172469.715
        50.100          40.600
 195319240.124 7                  37168042.109
        46.700
 195905958.598 8                  37279664.422
        48.600
 197651231.923 7                  37627264.531
        42.000
 17  9  1  0 52 30.0000000  0 11G08G14G18G21G24G27G10G32S38S35S33
 121146379.219 7  94399848.29645  23053403.773    23053409.813
        45.100          30.500
 116651608.554 7  90897359.63545  22198039.914    22198042.027
        46.200          31.600
 112823788.290 8  87914698.66146  21469635.820    21469637.242
        48.900          36.200
 114644566.304 8  89333479.56046  21816126.992    21816128.992
        49.100          36.200
 122931890.728 7  95791077.80444  23393139.336    23393144.102
        43.000          28.500
 113015190.417 7  88063705.95146  21506046.328    21506050.738
        47.700          38.800
 108815589.286 8  84791442.35647  20706897.320    20706902.168
        50.300          42.800
 111199853.662 8  86649316.48246  21160610.898    21160615.605
        49.600          41.300
 195319296.561 7                  37168053.234
        47.000
 195905991.612 7                  37279670.672
        47.800
 197652149.038 6                  37627441.094
        41.700
 17  9  1  0 53  0.0000000  0 11G08G14G18G21G24G27G10G32S38S35S33
 121100062.076 7  94363757.03245  23044590.070    23044595.508
        44.200          30.400
 116567253.388 7  90831628.36545  22181987.000    22181989.863
        44.900          31.500
 112858435.401 7  87941696.40945  21476229.141    21476230.211
        47.600          35.500
 114692949.506 8  89371180.71945  21825333.398    21825336.168
        49.300          35.400
 122933584.001 6  95792397.25644  23393461.023    23393467.059
        41.800          28.900
 113034608.268 8  88078836.73046  21509741.695    21509746.043
        49.000          37.900
 108816833.275 8  84792411.70346  20707134.148    20707138.570
        50.800          41.600
 111138010.124 8  86601126.74046  21148842.344    21148847.328
        50.200          40.600
 195319353.852 7                  37168064.313
        47.300
 195906024.812 7                  37279677.156
        46.600
 197653060.851 7                  37627611.625
        42.300
 17  9  1  0 53 30.0000000  0 11G08G14G18G21G24G27G10G32S38S35S33
 121054259.384 7  94328066.65445  23035874.359    23035879.090
        44.600          30.000
 116483225.223 7  90766151.92745  22165997.273    22166000.422
        46.100          31.900
 112893180.960 7  87968770.86446  21482840.633    21482842.270
        47.000          36.100
 114741691.099 7  89409161.16346  21834609.078    21834611.266
        47.300          36.200
 122935819.351 7  95794139.08844  23393886.516    23393892.035
        42.300          29.200
 113054598.142 7  88094413.23646  21513545.750    21513550.137
        47.300          39.300
 108818275.582 8  84793535.58547  20707408.547    20707412.801
        49.700          42.300
 111076616.531 8  86553287.61746  21137159.633    21137164.719
        49.600          41.000
 195319410.197 7                  37168074.109
        47.300
 195906057.630 7                  37279683.359
        46.500
 197653968.126 6                  37627786.219
        41.700
 17  9  1  0 54  0.0000000  0 11G08G14G18G21G24G27G10G32S38S35S33
 121008972.403 7  94292778.11545  23027256.633    23027261.570
        45.400          30.600
 116399525.346 7  90700931.27045  22150069.594    22150072.801
        45.800          32.700
 112928024.478 7  87995921.65445  21489471.391    21489473.227
        47.300          35.700
 114790790.310 7  89447420.24145  21843952.297    21843954.629
        47.600          35.300
 122938596.994 7  95796303.49144  23394414.961    23394420.516
        42.200          29.300
 113075158.214 8  88110434.07646  21517458.305    21517462.879
        48.800          37.900
 108819915.028 8  84794813.07246  20707720.625    20707725.004
        50.000          41.300
 111015673.479 8  86505799.55646  21125562.617    21125567.090
        50.000          40.500
 195319466.624 7                  37168086.234
        46.400
 195906090.197 7                  37279688.375
        46.700
 197654867.854 6                  37627956.484
        41.700
 17  9  1  0 54 30.0000000  0 11G08G14G18G21G24G27G10G32S38S35S33
 120964202.774 7  94257892.66944  23018737.102    23018742.313
        45.800          29.800
 116316155.904 7  90635968.08745  22134204.820    22134207.855
        45.600          31.800
 112962965.755 7  88023148.61746  21496120.117    21496121.883
        47.600          36.500
 114840247.968 7  89485958.63145  21853363.641    21853365.457
        47.800          35.800
 122941917.831 7  95798891.16444  23395046.547    23395052.348
        44.200          29.300
 113096288.009 7  88126898.82846  21521479.055    21521483.020
        47.700          38.100
 108821751.752 8  84796244.29547  20708070.375    20708074.332
        50.100          42.400
 110955182.761 8  86458663.95246  21114051.570    21114055.746
        48.500          41.000
 195319523.529 7                  37168096.406
        47.300
 195906123.069 7                  37279696.250
        47.000
 197655763.910 6                  37628127.094
        41.800
 17  9  1  0 55  0.0000000  0 11G08G14G18G21G24G27G10G32S38S35S33
 120919951.239 7  94223410.95444  23010316.086    23010321.352
        45.500          28.500
 116233118.591 7  90571263.71345  22118402.734    22118405.965
        46.300          31.900
 112998004.274 8  88050451.34946  21502788.414    21502789.988
        48.600          36.500
 114890063.340 7  89524775.75845  21862843.320    21862845.105
        47.500          35.100
 122945782.001 7  95801902.22244  23395781.914    23395787.879
        42.800          28.300
 113117985.662 8  88143806.07746  21525608.164    21525612.496
        48.300          38.200
 108823784.653 8  84797828.35947  20708457.070    20708461.492
        51.600          42.400
 110895144.790 8  86411881.15646  21102626.547    21102631.395
        49.900          40.500
 195319579.806 7                  37168108.391
        47.100
 195906155.559 7                  37279702.328
        47.300
 197656654.560 7                  37628296.781
        42.200
 17  9  1  0 55 30.0000000  0 11G08G14G18G21G24G27G10G32S38S35S33
 120876219.786 7  94189334.52145  23001994.703    23001999.680
        44.900          30.200
 116150414.812 7  90506819.24645  22102665.031    22102668.492
        46.800          32.300
 113033140.382 7  88077830.11646  21509474.117    21509475.355
        47.300          36.400
 114940236.690 7  89563871.83146  21872390.969    21872392.715
        47.900          36.500
 122950190.224 6  95805337.19844  23396620.367    23396627.164
        41.300          29.500
 113140250.333 8  88161155.15046  21529844.305    21529848.871
        48.700          38.300
 108826013.587 8  84799565.20147  20708881.141    20708885.641
        49.400          42.700
 110835561.133 8  86365452.34146  21091288.055    21091292.602
        49.500          40.700
 195319635.811 7                  37168117.172
        47.300
 195906187.947 7                  37279708.500
        47.500
 197657540.152 7                  37628462.438
        43.000
 17  9  1  0 56  0.0000000  0 11G08G14G18G21G24G27G10G32S38S35S33
 120833009.555 7  94155664.22544  22993771.688    22993777.281
        45.100          29.800
 116068046.574 7  90442636.23445  22086991.391    22086994.477
        45.800          32.700
 113068373.501 7  88105284.49145  21516179.148    21516180.504
        46.800          35.900
 114990767.904 8  89603246.76945  21882006.734    21882008.551
        48.300          35.200
 122955143.268 7  95809196.68944  23397563.375    23397569.902
        43.800          29.000
 113163080.927 7  88178945.20246  21534189.039    21534193.512
        47.300          38.100
 108828438.215 8  84801454.53446  20709342.336    20709347.141
        50.300          41.700
 110776432.965 8  86319378.48046  21080036.617    21080040.859
        50.400          40.900
 195319692.172 7                  37168128.813
        46.700
 195906220.511 7                  37279714.328
        47.900
 197658417.981 7                  37628630.563
        42.800
 17  9  1  0 56 30.0000000  0 11G08G14G18G21G24G27G10G32S38S35S33
 120790321.735 7  94122401.00744  22985648.844    22985653.367
        45.400          29.700
 115986015.646 7  90378716.03845  22071381.188    22071383.875
        46.800          32.600
 113103703.500 7  88132814.35946  21522901.797    21522903.727
        47.000          36.800
 115041656.960 8  89642900.53445  21891690.320    21891692.340
        49.300          35.800
 122960641.473 7  95813481.04844  23398609.945    23398615.738
        43.800          29.300
 113186476.036 8  88197175.13746  21538640.719    21538645.762
        48.100          38.400
 108831057.864 8  84803495.81847  20709840.859    20709845.133
        51.200          42.300
 110717761.231 8  86273660.26946  21068871.727    21068876.348
        50.000          40.800
 195319747.675 7                  37168138.750
        47.600
 195906252.795 8                  37279720.031
        48.100
 197659292.422 7                  37628797.500
        43.800
 17  9  1  0 57  0.0000000  0 11G08G14G18G21G24G27G10G32S38S35S33
 120748157.939 7  94089546.10044  22977625.242    22977630.262
        44.500          29.100
 115904324.302 7  90315060.49145  22055836.063    22055838.703
        47.500          31.700
 113139131.236 7  88160420.37445  21529643.250    21529645.637
        46.700          35.800
 115092904.092 7  89682833.31745  21901442.375    21901444.688
        47.600          34.900
 122966685.523 7  95818190.72044  23399759.953    23399766.094
        42.400          27.600
 113210435.003 7  88215844.45046  21543200.289    21543204.609
        47.800          37.900
 108833872.751 8  84805689.23547  20710376.766    20710381.223
        49.800          42.000
 110659547.664 8  86228299.06746  21057794.039    21057798.895
        50.400          40.300
 195319804.438 7                  37168149.875
        47.300
 195906285.733 7                  37279726.453
        47.800
 197660160.386 7                  37628961.609
        42.200
 17  9  1  0 57 30.0000000  0 11G08G14G18G21G24G27G10G32S38S35S33
 120706519.148 7  94057100.31544  22969701.547    22969707.133
        45.400          29.300
 115822973.712 7  90251670.46145  22040355.516    22040358.168
        46.800          33.000
 113174655.422 7  88188101.53946  21536403.297    21536405.191
        46.800          36.100
 115144508.720 7  89723044.71845  21911262.617    21911265.039
        47.400          35.900
 122973275.942 7  95823326.10344  23401013.539    23401020.281
        42.200          28.300
 113234955.999 7  88234951.70046  21547866.766    21547871.734
        47.800          38.400
 108836881.898 8  84808034.01846  20710949.078    20710953.668
        50.900          41.800
 110601792.773 8  86183295.28446  21046803.727    21046808.465
        50.500          41.500
 195319859.926 7                  37168160.859
        47.800
 195906317.954 8                  37279732.453
        48.100
 197661022.716 7                  37629129.266
        42.400
 17  9  1  0 58  0.0000000  0 11G08G14G18G21G24G27G10G32S38S35S33
 120665406.402 7  94025064.41844  22961877.813    22961883.023
        44.900          29.300
 115741965.560 7  90188547.23145  22024939.734    22024942.613
        46.500          32.400
 113210275.854 7  88215857.71645  21543181.781    21543183.887
        46.800          35.600
 115196470.908 8  89763534.75345  21921150.688    21921153.449
        48.300          35.300
 122980412.905 7  95828887.38644  23402371.836    23402377.852
        43.200          28.500
 113260037.649 8  88254495.83346  21552639.313    21552644.379
        48.400          38.300
 108840084.771 8  84810529.76946  20711558.664    20711562.977
        51.900          41.600
 110544497.548 8  86138649.67846  21035900.469    21035905.535
        50.500          41.300
 195319915.252 7                  37168170.922
        47.300
 195906350.362 7                  37279738.406
        47.400
 197661880.552 7                  37629290.672
        43.000
 17  9  1  0 58 30.0000000  0 11G08G14G18G21G24G27G10G32S38S35S33
 120624821.258 7  93993439.62944  22954154.828    22954159.965
        43.400          27.900
 115661301.406 8  90125692.08245  22009590.430    22009592.680
        48.200          33.100
 113245993.082 7  88243689.31145  21549978.820    21549980.758
        47.000          35.700
 115248790.236 8  89804303.03745  21931106.836    21931109.168
        48.700          35.800
 122988097.183 7  95834875.13244  23403834.383    23403839.844
        44.400          29.400
 113285678.817 7  88274475.95546  21557518.750    21557523.727
        47.700          38.500
 108843481.099 8  84813176.25847  20712204.984    20712210.039
        51.500          42.300
 110487663.231 8  86094363.21846  21025085.195    21025090.441
        50.700          41.800
 195319970.402 7                  37168180.938
        47.800
 195906382.468 7                  37279744.781
        47.600
 197662732.697 7                  37629454.672
        42.300
 17  9  1  0 59  0.0000000  0 11G08G14G18G21G24G27G10G32S38S35S33
 120584764.734 7  93962226.76844  22946531.859    22946537.324
        43.000          29.600
 115580983.627 7  90063106.85745  21994306.055    21994308.223
        47.600          32.600
 113281806.928 7  88271596.19245  21556793.719    21556796.254
        46.800          35.400
 115301467.017 8  89845349.85445  21941130.859    21941133.250
        48.300          35.000
 122996329.015 7  95841289.56944  23405401.203    23405406.590
        43.600          27.500
 113311878.357 8  88294891.17146  21562504.633    21562509.379
        48.100          37.800
 108847070.697 8  84815973.34046  20712888.250    20712892.641
        49.500          41.600
 110431291.041 8  86050436.85446  21014358.508    21014363.199
        51.400          41.600
 195320026.172 7                  37168192.625
        46.700
 195906414.446 7                  37279751.172
        46.400
 197663578.354 7                  37629613.438
        42.500
 17  9  1  0 59 30.0000000  0 11G08G14G18G21G24G27G10G32S38S35S33
 120545238.243 7  93931426.90744  22939010.711    22939015.977
        44.300          29.300
 115501013.466 7  90000792.45645  21979088.039    21979090.430
        46.600          32.400
 113317716.962 7  88299578.03246  21563627.297    21563629.645
        47.300          36.400
 115354501.156 8  89886675.12345  21951222.914    21951225.141
        48.600          35.900
 123005108.758 7  95848130.93144  23407070.867    23407077.387
        43.400          27.200
 113338634.817 8  88315740.34046  21567596.352    21567601.059
        48.100          39.400
 108850853.084 8  84818920.65047  20713608.133    20713612.293
        50.300          42.300
 110375381.946 8  86006871.36146  21003719.258    21003724.059
        50.800          41.300
 195320081.408 7                  37168201.828
        46.300
 195906446.501 7                  37279757.391
        46.900
 197664418.833 7                  37629773.297
        42.600
 17  9  1  1  0  0.0000000  0 11G08G14G18G21G24G27G10G32S38S35S33
 120506242.712 7  93901040.78045  22931590.078    22931595.164
        44.100          30.200
 115421392.758 8  89938750.38445  21963936.961    21963939.789
        48.600          32.600
 113353723.206 7  88327634.82746  21570478.820    21570480.863
        46.900          36.500
 115407892.478 8  89928278.70645  21961383.016    21961385.203
        48.200          35.800
 123014436.801 7  95855399.53444  23408846.336    23408852.336
        42.700          26.600
 113365946.736 8  88337022.34146  21572793.578    21572798.469
        48.800          37.500
 108854827.746 8  84822017.78246  20714364.250    20714368.668
        50.000          41.800
 110319936.894 8  85963667.44446  20993168.328    20993173.031
        50.400          41.000
 195320135.481 7                  37168213.031
        46.700
 195906479.007 7                  37279762.828
        46.800
 197665255.531 6                  37629931.297
        41.700
 17  9  1  1  0 30.0000000  0 11G08G14G18G21G24G27G10G32S38S35S33
 120467779.568 7  93871069.48745  22924270.680    22924275.465
        45.200          30.900
 115342123.453 7  89876982.14845  21948852.258    21948854.867
        47.000          32.600
 113389825.861 8  88355766.75646  21577349.344    21577351.402
        48.300          36.400
 115461640.457 8  89970160.18245  21971610.891    21971613.285
        48.400          35.500
 123024313.602 7  95863095.73744  23410726.156    23410732.320
        44.400          28.500
 113393812.938 8  88358736.25346  21578096.070    21578100.688
        48.200          38.100
 108858994.577 8  84825264.66447  20715157.047    20715161.430
        49.800          42.000
 110264957.105 8  85920826.07246  20982705.773    20982710.711
        50.900          41.500
 195320190.553 7                  37168223.266
        46.100
 195906511.141 7                  37279769.578
        46.400
 197666086.729 7                  37630091.141
        42.300
 17  9  1  1  1  0.0000000  0 11G08G14G18G21G24G27G10G32S38S35S33
 120429849.752 7  93841513.79544  22917053.070    22917058.445
        43.400          29.600
 115263206.546 7  89815488.45945  21933834.438    21933837.414
        46.000          31.900
 113426024.355 8  88383973.36945  21584237.422    21584239.426
        48.000          35.700
 115515745.071 8  90012319.57645  21981906.836    21981909.211
        48.000          34.900
 123034739.571 7  95871219.88244  23412709.875    23412716.051
        44.000          27.400
 113422231.910 7  88380880.90646  21583504.180    21583508.734
        47.800          38.300
 108863353.044 8  84828660.86646  20715986.352    20715990.977
        50.500          41.500
 110210443.407 8  85878347.88946  20972331.953    20972337.375
        50.500          41.700
 195320245.731 7                  37168234.656
        46.200
 195906543.944 7                  37279776.094
        47.100
 197666911.707 6                  37630248.172
        41.500
 17  9  1  1  1 30.0000000  0 11G08G14G18G21G24G27G10G32S38S35S33
 120392454.214 7  93812374.42744  22909936.539    22909941.883
        43.300          28.900
 115184643.781 7  89754270.76345  21918884.977    21918887.391
        47.900          33.800
 113462318.486 7  88412254.48745  21591143.883    21591146.145
        47.500          35.700
 115570205.786 8  90054756.44945  21992270.602    21992272.301
        48.900          35.400
 123045714.443 7  95879771.72544  23414798.445    23414804.090
        43.700          28.600
 113451201.715 8  88403454.75146  21589017.000    21589020.996
        49.500          38.600
 108867902.261 8  84832205.71447  20716852.313    20716856.887
        50.200          42.300
 110156396.276 8  85836233.26646  20962047.258    20962051.754
        51.000          41.800
 195320300.023 7                  37168244.094
        46.200
 195906575.767 7                  37279781.844
        47.000
 197667730.840 6                  37630402.313
        41.600
 17  9  1  1  2  0.0000000  0 11G08G14G18G21G24G27G10G32S38S35S33
 120355594.419 7  93783652.51444  22902923.352    22902927.605
        44.100          29.300
 115106437.185 7  89693330.60145  21904002.461    21904005.680
        47.500          32.800
 113498708.737 7  88440610.52646  21598069.148    21598070.809
        47.900          36.100
 115625022.970 8  90097471.07145  22002702.414    22002704.703
        48.800          35.700
 123057238.711 7  95888751.67344  23416991.383    23416997.504
        44.100          27.000
 113480721.438 8  88426457.12846  21594634.555    21594639.176
        48.200          38.100
 108872642.476 8  84835899.37947  20717754.203    20717758.301
        50.500          42.000
 110102817.274 8  85794483.43046  20951851.578    20951856.160
        51.000          41.300
 195320355.298 7                  37168254.781
        47.000
 195906607.906 7                  37279787.609
        47.200
 197668544.910 7                  37630560.578
        42.500
 17  9  1  1  2 30.0000000  0 11G08G14G18G21G24G27G10G32S38S35S33
 120319270.991 7  93755348.51645  22896010.133    22896015.668
        44.500          31.200
 115028587.575 8  89632668.58645  21889187.734    21889191.547
        48.200          33.300
 113535194.437 8  88469040.94246  21605012.070    21605013.484
        50.100          36.300
 115680195.980 8  90140462.99245  22013200.875    22013203.840
        49.000          35.500
 123069312.729 7  95898159.99944  23419288.570    23419294.672
        45.200          27.900
 113510788.993 8  88449886.38346  21600355.836    21600360.738
        49.700          38.300
 108877572.753 8  84839741.14346  20718692.266    20718696.621
        50.000          41.600
 110049706.777 8  85753098.64647  20941745.273    20941749.516
        51.100          42.000
 195320410.400 7                  37168264.766
        46.400
 195906639.626 7                  37279794.313
        46.600
 197669352.484 6                  37630712.750
        41.600
 17  9  1  1  3  0.0000000  0 11G08G14G18G21G24G27G10G32S38S35S33
 120283485.037 7  93727463.35145  22889200.734    22889205.531
        45.800          30.500
 114951097.173 8  89572286.50345  21874442.602    21874445.191
        48.500          33.600
 113571776.017 8  88497546.06145  21611973.313    21611974.680
        48.200          35.100
 115735724.832 8  90183732.21445  22023767.852    22023769.941
        48.800          35.200
 123081936.875 7  95907996.99944  23421690.930    23421697.016
        44.900          28.300
 113541403.407 8  88473741.76446  21606181.578    21606186.223
        48.600          37.100
 108882693.169 8  84843731.08146  20719666.922    20719671.035
        49.900          41.600
 109997066.181 8  85712080.01846  20931727.852    20931732.754
        49.500          41.700
 195320464.704 7                  37168276.031
        46.600
 195906671.818 7                  37279799.906
        46.600
 197670156.655 6                  37630864.016
        41.500
 17  9  1  1  3 30.0000000  0 11G08G14G18G21G24G27G10G32S38S35S33
 120248237.715 7  93699997.90344  22882493.359    22882498.086
        45.100          29.900
 114873967.636 8  89512185.60545  21859765.367    21859768.340
        48.900          34.100
 113608453.224 7  88526125.70245  21618952.594    21618953.934
        47.300          35.800
 115791608.888 8  90227278.16045  22034402.203    22034404.379
        48.700          34.900
 123095111.132 7  95918262.67644  23424198.469    23424203.543
        44.400          28.500
 113572562.903 8  88498021.87346  21612111.531    21612116.008
        48.800          38.500
 108888003.237 8  84847868.79547  20720677.281    20720681.676
        49.900          42.400
 109944896.132 8  85671428.05046  20921800.273    20921804.477
        49.900          41.700
 195320519.160 7                  37168286.500
        46.800
 195906703.485 7                  37279806.000
        47.000
 197670954.958 6                  37631019.063
        41.800
 17  9  1  1  4  0.0000000  0 11G08G14G18G21G24G27G10G32S38S35S33
 120213529.954 7  93672952.89544  22875888.492    22875894.125
        43.500          28.900
 114797200.408 7  89452367.00245  21845156.820    21845160.117
        47.000          34.000
 113645225.870 8  88554779.70545  21625950.570    21625951.746
        48.100          34.800
 115847848.447 8  90271101.12645  22045104.047    22045106.438
        48.400          34.000
 123108835.508 7  95928956.98144  23426810.055    23426815.992
        44.500          27.200
 113604265.959 8  88522725.54546  21618143.992    21618148.566
        48.800          37.300
 108893502.570 8  84852153.99146  20721723.750    20721728.215
        50.300          41.700
 109893197.554 8  85631143.47446  20911962.531    20911967.059
        50.000          41.400
 195320574.106 7                  37168296.891
        46.500
 195906735.853 7                  37279812.313
        47.500
 197671746.144 6                  37631166.906
        41.500
 17  9  1  1  4 30.0000000  0 11G08G14G18G21G24G27G10G32S38S35S33
 120179362.470 7  93646328.91945  22869387.242    22869391.875
        44.300          30.500
 114720796.797 8  89392831.76645  21830618.008    21830620.930
        49.400          35.700
 113682093.886 8  88583508.02245  21632965.953    21632967.473
        48.100          35.000
 115904442.825 7  90315200.59645  22055873.680    22055875.707
        47.300          34.400
 123123110.352 7  95940080.23344  23429527.086    23429532.453
        44.200          28.600
 113636510.728 7  88547851.31546  21624280.266    21624285.340
        47.600          39.000
 108899190.509 8  84856586.15147  20722806.234    20722810.262
        50.000          42.800
 109841971.032 8  85591226.72147  20902214.102    20902218.828
        49.500          42.200
 195320629.221 7                  37168307.000
        46.300
 195906767.738 7                  37279818.047
        47.300
 197672534.274 6                  37631319.375
        41.700
 17  9  1  1  5  0.0000000  0 11G08G14G18G21G24G27G10G32S38S35S33
 120145736.774 7  93620127.05445  22862988.383    22862992.941
        42.800          30.000
 114644758.707 8  89333581.35745  21816148.227    21816151.281
        48.700          34.300
 113719057.421 7  88612310.76145  21639999.961    21640001.059
        47.200          34.300
 115961391.863 7  90359576.43545  22066711.070    22066713.172
        46.200          34.100
 123137935.638 7  95951632.41044  23432348.195    23432353.324
        44.600          27.000
 113669296.009 7  88573398.27446  21630519.219    21630523.516
        47.600          38.700
 108905067.264 8  84861165.45147  20723924.500    20723928.637
        50.700          42.300
 109791217.850 8  85551678.83146  20892556.359    20892560.660
        50.700          41.700
 195320683.006 7                  37168317.016
        46.600
 195906798.992 8                  37279824.031
        48.800
 197673314.836 6                  37631466.188
        41.500
 17  9  1  1  5 30.0000000  0 11G08G14G18G21G24G27G10G32S38S35S33
 120112653.322 7  93594347.73745  22856692.453    22856697.371
        45.400          31.800
 114569087.203 8  89274616.57145  21801748.258    21801750.625
        48.000          34.400
 113756116.033 8  88641187.59145  21647052.000    21647053.289
        48.500          35.000
 116018694.799 7  90404228.02145  22077615.445    22077617.691
        47.800          34.000
 123153311.537 7  95963613.63244  23435274.086    23435279.410
        45.300          27.100
 113702619.696 8  88599364.76846  21636860.195    21636864.531
        48.300          38.700
 108911131.870 8  84865891.12147  20725079.063    20725083.008
        52.100          42.500
 109740938.383 8  85512500.03846  20882988.203    20882992.531
        50.500          41.600
 195320736.328 7                  37168326.344
        46.300
 195906831.316 8                  37279829.828
        48.500
 197674090.073 7                  37631614.688
        42.800
 17  9  1  1  6  0.0000000  0 11G08G14G18G21G24G27G10G32S38S35S33
 120080113.200 7  93568991.79445  22850500.406    22850505.492
        44.500          30.100
 114493784.130 8  89215938.88745  21787418.508    21787421.102
        48.200          34.000
 113793269.974 7  88670138.71045  21654122.000    21654123.258
        46.500          34.400
 116076351.802 7  90449155.52545  22088587.047    22088589.230
        47.800          33.000
 123169238.076 7  95976023.91544  23438304.695    23438310.129
        44.400          28.200
 113736480.431 7  88625749.73946  21643303.820    21643308.031
        47.200          37.900
 108917384.357 8  84870763.18746  20726268.695    20726272.898
        49.600          41.600
 109691133.667 8  85473691.19546  20873510.344    20873515.152
        50.600          41.600
 195320790.947 7                  37168337.781
        47.900
 195906862.397 7                  37279835.953
        47.000
 197674860.601 6                  37631761.594
        41.600
 17  9  1  1  6 30.0000000  0 11G08G14G18G21G24G27G10G32S38S35S33
 120048117.402 7  93544060.00645  22844411.297    22844416.902
        43.000          30.800
 114418851.073 7  89157549.53145  21773159.039    21773162.305
        47.500          34.200
 113830519.536 7  88699164.32945  21661210.664    21661212.371
        47.200          35.400
 116134362.444 7  90494358.58745  22099626.016    22099628.555
        47.200          34.200
 123185715.505 7  95988863.46744  23441440.281    23441446.098
        43.900          27.900
 113770876.665 7  88652551.98646  21649849.148    21649853.348
        47.800          38.300
 108923824.508 8  84875781.48547  20727493.734    20727498.195
        50.600          42.500
 109641804.624 8  85435252.99646  20864123.563    20864128.570
        51.800          41.900
 195320844.427 7                  37168348.016
        46.300
 195906894.050 7                  37279842.594
        47.200
 197675625.581 6                  37631906.125
        41.700
 17  9  1  1  7  0.0000000  0 11G08G14G18G21G24G27G10G32S38S35S33
 120016666.520 7  93519552.84845  22838427.109    22838432.152
        44.100          31.100
 114344289.476 7  89099449.60445  21758970.359    21758972.910
        46.800          33.400
 113867864.319 7  88728264.15145  21668316.789    21668318.504
        46.600          34.600
 116192726.530 7  90539837.04245  22110732.703    22110735.047
        47.700          34.600
 123202743.420 7  96002131.94244  23444680.125    23444685.758
        45.100          28.500
 113805806.489 7  88679770.01046  21656496.227    21656500.840
        47.000          37.800
 108930451.791 8  84880945.60246  20728754.922    20728759.652
        51.100          41.700
 109592951.796 8  85397185.87047  20854826.883    20854831.730
        52.300          42.100
 195320898.364 7                  37168358.000
        47.100
 195906925.634 7                  37279848.672
        46.800
 197676385.012 6                  37632050.703
        41.800
 17  9  1  1  7 30.0000000  0 11G08G14G18G21G24G27G10G32S38S35S33
 119985761.634 7  93495471.12345  22832545.734    22832550.617
        45.400          32.700
 114270100.824 7  89041640.29945  21744852.734    21744855.754
        47.400          34.800
 113905304.478 8  88757438.29245  21675441.617    21675443.195
        48.200          35.300
 116251443.587 7  90585590.55445  22121906.578    22121908.941
        47.900          35.800
 123220322.039 7  96015829.56944  23448025.344    23448030.668
        45.300          28.000
 113841268.220 8  88707402.51446  21663244.234    21663248.746
        48.300          38.000
 108937265.943 8  84886255.33347  20730051.508    20730056.098
        51.600          42.200
 109544576.038 8  85359490.49846  20845621.586    20845626.176
        52.400          41.900
 195320952.387 7                  37168367.875
        46.600
 195906956.790 7                  37279854.359
        47.600
 197677138.394 6                  37632195.547
        41.600
 17  9  1  1  8  0.0000000  0 11G08G14G18G21G24G27G10G32S38S35S33
 119955403.287 7  93471815.26245  22826769.031    22826773.840
        45.100          31.300
 114196286.193 7  88984122.45045  21730806.016    21730809.398
        46.000          33.600
 113942839.213 8  88786686.12845  21682584.203    21682585.906
        48.300          34.000
 116310512.825 8  90631618.48245  22133146.922    22133149.516
        48.700          33.700
 123238451.220 7  96029956.23544  23451475.570    23451480.285
        45.300          27.700
 113877259.783 8  88735447.86546  21670093.289    21670098.055
        49.400          37.900
 108944266.285 8  84891710.14246  20731383.930    20731388.559
        51.300          41.400
 109496677.675 8  85322167.12046  20836506.547    20836511.730
        52.500          41.600
 195321005.564 7                  37168379.188
        46.300
 195906988.499 8                  37279860.578
        48.100
 197677886.606 7                  37632336.750
        42.100
 17  9  1  1  8 30.0000000  0 11G08G14G18G21G24G27G10G32S38S35S33
 119925592.426 7  93448586.03345  22821095.578    22821101.488
        45.500          32.000
 114122848.206 7  88926898.06045  21716831.508    21716833.707
        46.900          34.500
 113980469.838 8  88816008.67945  21689744.984    21689746.750
        48.100          34.600
 116369934.754 7  90677921.26345  22144454.406    22144456.535
        46.800          34.700
 123257131.301 7  96044512.15644  23455030.227    23455035.543
        45.300          27.300
 113913780.366 8  88763905.44246  21677042.977    21677047.457
        49.100          38.100
 108951453.478 8  84897310.55147  20732751.383    20732756.090
        52.000          42.100
 109449258.407 8  85285217.04746  20827482.984    20827487.973
        52.800          41.800
 195321059.112 7                  37168387.938
        46.900
 195907020.398 7                  37279867.094
        47.600
 197678628.262 7                  37632479.266
        42.200
 17  9  1  1  9  0.0000000  0 11G08G14G18G21G24G27G10G32S38S35S33
 119896329.882 7  93425784.05045  22815527.625    22815532.000
        45.500          31.200
 114049787.015 7  88869967.28945  21702928.195    21702930.391
        46.200          33.600
 114018195.285 7  88845405.12745  21696923.844    21696925.367
        47.100          34.400
 116429708.059 8  90724497.83045  22155829.109    22155831.176
        48.000          33.400
 123276361.481 7  96059496.69744  23458689.539    23458695.270
        46.000          27.800
 113950827.168 8  88792773.05746  21684092.602    21684096.938
        48.200          37.400
 108958826.183 8  84903055.51146  20734154.398    20734158.855
        51.500          41.700
 109402317.905 8  85248640.04947  20818551.109    20818555.164
        52.600          42.200
 195321112.727 7                  37168398.891
        47.500
 195907051.722 7                  37279872.891
        47.000
 197679367.042 6                  37632620.953
        41.600
 17  9  1  1  9 30.0000000  0 11G08G14G18G21G24G27G10G32S38S35S33
 119867616.165 7  93403409.72945  22810063.508    22810069.109
        45.100          32.100
 113977104.298 8  88813331.45245  21689097.477    21689099.676
        48.000          34.600
 114056016.217 7  88874875.96945  21704121.000    21704122.820
        47.500          35.100
 116489832.617 8  90771348.09745  22167270.156    22167272.586
        48.200          34.700
 123296142.136 7  96074910.17644  23462453.484    23462459.559
        45.000          29.300
 113988398.620 8  88822049.49046  21691242.766    21691247.582
        49.000          38.400
 108966384.355 8  84908945.00847  20735592.914    20735597.211
        51.900          42.500
 109355857.034 8  85212436.80447  20809709.211    20809713.777
        53.000          42.700
 195321165.999 7                  37168409.141
        47.800
 195907082.979 7                  37279879.031
        46.800
 197680098.907 6                  37632757.359
        41.600
 17  9  1  1 10  0.0000000  0 11G08G14G18G21G24G27G10G32S38S35S33
 119839452.590 7  93381464.09045  22804704.055    22804709.512
        44.900          31.400
 113904802.183 7  88756992.17745  21675338.820    21675341.879
        47.200          34.200
 114093932.858 8  88904421.39145  21711336.328    21711338.242
        48.300          35.000
 116550308.644 7  90818472.22745  22178778.445    22178781.039
        47.800          34.200
 123316472.791 7  96090752.25344  23466322.258    23466327.840
        45.700          27.700
 114026493.485 7  88851733.78446  21698491.523    21698495.969
        47.900          37.100
 108974128.245 8  84914979.19946  20737066.461    20737070.770
        51.800          41.100
 109309877.089 8  85176608.28447  20800959.766    20800964.203
        52.900          42.100
 195321218.557 7                  37168419.469
        47.300
 195907115.037 7                  37279884.031
        47.300
 197680824.763 7                  37632895.688
        43.100
 17  9  1  1 10 30.0000000  0 11G08G14G18G21G24G27G10G32S38S35S33
 119811839.078 7  93359947.09145  22799449.578    22799454.766
        43.600          31.200
 113832881.547 7  88700950.15645  21661652.742    21661655.363
        47.800          34.900
 114131944.531 8  88934040.87045  21718569.867    21718571.543
        48.000          34.800
 116611134.760 7  90865869.18145  22190353.250    22190355.242
        47.500          33.900
 123337353.729 7  96107023.11244  23470295.781    23470301.645
        44.600          26.900
 114065109.240 8  88881823.95446  21705839.797    21705844.031
        48.000          38.400
 108982056.939 8  84921157.40047  20738575.234    20738579.664
        51.300          42.600
 109264378.071 8  85141154.52647  20792301.313    20792306.305
        52.200          42.100
 195321272.071 7                  37168429.531
        47.500
 195907146.316 8                  37279890.203
        48.400
 197681546.039 7                  37633032.250
        43.600
 17  9  1  1 11  0.0000000  0 11G08G14G18G21G24G27G10G32S38S35S33
 119784776.218 7  93338859.14345  22794299.508    22794304.535
        44.600          31.400
 113761343.450 7  88645206.21445  21648039.266    21648041.563
        47.300          34.200
 114170051.068 8  88963734.27145  21725820.984    21725822.723
        48.800          33.300
 116672310.780 7  90913538.77445  22201994.805    22201996.832
        47.200          33.100
 123358784.387 7  96123722.33144  23474373.844    23474379.773
        45.700          29.300
 114104243.745 8  88912318.36746  21713286.938    21713291.617
        48.600          37.600
 108990169.869 8  84927479.16746  20740118.539    20740123.891
        51.400          41.400
 109219360.179 8  85106075.66746  20783734.906    20783739.441
        51.400          41.600
 195321325.567 7                  37168439.422
        47.600
 195907177.466 7                  37279896.813
        47.600
 197682260.543 7                  37633168.219
        42.800
 17  9  1  1 11 30.0000000  0 11G08G14G18G21G24G27G10G32S38S35S33
 119758265.257 7  93318201.24545  22789254.617    22789260.059
        43.800          30.300
 113690189.557 7  88589761.65145  21634499.203    21634501.441
        47.500          34.300
 114208252.995 8  88993501.99045  21733090.438    21733092.629
        49.300          34.400
 116733836.434 8  90961480.79445  22213702.461    22213705.387
        48.000          34.600
 123380764.810 7  96140849.91744  23478556.328    23478562.207
        45.000          29.700
 114143895.655 7  88943215.94946  21720832.383    21720836.949
        47.000          38.600
 108998467.310 8  84933944.71046  20741697.641    20741702.297
        51.100          41.900
 109174824.816 8  85071372.81247  20775260.258    20775265.102
        52.100          42.700
 195321378.352 7                  37168449.375
        47.700
 195907208.533 8                  37279902.047
        48.000
 197682970.698 7                  37633304.688
        43.600
 17  9  1  1 12  0.0000000  0 11G08G14G18G21G24G27G10G32S38S35S33
 119732306.604 7  93297973.73844  22784314.438    22784320.445
        42.700          29.800
 113619421.514 8  88534617.75645  21621032.539    21621035.613
        48.100          35.500
 114246550.372 7  89023344.08145  21740378.609    21740380.566
        47.800          33.600
 116795710.834 7  91009694.56145  22225476.852    22225479.977
        46.100          34.100
 123403294.667 7  96158405.66844  23482844.508    23482849.707
        46.000          28.100
 114184062.966 7  88974515.13446  21728475.859    21728480.641
        47.300          37.300
 109006948.854 8  84940553.69946  20743311.570    20743316.254
        51.500          41.400
 109130772.286 8  85037046.18146  20766877.148    20766881.953
        52.700          41.500
 195321431.320 8                  37168458.563
        48.400
 195907239.749 8                  37279908.922
        48.200
 197683673.563 7                  37633439.063
        43.300
 17  9  1  1 12 30.0000000  0 11G08G14G18G21G24G27G10G32S38S35S33
 119706901.014 7  93278177.20545  22779479.875    22779485.488
        44.000          30.500
 113549040.492 7  88479775.42845  21607639.008    21607642.828
        45.700          35.500
 114284943.159 7  89053260.53245  21747684.648    21747686.539
        47.800          35.000
 116857933.620 7  91058179.82745  22237317.602    22237320.527
        46.300          34.200
 123426373.754 7  96176389.36944  23487235.773    23487241.570
        46.300          28.600
 114224743.716 7  89006214.41146  21736217.234    21736221.707
        47.700          37.800
 109015614.249 8  84947305.95347  20744960.805    20744965.613
        51.100          42.000
 109087203.166 8  85003096.22747  20758586.023    20758590.938
        51.200          42.600
 195321484.151 7                  37168470.234
        47.700
 195907271.154 7                  37279914.547
        47.300
 197684371.670 7                  37633571.875
        42.100
 17  9  1  1 13  0.0000000  0 11G08G14G18G21G24G27G10G32S38S35S33
 119682048.715 7  93258811.76845  22774751.172    22774756.324
        43.300          31.600
 113479047.823 7  88425235.70745  21594320.141    21594322.676
        47.800          34.700
 114323431.201 7  89083251.19945  21755008.336    21755010.285
        47.100          33.900
 116920504.473 7  91106936.28745  22249224.547    22249226.949
        46.700          33.500
 123450001.530 7  96194800.65444  23491732.016    23491737.289
        45.400          27.900
 114265935.842 7  89038312.16646  21744055.672    21744061.023
        47.000          37.500
 109024463.046 8  84954201.12546  20746644.727    20746649.250
        50.900          41.400
 109044117.856 8  84969523.26746  20750387.539    20750392.141
        52.300          41.800
 195321536.392 8                  37168479.453
        48.500
 195907302.235 8                  37279919.656
        48.000
 197685064.487 6                  37633701.156
        41.800
 17  9  1  1 13 30.0000000  0 11G08G14G18G21G24G27G10G32S38S35S33
 119657750.717 7  93239878.27345  22770127.445    22770132.684
        43.800          32.100
 113409445.052 7  88370999.81245  21581075.055    21581077.605
        47.500          35.300
 114362015.133 7  89113316.58045  21762350.797    21762352.703
        47.500          34.900
 116983423.047 7  91155963.69645  22261197.203    22261200.168
        46.200          33.200
 123474178.373 7  96213639.73144  23496332.258    23496337.906
        44.500          27.300
 114307637.845 7  89070807.20246  21751990.992    21751996.047
        46.800          36.700
 109033495.541 8  84961239.42246  20748363.320    20748368.332
        51.500          41.700
 109001517.537 8  84936328.22247  20742281.156    20742285.586
        52.000          42.800
 195321589.400 7                  37168489.734
        47.900
 195907333.390 8                  37279926.000
        48.200
 197685752.371 7                  37633832.063
        42.800
 17  9  1  1 14  0.0000000  0 11G08G14G18G21G24G27G10G32S38S35S33
 119634007.439 7  93221377.01245  22765608.859    22765614.242
        42.300          30.200
 113340233.068 7  88317068.44745  21567904.836    21567907.676
        46.500          35.100
 114400694.497 8  89143456.33645  21769711.266    21769712.930
        48.100          34.200
 117046687.964 7  91205260.97945  22273236.336    22273239.309
        46.200          31.800
 123498903.293 7  96232905.91244  23501038.016    23501043.082
        44.900          27.600
 114349847.214 7  89103697.60646  21760023.773    21760028.590
        47.600          37.100
 109042710.934 8  84968420.25946  20750117.336    20750121.770
        50.900          41.500
 108959401.955 8  84903510.90247  20734266.547    20734271.305
        52.100          42.400
 195321642.476 7                  37168499.203
        47.700
 195907364.359 8                  37279932.031
        48.400
 197686433.374 7                  37633963.281
        42.900
 17  9  1  1 14 30.0000000  0 11G08G14G18G21G24G27G10G32S38S35S33
 119610819.047 7  93203308.14445  22761196.570    22761201.754
        43.400          30.500
 113271413.552 7  88263442.87245  21554808.781    21554811.570
        47.100          35.900
 114439469.567 7  89173670.67045  21777090.094    21777091.961
        47.300          34.500
 117110299.594 7  91254828.44845  22285341.633    22285344.055
        46.700          33.600
 123524175.921 7  96252598.85844  23505846.773    23505852.586
        45.400          28.700
 114392562.159 7  89136981.95046  21768152.063    21768156.992
        46.900          38.000
 109052109.140 8  84975743.52746  20751905.484    20751910.246
        50.300          41.500
 108917771.874 8  84871071.89947  20726344.594    20726348.844
        52.100          42.500
 195321694.234 7                  37168509.531
        47.400
 195907395.788 8                  37279937.375
        48.700
 197687111.036 7                  37634091.344
        42.900
 17  9  1  1 15  0.0000000  0 11G08G14G18G21G24G27G10G32S38S35S33
 119588186.304 7  93185672.24945  22756889.148    22756894.367
        43.700          30.600
 113202987.564 8  88210123.96045  21541787.680    21541790.266
        48.000          35.300
 114478340.178 7  89203959.44545  21784486.563    21784488.871
        47.800          34.400
 117174257.041 8  91304665.38845  22297512.242    22297514.730
        48.100          32.600
 123549996.001 7  96272718.41844  23510760.664    23510766.156
        44.700          26.800
 114435780.371 8  89170658.46546  21776376.930    21776381.098
        48.200          37.100
 109061689.717 8  84983208.91146  20753728.742    20753733.426
        50.700          41.700
 108876627.551 8  84839011.40447  20718514.867    20718519.461
        51.500          42.200
 195321745.430 7                  37168519.047
        47.500
 195907426.848 8                  37279943.547
        48.600
 197687782.031 6                  37634221.000
        41.600
 17  9  1  1 15 30.0000000  0 11G08G14G18G21G24G27G10G32S38S35S33
 119566109.114 7  93168469.23545  22752688.961    22752693.883
        44.600          31.900
 113134955.887 7  88157112.29845  21528842.055    21528843.961
        47.700          35.200
 114517306.232 8  89234322.57945  21791902.008    21791904.355
        48.000          35.200
 117238559.286 7  91354770.97145  22309748.172    22309750.816
        47.500          32.600
 123576363.465 7  96293264.48444  23515777.547    23515783.680
        45.300          27.200
 114479499.671 8  89204725.40546  21784695.867    21784700.535
        49.100          37.800
 109071452.272 8  84990816.08747  20755586.594    20755591.238
        51.200          42.400
 108835969.287 8  84807329.65147  20710777.875    20710782.695
        51.400          42.400
 195321797.929 7                  37168529.797
        46.800
 195907457.016 8                  37279949.875
        48.400
 197688446.472 6                  37634346.344
        41.900
 17  9  1  1 16  0.0000000  0 11G08G14G18G21G24G27G10G32S38S35S33
 119544588.897 7  93151700.21845  22748593.125    22748598.773
        43.500          30.600
 113067320.658 7  88104409.55345  21515970.898    21515973.648
        47.400          35.700
 114556368.586 8  89264760.76345  21799335.172    21799337.320
        48.100          34.600
 117303206.193 7  91405145.15545  22322050.500    22322051.844
        47.100          31.800
 123603277.781 7  96314236.66144  23520899.422    23520904.945
        43.900          27.500
 114523718.616 8  89239181.72746  21793110.430    21793115.199
        48.200          36.900
 109081397.242 8  84998565.41946  20757478.914    20757483.621
        51.700          41.200
 108795798.242 8  84776027.55747  20703133.836    20703137.953
        52.300          42.600
 195321849.776 7                  37168539.750
        46.800
 195907488.138 8                  37279955.672
        48.300
 197689106.617 6                  37634471.125
        41.400
 17  9  1  1 16 30.0000000  0 11G08G14G18G21G24G27G10G32S38S35S33
 119523625.373 7  93135365.02145  22744604.414    22744609.074
        44.100          31.100
 113000082.657 7  88052016.33046  21503175.914    21503178.805
        46.800          36.100
 114595526.738 7  89295273.60245  21806786.695    21806788.840
        46.800          34.900
 117368197.295 8  91455787.56845  22334418.250    22334419.691
        48.000          33.000
 123630737.879 7  96335634.14244  23526124.828    23526130.582
        44.500          27.200
 114568434.665 8  89274025.37646  21801619.703    21801623.773
        48.700          37.200
 109091523.820 8  85006456.26347  20759406.156    20759410.813
        50.500          42.300
 108756114.191 8  84745104.94747  20695582.039    20695586.617
        51.100          42.400
 195321901.082 7                  37168549.609
        47.000
 195907519.359 8                  37279961.422
        48.300
 197689760.589 6                  37634595.078
        41.900
 17  9  1  1 17  0.0000000  0 11G08G14G18G21G24G27G10G32S38S35S33
 119503219.152 7  93119464.06845  22740720.672    22740725.867
        45.200          30.900
 112933242.958 7  87999933.48845  21490456.656    21490458.922
        47.500          35.000
 114634780.963 7  89325861.31245  21814256.484    21814258.105
        47.300          34.300
 117433531.914 7  91506697.62645  22346850.648    22346853.273
        46.800          32.900
 123658743.685 7  96357456.85144  23531454.125    23531459.117
        44.100          26.100
 114613645.880 8  89309254.89046  21810223.203    21810227.785
        48.400          36.700
 109101832.077 8  85014488.65946  20761367.547    20761371.789
        50.700          41.600
 108716917.811 8  84714562.33146  20688123.125    20688127.949
        51.600          41.800
 195321952.519 7                  37168558.953
        47.300
 195907550.208 8                  37279967.016
        49.000
 197690408.871 7                  37634718.547
        43.400
 17  9  1  1 17 30.0000000  0 11G08G14G18G21G24G27G10G32S38S35S33
 119483370.378 7  93103997.49045  22736943.938    22736949.109
        46.000          31.000
 112866803.113 7  87948162.21546  21477813.641    21477815.691
        46.800          36.200
 114674131.325 8  89356523.91445  21821744.875    21821746.676
        48.400          34.700
 117499209.272 7  91557874.78245  22359348.539    22359351.598
        47.900          32.800
 123687294.625 7  96379704.34644  23536887.297    23536892.801
        44.100          25.900
 114659350.010 8  89344868.48646  21818920.281    21818924.758
        49.200          37.400
 109112321.584 8  85022662.30246  20763363.500    20763368.238
        51.800          41.900
 108678209.283 8  84684399.84747  20680757.234    20680761.746
        51.600          42.600
 195322004.655 7                  37168568.641
        47.500
 195907580.062 8                  37279972.266
        48.800
 197691051.843 7                  37634840.906
        43.100
 17  9  1  1 18  0.0000000  0 11G08G14G18G21G24G27G10G32S38S35S33
 119464079.725 7  93088965.80745  22733273.195    22733278.160
        44.900          30.900
 112800764.355 7  87896703.47345  21465246.898    21465249.652
        46.200          35.100
 114713578.022 8  89387261.58945  21829250.820    21829252.996
        48.000          34.700
 117565228.623 7  91609318.40245  22371911.383    22371914.492
        46.700          32.800
 123716390.360 7  96402376.34044  23542424.000    23542429.586
        43.800          26.900
 114705544.997 8  89380864.56446  21827710.883    21827716.117
        49.000          36.400
 109122992.306 8  85030977.14346  20765393.922    20765398.402
        52.100          41.800
 108639989.179 8  84654617.94447  20673484.117    20673488.504
        51.500          42.500
 195322055.316 7                  37168578.609
        46.300
 195907611.473 8                  37279979.422
        48.600
 197691689.204 7                  37634963.125
        43.100
 17  9  1  1 18 30.0000000  0 11G08G14G18G21G24G27G10G32S38S35S33
 119445347.184 7  93074369.02745  22729708.242    22729713.648
        44.300          30.700
 112735127.272 7  87845557.72045  21452756.398    21452759.344
        46.900          35.500
 114753120.622 8  89418073.99145  21836776.094    21836777.895
        48.200          35.200
 117631588.936 7  91661027.71345  22384539.672    22384542.227
        47.500          32.300
 123746030.375 7  96425472.43744  23548064.102    23548070.059
        43.600          25.800
 114752228.327 7  89417241.17846  21836594.055    21836598.918
        47.600          36.900
 109133843.613 8  85039432.70646  20767459.414    20767463.715
        51.900          41.600
 108602257.391 8  84625216.56747  20666303.969    20666308.230
        52.900          42.900
 195322107.257 7                  37168588.391
        46.700
 195907641.749 8                  37279985.063
        48.800
 197692319.558 7                  37635082.984
        42.100
 17  9  1  1 19  0.0000000  0 11G08G14G18G21G24G27G10G32S38S35S33
 119427173.518 7  93060207.72445  22726250.055    22726255.016
        45.300          31.100
 112669893.825 7  87794726.51145  21440343.023    21440345.328
        47.800          35.900
 114792760.178 7  89448961.94645  21844319.148    21844320.914
        46.800          34.600
 117698290.329 7  91713002.76245  22397232.094    22397235.234
        46.800          32.400
 123776213.882 7  96448992.05044  23553808.195    23553813.477
        43.900          26.500
 114799398.405 8  89453997.06446  21845570.398    21845575.523
        49.500          36.900
 109144875.964 8  85048029.33046  20769558.547    20769562.891
        51.300          40.900
 108565014.917 8  84596196.47947  20659217.313    20659221.781
        53.200          42.600
 195322160.022 7                  37168597.656
        46.400
 195907673.218 8                  37279990.547
        48.300
 197692945.890 6                  37635200.328
        41.700
 17  9  1  1 19 30.0000000  0 11G08G14G18G21G24G27G10G32S38S35S33
 119409558.644 7  93046481.84145  22722898.016    22722902.582
        44.700          30.500
 112605064.983 7  87744210.55646  21428006.617    21428009.160
        47.000          36.200
 114832496.535 7  89479925.33045  21851880.539    21851882.352
        47.500          34.200
 117765332.105 7  91765243.11145  22409989.688    22409992.984
        44.600          32.100
 123806940.553 7  96472934.90544  23559655.039    23559660.582
        44.700          26.100
 114847053.081 8  89491130.54346  21854639.211    21854643.805
        48.900          37.100
 109156089.095 8  85056766.82946  20771692.445    20771697.227
        50.700          41.800
 108528262.003 8  84567557.87047  20652223.133    20652227.895
        51.900          43.000
 195322211.769 7                  37168607.781
        46.600
 195907704.974 8                  37279996.641
        48.300
 197693568.030 7                  37635319.281
        43.000
 17  9  1  1 20  0.0000000  0 11G08G14G18G21G24G27G10G32S38S35S33
 119392502.980 7  93033191.71445  22719652.594    22719657.227
        43.300          30.800
 112540641.731 7  87694010.63745  21415746.938    21415749.391
        47.500          35.900
 114872329.587 7  89510964.05145  21859460.656    21859462.332
        47.600          33.800
 117832713.022 7  91817747.73045  22422811.648    22422814.555
        46.100          31.600
 123838209.373 7  96497300.24144  23565605.594    23565610.344
        43.900          25.800
 114895189.795 8  89528639.65646  21863799.188    21863803.914
        50.000          37.000
 109167482.638 8  85065644.90846  20773860.219    20773864.891
        51.100          40.900
 108491998.709 8  84539300.76947  20645322.734    20645327.059
        51.700          42.100
 195322263.091 7                  37168617.656
        46.900
 195907735.758 7                  37280002.750
        47.700
 197694183.070 7                  37635437.453
        43.000
 17  9  1  1 20 30.0000000  0 11G08G14G18G21G24G27G10G32S38S35S33
 119376006.049 7  93020336.96145  22716513.430    22716518.395
        43.600          30.500
 112476624.507 7  87644127.11946  21403565.102    21403567.742
        47.500          36.600
 114912258.941 7  89542077.82145  21867059.203    21867060.848
        47.400          35.300
 117900432.746 7  91870516.31645  22435698.961    22435700.742
        45.300          32.700
 123870019.925 6  96522087.67744  23571658.961    23571664.488
        41.700          27.100
 114943805.845 8  89566522.25146  21873050.789    21873055.418
        49.900          37.200
 109179055.858 8  85074662.99946  20776062.633    20776067.340
        51.100          41.800
 108456224.753 8  84511424.96847  20638515.016    20638519.141
        52.000          43.000
 195322313.211 7                  37168627.469
        46.700
 195907767.449 8                  37280008.828
        48.300
 197694792.292 7                  37635554.031
        43.000
 17  9  1  1 21  0.0000000  0 11G08G14G18G21G24G27G10G32S38S35S33
 119360068.529 7  93007918.10744  22713480.672    22713485.113
        45.200          29.400
 112413015.142 7  87594561.39646  21391460.461    21391463.301
        47.400          36.000
 114952285.289 7  89573267.16945  21874676.250    21874677.371
        47.800          33.600
 117968490.280 7  91923548.14045  22448649.500    22448652.695
        46.000          31.900
 123902371.339 6  96547296.57944  23577814.688    23577820.836
        41.800          26.200
 114992899.262 8  89604776.84546  21882392.852    21882397.426
        49.200          37.000
 109190808.832 8  85083821.15246  20778299.258    20778303.832
        51.300          41.200
 108420940.673 8  84483930.88847  20631800.453    20631805.516
        51.800          42.600
 195322363.337 7                  37168637.625
        47.500
 195907796.798 8                  37280014.219
        48.100
 197695396.490 6                  37635668.391
        41.600
 17  9  1  1 21 30.0000000  0 11G08G14G18G21G24G27G10G32S38S35S33
 119344690.376 7  92995935.12345  22710553.602    22710558.938
        44.500          31.400
 112349814.589 7  87545314.23846  21379433.773    21379436.645
        46.800          37.100
 114992408.143 8  89604531.70445  21882311.102    21882312.535
        48.100          34.400
 118036884.842 7  91976842.59145  22461664.258    22461667.996
        45.600          33.200
 123935263.223 7  96572926.58644  23584073.875    23584079.703
        43.500          27.300
 115042467.741 8  89643401.62046  21891825.141    21891829.477
        48.200          37.100
 109202741.355 8  85093119.22246  20780569.977    20780574.672
        50.700          41.800
 108386146.699 8  84456818.72747  20625179.297    20625183.949
        51.900          43.500
 195322415.236 7                  37168646.328
        47.400
 195907827.562 7                  37280019.375
        47.400
 197695994.650 6                  37635781.281
        41.400
 17  9  1  1 22  0.0000000  0 11G08G14G18G21G24G27G10G32S38S35S33
 119329872.169 7  92984388.46645  22707734.336    22707739.051
        44.500          30.700
 112287023.611 7  87496386.25145  21367485.219    21367488.051
        46.000          35.800
 115032627.972 7  89635871.82345  21889964.320    21889965.953
        47.900          33.900
 118105615.593 7  92030399.01845  22474744.094    22474747.102
        45.500          32.100
 123968694.367 7  96598976.83744  23590435.656    23590441.766
        42.900          26.500
 115092508.912 8  89682394.71446  21901347.672    21901352.539
        48.800          36.500
 109214853.212 8  85102557.02646  20782874.586    20782879.305
        50.700          41.100
 108351842.904 8  84430088.50547  20618651.555    20618656.340
        50.700          42.200
 195322465.258 7                  37168656.391
        46.800
 195907857.105 7                  37280024.953
        47.300
 197696586.328 6                  37635895.000
        41.300
 17  9  1  1 22 30.0000000  0 11G08G14G18G21G24G27G10G32S38S35S33
 119315613.903 7  92973278.10745  22705021.258    22705025.402
        45.400          30.100
 112224643.955 7  87447778.75146  21355614.633    21355617.680
        47.200          36.500
 115072945.755 7  89667288.26245  21897636.992    21897638.273
        47.900          35.000
 118174682.303 7  92084217.20645  22487887.242    22487889.324
        46.700          32.100
 124002664.683 7  96625447.20844  23596899.883    23596905.914
        42.600          26.500
 115143021.037 8  89721754.79346  21910959.914    21910964.848
        48.600          36.300
 109227144.830 8  85112134.91247  20785214.055    20785218.457
        51.000          42.000
 108318030.148 8  84403740.91147  20612217.219    20612221.766
        51.800          42.100
 195322515.616 7                  37168666.781
        46.800
 195907886.610 7                  37280031.828
        47.900
 197697172.178 6                  37636004.000
        41.600
 17  9  1  1 23  0.0000000  0 11G08G14G18G21G24G27G10G32S38S35S33
 119301915.652 7  92962604.13145  22702414.258    22702419.465
        44.100          30.500
 112162676.312 7  87399492.31246  21343822.477    21343825.254
        46.800          36.200
 115113360.946 8  89698780.60545  21905327.422    21905329.727
        48.700          34.400
 118244083.844 7  92138296.29945  22501093.461    22501095.664
        46.300          31.400
 124037173.174 7  96652336.93244  23603466.977    23603472.750
        44.600          27.500
 115194001.438 8  89761479.76945  21920661.336    21920666.277
        48.000          35.700
 109239615.673 8  85121852.45146  20787586.914    20787591.574
        51.800          41.200
 108284708.208 8  84377775.78447  20605876.508    20605880.605
        51.500          42.300
 195322566.603 7                  37168675.391
        46.900
 195907918.109 7                  37280037.766
        47.300
 197697754.026 6                  37636115.609
        41.600
 17  9  1  1 23 30.0000000  0 11G08G14G18G21G24G27G10G32S38S35S33
 119288777.367 7  92952366.50645  22699914.023    22699919.078
        44.700          30.400
 112101121.830 7  87351527.82046  21332108.828    21332111.449
        47.600          36.300
 115153873.947 8  89730349.16045  21913036.891    21913038.492
        48.200          34.200
 118313819.290 7  92192635.60545  22514364.250    22514366.660
        47.200          32.500
 124072219.017 7  96679645.36644  23610135.164    23610141.574
        42.400          28.300
 115245447.855 7  89801567.86145  21930450.977    21930455.348
        47.300          35.700
 109252265.581 8  85131709.52346  20789993.969    20789998.234
        51.100          41.600
 108251877.185 8  84352193.19147  20599628.906    20599633.250
        51.500          42.600
 195322617.099 7                  37168685.109
        46.400
 195907947.634 7                  37280043.531
        46.900
 197698329.993 7                  37636226.031
        43.000
 17  9  1  1 24  0.0000000  0 11G08G14G18G21G24G27G10G32S38S35S33
 119276199.208 7  92942565.33844  22697520.508    22697525.523
        45.100          29.700
 112039981.213 7  87303885.81746  21320474.438    21320476.914
        46.900          36.100
 115194484.952 7  89761994.09745  21920764.844    21920766.523
        47.500          33.600
 118383887.796 7  92247234.42645  22527697.398    22527700.609
        47.200          31.600
 124107801.457 7  96707371.94444  23616906.836    23616913.297
        44.000          26.500
 115297357.681 8  89842017.07346  21940329.617    21940334.090
        49.300          36.800
 109265094.279 8  85141705.90446  20792435.367    20792439.730
        51.000          40.900
 108219537.139 8  84326993.17647  20593474.602    20593478.809
        51.300          42.600
 195322667.316 7                  37168695.125
        46.400
 195907977.957 7                  37280049.422
        47.500
 197698899.461 7                  37636336.313
        42.300
 17  9  1  1 24 30.0000000  0 11G08G14G18G21G24G27G10G32S38S35S33
 119264180.848 7  92933200.38245  22695233.680    22695237.984
        45.900          31.300
 111979255.119 8  87256566.82346  21308918.625    21308920.988
        48.100          36.100
 115235193.719 7  89793715.19945  21928511.211    21928513.516
        47.900          33.700
 118454288.559 7  92302092.13845  22541094.383    22541097.137
        46.700          32.400
 124143919.351 7  96735515.75844  23623780.156    23623785.344
        43.700          26.200
 115349728.245 8  89882825.28846  21950295.438    21950300.500
        48.400          36.900
 109278101.323 8  85151841.26546  20794910.500    20794915.297
        51.500          41.900
 108187687.856 8  84302175.56747  20587413.961    20587418.164
        49.900          42.900
 195322718.253 7                  37168703.547
        46.200
 195908008.631 7                  37280054.688
        47.900
 197699464.019 6                  37636441.219
        41.300
 17  9  1  1 25  0.0000000  0 11G08G14G18G21G24G27G10G32S38S35S33
 119252722.653 7  92924271.91045  22693053.250    22693057.500
        45.200          30.400
 111918945.388 8  87209572.26646  21297441.984    21297444.117
        48.200          36.300
 115276000.349 8  89825512.56645  21936276.625    21936278.102
        48.600          33.200
 118525021.063 7  92357208.36145  22554554.641    22554556.695
        45.500          31.200
 124180572.553 7  96764076.69044  23630755.141    23630760.293
        43.500          25.700
 115402557.916 8  89923991.22946  21960348.422    21960352.977
        49.300          36.500
 109291287.153 8  85162115.93146  20797419.383    20797424.258
        51.100          41.100
 108156330.137 8  84277741.00147  20581446.680    20581451.391
        51.800          42.800
 195322767.708 7                  37168713.641
        46.600
 195908037.473 7                  37280059.531
        46.900
 197700021.522 6                  37636546.438
        41.800
 17  9  1  1 25 30.0000000  0 11G08G14G18G21G24G27G10G32S38S35S33
 119241824.791 7  92915780.05945  22690979.133    22690984.434
        45.500          31.600
 111859052.771 8  87162902.75145  21286044.766    21286047.090
        48.100          35.800
 115316905.553 8  89857386.74145  21944060.570    21944062.852
        48.500          34.400
 118596084.324 7  92412582.31745  22568076.906    22568078.957
        46.300          31.000
 124217759.486 7  96793053.52544  23637831.875    23637837.027
        44.100          27.900
 115455844.051 8  89965512.88046  21970488.438    21970493.293
        48.500          37.100
 109304651.643 8  85172529.82146  20799962.906    20799967.648
        50.900          41.600
 108125463.837 8  84253689.35347  20575573.430    20575577.945
        52.500          43.700
 195322817.758 7                  37168724.188
        46.400
 195908068.241 7                  37280065.594
        46.800
 197700575.244 6                  37636655.250
        41.400
 17  9  1  1 26  0.0000000  0 11G08G14G18G21G24G27G10G32S38S35S33
 119231486.646 7  92907724.37545  22689011.727    22689016.855
        45.200          31.400
 111799577.675 8  87116558.53646  21274727.359    21274729.195
        48.400          36.300
 115357909.014 7  89889337.48445  21951863.508    21951864.887
        47.000          33.800
 118667477.265 7  92468213.14345  22581663.227    22581665.430
        45.900          31.300
 124255479.783 7  96822445.95444  23645009.336    23645014.930
        43.500          25.300
 115509583.993 8  90007388.12546  21980715.039    21980719.188
        48.700          36.300
 109318194.363 8  85183082.57446  20802540.039    20802544.395
        50.200          41.600
 108095088.788 8  84230020.49347  20569792.922    20569797.344
        51.500          42.300
 195322867.804 7                  37168732.938
        46.400
 195908097.660 7                  37280070.313
        46.400
 197701122.043 7                  37636758.063
        42.000
 17  9  1  1 26 30.0000000  0 11G08G14G18G21G24G27G10G32S38S35S33
 119221708.735 7  92900105.21345  22687151.609    22687156.035
        44.900          31.500
 111740521.976 8  87070541.14846  21263489.023    21263491.641
        48.000          36.300
 115399011.684 7  89921365.53145  21959685.195    21959686.785
        47.800          34.100
 118739199.517 7  92524100.57444  22595310.664    22595313.973
        45.000          29.600
 124293732.189 6  96852253.00744  23652288.703    23652295.082
        40.900          25.100
 115563775.906 8  90049615.58046  21991026.984    21991031.852
        48.300          36.400
 109331915.705 8  85193774.52746  20805151.063    20805155.406
        51.400          41.500
 108065205.636 8  84206734.93647  20564106.469    20564110.453
        51.400          43.300
 195322917.444 7                  37168741.625
        47.600
 195908127.966 7                  37280077.484
        47.500
 197701665.139 7                  37636861.203
        43.100
 17  9  1  1 27  0.0000000  0 11G08G14G18G21G24G27G10G32S38S35S33
 119212490.283 7  92892921.99345  22685397.539    22685402.207
        46.100          31.600
 111681885.711 7  87024850.58446  21252331.055    21252333.504
        46.600          36.000
 115440212.879 7  89953470.35745  21967525.430    21967527.070
        47.600          33.000
 118811249.538 7  92580243.44545  22609021.836    22609024.578
        44.300          30.400
 124332515.725 6  96882473.93744  23659668.328    23659674.742
        41.900          25.300
 115618416.292 8  90092192.49246  22001424.656    22001429.230
        48.100          36.600
 109345814.553 8  85204604.78646  20807795.844    20807800.516
        50.900          41.400
 108035813.368 8  84183831.87847  20558512.984    20558517.848
        52.500          42.600
 195322966.798 7                  37168751.734
        46.600
 195908158.032 7                  37280082.625
        46.800
 197702200.172 6                  37636964.219
        41.500
 17  9  1  1 27 30.0000000  0 11G08G14G18G21G24G27G10G32S38S35S33
 119203831.583 7  92886174.97345  22683749.430    22683754.410
        44.700          31.000
 111623670.486 8  86979488.10646  21241253.203    21241255.223
        48.600          37.300
 115481513.377 7  89985652.54745  21975384.641    21975386.191
        46.400          33.600
 118883627.141 7  92636641.55745  22622795.172    22622796.977
        45.300          30.700
 124371829.498 7  96913108.01944  23667150.227    23667155.199
        43.200          25.100
 115673503.639 7  90135117.67346  22011907.406    22011912.215
        46.100          36.300
 109359891.762 8  85215574.03946  20810474.867    20810479.566
        51.300          41.500
 108006912.923 8  84161312.07347  20553013.930    20553018.711
        52.100          43.200
 195323017.954 7                  37168760.906
        46.400
 195908187.911 7                  37280089.688
        47.200
 197702730.757 6                  37637063.719
        41.400
 17  9  1  1 28  0.0000000  0 12G08G14G18G21G24G31G27G10G32S38S35S33
 119195732.745 7  92879864.18245  22682208.719    22682213.730
        45.500          31.200
 111565877.148 7  86934454.37846  21230255.625    21230258.117
        47.300          36.700
 115522913.418 8  90017912.31545  21983262.711    21983264.555
        48.000          32.800
 118956331.245 7  92693294.06844  22636629.547    22636631.586
        45.500          29.900
 124411672.497 7  96944154.56044  23674732.242    23674736.859
        43.400          26.200
 130848035.56315                  24899558.930
        34.300
 115729035.187 7  90178388.99446  22022474.953    22022479.723
        47.800          36.300
 109374146.954 8  85226681.98346  20813187.242    20813191.621
        50.800          41.300
 107978504.064 8  84139175.33347  20547607.484    20547612.168
        51.400          42.700
 195323066.906 7                  37168770.578
        46.200
 195908218.860 7                  37280094.234
        46.900
 197703255.594 6                  37637163.500
        41.900
 17  9  1  1 28 30.0000000  0 12G08G14G18G21G24G31G27G10G32S38S35S33
 119188192.935 7  92873988.99945  22680773.633    22680778.238
        45.700          31.600
 111508505.648 8  86889749.33046  21219337.602    21219340.293
        48.200          37.100
 115564412.584 7  90050249.31545  21991159.320    21991161.637
        46.600          32.500
 119029360.247 7  92750199.76244  22650526.891    22650529.070
        44.100          29.900
 124452043.679 7  96975612.60544  23682414.094    23682419.762
        42.300          28.100
 130743437.073 6                  24879653.828
        39.700
 115785007.899 7  90222004.06846  22033126.227    22033130.535
        47.800          36.200
 109388579.530 8  85237928.13346  20815933.828    20815938.262
        50.900          41.100
 107950586.199 8  84117421.17747  20542294.867    20542299.039
        50.900          43.400
 195323116.181 7                  37168779.828
        46.700
 195908247.875 7                  37280100.063
        47.100
 197703774.760 6                  37637263.234
        41.700
 17  9  1  1 29  0.0000000  0 12G08G14G18G21G24G31G27G10G32S38S35S33
 119181212.516 7  92868549.71744  22679444.703    22679450.445
        44.500          29.600
 111451557.794 8  86845374.41546  21208501.352    21208503.547
        48.400          36.600
 115606011.885 7  90082664.34245  21999075.820    21999077.633
        46.500          32.600
 119102713.781 7  92807358.34145  22664485.445    22664488.543
        44.500          30.400
 124492942.196 6  97007481.57644  23690196.250    23690202.941
        40.800          25.800
 130638708.627 6 101796430.69742  24859724.320    24859728.621
        38.800          15.600
 115841420.124 7  90265961.62345  22043861.211    22043865.703
        47.900          35.500
 109403190.152 8  85249313.03246  20818714.289    20818719.168
        51.100          41.500
 107923160.049 8  84096050.15647  20537075.945    20537080.418
        51.400          43.000
 195323166.506 7                  37168789.594
        46.700
 195908277.733 7                  37280106.125
        47.500
 197704288.233 7                  37637358.766
        42.700
 17  9  1  1 29 30.0000000  0 12G08G14G18G21G24G31G27G10G32S38S35S33
 119174790.415 7  92863545.49845  22678223.594    22678228.402
        45.200          32.000
 111395033.402 7  86801329.45846  21197744.359    21197747.355
        47.900          37.100
 115647710.052 7  90115156.40345  22007010.836    22007012.625
        47.400          33.500
 119176390.125 7  92864768.46245  22678505.859    22678508.203
        44.500          30.100
 124534366.819 7  97039760.49444  23698079.766    23698085.578
        42.600          27.900
 130533851.752 6 101714724.14642  24839770.344    24839775.449
        36.700          16.900
 115898268.054 7  90310258.67846  22054678.844    22054683.699
        46.300          36.600
 109417977.522 8  85260835.64247  20821528.125    20821532.871
        51.100          42.000
 107896224.332 8  84075061.30847  20531950.102    20531955.031
        50.700          43.200
 195323214.880 7                  37168798.953
        47.500
 195908307.958 7                  37280111.953
        47.200
 197704795.829 7                  37637456.766
        42.800
 17  9  1  1 30  0.0000000  0 12G08G14G18G21G24G31G27G10G32S38S35S33
 119168927.173 7  92858976.73244  22677106.914    22677112.512
        45.000          29.500
 111338934.276 7  86757615.87446  21187068.914    21187071.594
        47.800          37.100
 115689508.518 7  90147726.63045  22014965.000    22014966.176
        47.200          32.800
 119250389.331 7  92922430.17744  22692587.453    22692589.414
        45.200          29.600
 124576316.522 7  97072448.54944  23706062.430    23706068.570
        43.900          28.100
 130428870.81315                  24819793.445
        32.600
 115955550.328 7  90354894.22146  22065579.836    22065583.918
        47.000          36.000
 109432942.697 8  85272496.82746  20824376.039    20824380.293
        51.900          41.200
 107869780.119 8  84054455.44347  20526917.898    20526922.309
        52.000          43.000
 195323264.508 7                  37168807.781
        47.800
 195908337.752 8                  37280117.016
        48.100
 197705297.710 6                  37637554.609
        41.500
 17  9  1  1 30 30.0000000  0 12G08G14G18G21G24G31G27G10G32S38S35S33
 119163622.264 7  92854843.01545  22676097.820    22676103.074
        43.900          30.900
 111283260.958 8  86714234.09646  21176474.984    21176477.180
        48.400          37.100
 115731407.782 7  90180375.40245  22022938.070    22022939.891
        47.000          33.600
 119324709.990 7  92980342.40344  22706730.375    22706732.430
        44.600          29.800
 124618790.311 6  97105545.02444  23714145.141    23714151.281
        41.400          28.500
 130323766.68515 101551021.50352  24799792.133    24799797.273
        33.600          14.800
 116013264.102 7  90399865.98046  22076562.625    22076566.148
        47.000          36.500
 109448085.396 8  85284296.33246  20827257.680    20827262.227
        51.200          41.600
 107843827.063 8  84034232.29247  20521979.219    20521983.313
        52.100          42.600
 195323313.096 7                  37168817.781
        47.800
 195908366.523 7                  37280123.500
        46.600
 197705793.463 6                  37637647.156
        41.500
 17  9  1  1 31  0.0000000  0 12G08G14G18G21G24G31G27G10G32S38S35S33
 119158875.391 7  92851144.15545  22675195.094    22675199.430
        46.800          31.800
 111228013.880 8  86671184.46146  21165961.648    21165964.156
        48.400          36.500
 115773407.554 7  90213102.46945  22030930.727    22030931.793
        46.300          33.200
 119399351.136 7  93038504.29544  22720934.016    22720936.219
        43.800          29.300
 124661786.585 6  97139048.60044  23722326.914    23722332.613
        41.800          26.900
 130218543.29515                  24779768.117
        30.100
 116071406.446 7  90445171.68446  22087626.453    22087631.059
        46.300          36.200
 109463405.104 8  85296233.74346  20830172.750    20830177.375
        50.500          41.300
 107818364.669 8  84014391.46447  20517134.164    20517138.633
        52.900          43.200
 195323360.612 7                  37168827.063
        47.000
 195908396.321 7                  37280128.109
        47.500
 197706283.281 6                  37637739.406
        41.500
 17  9  1  1 31 30.0000000  0 11G08G14G18G21G24G27G10G32S38S35S33
 119154686.362 7  92847879.97545  22674397.492    22674402.762
        43.500          30.900
 111173194.230 8  86628467.85246  21155529.938    21155532.352
        48.000          36.900
 115815508.549 7  90245908.43545  22038941.672    22038943.879
        46.600          32.400
 119474311.774 7  93096915.16444  22735198.109    22735201.918
        43.900          29.000
 124705305.161 7  97172959.16744  23730608.180    23730614.457
        42.500          26.800
 116129975.045 7  90490809.51546  22098771.313    22098776.121
        45.200          36.000
 109478902.095 8  85308309.32046  20833121.914    20833126.711
        51.200          41.700
 107793393.087 8  83994933.09147  20512381.953    20512386.816
        53.000          42.700
 195323410.020 7                  37168836.016
        47.200
 195908425.909 7                  37280135.047
        46.800
 197706769.565 6                  37637832.375
        41.600
 17  9  1  1 32  0.0000000  0 11G08G14G18G21G24G27G10G32S38S35S33
 119151054.767 7  92845050.16045  22673706.789    22673711.348
        46.000          30.000
 111118802.614 8  86586084.80246  21145179.672    21145181.875
        49.400          37.900
 115857710.309 8  90278792.91045  22046972.398    22046974.121
        48.000          33.000
 119549591.083 7  93155574.33944  22749523.570    22749526.371
        42.800          28.600
 124749344.148 6  97207275.26244  23738988.063    23738994.355
        41.600          27.400
 116188967.259 7  90536777.44245  22109997.109    22110001.918
        47.100          35.900
 109494576.213 8  85320522.92047  20836104.516    20836109.152
        51.700          42.100
 107768912.138 8  83975857.04647  20507723.320    20507728.055
        52.900          42.700
 195323458.441 7                  37168845.219
        47.100
 195908454.681 7                  37280139.734
        47.900
 197707248.624 6                  37637923.422
        41.700
 17  9  1  1 32 30.0000000  0 12G08G14G18G21G24G31G27G10G32S38S35S33
 119147980.229 7  92842654.39745  22673121.641    22673126.363
        45.400          30.500
 111064839.835 8  86544035.92146  21134910.875    21134913.324
        48.200          37.300
 115900013.356 7  90311756.29745  22055022.672    22055024.844
        46.500          33.600
 119625187.672 7  93214480.75144  22763909.039    22763911.918
        44.100          29.200
 124793902.616 7  97241996.12044  23747468.289    23747474.211
        42.900          27.200
 129902172.41115 101222508.50852  24719564.750    24719569.660
        31.600          15.600
 116248380.595 7  90583073.51645  22121302.781    22121308.082
        46.300          35.500
 109510427.539 8  85332874.59747  20839120.891    20839125.480
        51.000          42.100
 107744921.672 8  83957163.19847  20503158.000    20503162.832
        52.500          43.900
 195323506.620 7                  37168854.328
        47.200
 195908484.640 7                  37280146.016
        47.700
 197707721.399 6                  37638013.625
        41.600
 17  9  1  1 33  0.0000000  0 12G08G14G18G21G24G31G27G10G32S38S35S33
 119145462.089 7  92840692.21145  22672641.969    22672647.477
        46.000          31.000
 111011306.727 8  86502321.80646  21124723.320    21124726.090
        48.000          36.500
 115942417.849 8  90344798.75345  22063091.844    22063093.879
        48.900          33.100
 119701100.660 7  93273633.70745  22778354.438    22778357.266
        44.600          30.000
 124838979.314 7  97277120.81444  23756045.930    23756051.613
        43.800          27.900
 129796496.15815 101140163.37052  24699452.664    24699460.082
        33.900          15.600
 116308212.274 7  90629695.56645  22132688.445    22132693.465
        46.300          34.800
 109526455.910 8  85345364.22646  20842171.320    20842175.551
        51.500          41.100
 107721421.413 8  83938851.32947  20498685.883    20498690.617
        52.400          42.500
 195323555.136 8                  37168864.359
        48.000
 195908514.172 8                  37280150.891
        48.100
 197708189.976 7                  37638102.078
        42.800
 17  9  1  1 33 30.0000000  0 12G08G14G18G21G24G31G27G10G32S38S35S33
 119143499.885 7  92839163.22145  22672268.578    22672273.965
        44.100          31.400
 110958203.412 8  86460942.62146  21114618.781    21114620.480
        49.600          37.500
 115984923.939 8  90377920.36845  22071180.578    22071182.426
        48.100          32.900
 119777328.806 7  93333032.21145  22792861.086    22792864.004
        45.200          31.100
 124884572.851 7  97312648.23544  23764721.875    23764727.789
        44.500          27.800
 129690713.190 5 101057735.10742  24679321.453    24679329.266
        34.600          15.600
 116368459.500 7  90676641.44045  22144153.555    22144158.211
        46.500          35.400
 109542660.997 8  85357991.56047  20845254.836    20845259.582
        52.800          42.300
 107698410.907 8  83920921.06647  20494307.289    20494312.105
        53.100          44.100
 195323603.361 8                  37168872.672
        48.300
 195908543.099 8                  37280156.875
        48.000
 197708651.764 6                  37638190.563
        41.400
 17  9  1  1 34  0.0000000  0 12G08G14G18G21G24G31G27G10G32S38S35S33
 119142093.674 7  92838067.47045  22672001.172    22672005.961
        44.100          31.100
 110905531.319 8  86419899.45346  21104595.133    21104597.273
        48.000          36.700
 116027532.179 8  90411121.56745  22079288.328    22079290.117
        48.000          33.100
 119853871.351 7  93392675.69944  22807425.914    22807429.766
        45.400          29.500
 124930681.709 7  97348577.21844  23773496.602    23773502.109
        44.500          27.600
 129584826.448 6 100975226.01142  24659173.344    24659178.172
        37.200          16.300
 116429119.830 7  90723909.18945  22155696.852    22155702.008
        46.200          34.800
 109559043.051 8  85370756.79946  20848372.234    20848376.609
        52.400          41.600
 107675890.135 8  83903372.42747  20490021.805    20490026.293
        53.200          43.400
 195323651.227 8                  37168882.547
        48.000
 195908572.583 7                  37280161.984
        47.900
 197709107.948 6                  37638279.125
        41.300
 17  9  1  1 34 30.0000000  0 12G08G14G18G21G24G31G27G10G32S38S35S33
 119141242.537 7  92837404.23245  22671839.000    22671844.063
        46.100          31.400
 110853291.065 8  86379192.78846  21094654.219    21094656.535
        48.500          37.600
 116070242.716 7  90444402.49245  22087416.234    22087418.000
        47.700          33.300
 119930727.281 7  93452563.39145  22822051.047    22822053.887
        44.500          30.000
 124977305.404 7  97384907.38244  23782368.070    23782373.848
        44.800          26.400
 129478838.272 6 100892637.91042  24639004.500    24639009.250
        39.600          16.300
 116490190.672 7  90771496.84045  22167318.586    22167323.398
        47.300          35.500
 109575602.132 8  85383659.97847  20851523.273    20851527.758
        51.600          42.200
 107653858.987 8  83886205.30247  20485829.430    20485833.957
        52.500          43.800
 195323699.550 7                  37168891.609
        47.800
 195908601.471 7                  37280166.844
        47.000
 197709558.553 6                  37638363.813
        41.500
 17  9  1  1 35  0.0000000  0 12G08G14G18G21G24G31G27G10G32S38S35S33
 119140945.851 7  92837173.06045  22671782.570    22671788.074
        45.100          31.400
 110801483.031 8  86338822.92046  21084795.719    21084798.004
        48.600          37.300
 116113055.835 7  90477763.35145  22095563.234    22095565.359
        47.300          32.300
 120007895.430 7  93512694.38345  22836736.227    22836739.180
        46.200          30.500
 125024442.366 7  97421637.47744  23791338.547    23791343.676
        43.500          26.000
 129372751.705 6 100809973.04643  24618817.484    24618824.281
        41.300          19.000
 116551669.193 7  90819402.17145  22179017.148    22179021.656
        46.300          35.400
 109592337.990 8  85396700.90146  20854708.094    20854712.535
        51.900          41.400
 107632316.996 8  83869419.32347  20481730.445    20481734.984
        52.700          43.200
 195323746.131 7                  37168900.406
        47.600
 195908630.659 7                  37280172.500
        47.200
 197710003.504 6                  37638446.922
        41.300
 17  9  1  1 35 30.0000000  0 12G08G14G18G21G24G31G27G10G32S38S35S33
 119141203.550 7  92837373.84945  22671832.039    22671837.035
        46.000          32.300
 110750107.810 8  86298790.29646  21075018.922    21075021.961
        48.100          37.900
 116155971.575 7  90511204.19145  22103729.906    22103731.359
        47.900          32.700
 120085374.132 7  93573067.34645  22851479.945    22851483.434
        45.500          30.800
 125072091.104 6  97458766.39444  23800404.820    23800410.703
        41.100          25.300
 129266569.183 7 100727233.47042  24598613.133    24598619.035
        43.600          16.900
 116613552.592 7  90867622.97745  22190793.273    22190798.305
        46.700          35.600
 109609250.509 8  85409879.48346  20857926.430    20857930.977
        51.900          41.300
 107611263.751 8  83853014.22147  20477723.867    20477728.160
        53.100          43.400
 195323794.294 8                  37168909.969
        48.400
 195908659.568 8                  37280178.469
        48.200
 197710443.300 6                  37638531.094
        41.300
 17  9  1  1 36  0.0000000  0 12G08G14G18G21G24G31G27G10G32S38S35S33
 119142014.794 7  92838005.98745  22671985.898    22671991.539
        44.300          30.200
 110699166.285 7  86259095.61346  21065325.266    21065328.000
        47.600          36.900
 116198990.573 7  90544725.47345  22111915.969    22111918.070
        47.300          31.800
 120163162.880 7  93633681.92144  22866282.258    22866285.992
        44.700          29.700
 125120250.216 6  97496292.95044  23809569.297    23809575.535
        39.800          24.700
 129160293.624 7 100644421.41743  24578390.852    24578397.164
        42.800          19.000
 116675838.278 7  90916157.27745  22202645.891    22202650.273
        45.700          34.900
 109626339.820 8  85423195.83846  20861178.422    20861183.211
        52.800          41.600
 107590699.103 8  83836989.84047  20473810.375    20473814.684
        51.900          42.600
 195323842.068 8                  37168918.906
        48.300
 195908688.831 7                  37280184.063
        47.400
 197710875.849 6                  37638613.859
        41.600
 17  9  1  1 36 30.0000000  0 12G08G14G18G21G24G31G27G10G32S38S35S33
 119143378.930 7  92839068.94045  22672245.789    22672250.934
        44.600          31.200
 110648658.577 8  86219738.98146  21055713.852    21055716.656
        48.200          38.200
 116242112.714 7  90578327.14245  22120122.047    22120123.516
        46.200          32.700
 120241260.287 7  93694537.00344  22881144.539    22881147.035
        44.100          29.900
 125168918.606 6  97534216.31544  23818830.305    23818837.051
        39.900          26.200
 129053927.616 7 100561538.84343  24558150.336    24558156.305
        42.200          18.600
 116738523.446 7  90965002.82845  22214574.500    22214579.109
        46.500          35.200
 109643605.739 8  85436649.80146  20864463.945    20864468.434
        51.900          41.500
 107570622.615 8  83821345.82847  20469990.063    20469994.547
        51.300          42.900
 195323888.847 8                  37168927.953
        48.200
 195908717.130 8                  37280189.250
        48.200
 197711304.018 6                  37638696.188
        41.800
 17  9  1  1 37  0.0000000  0 12G08G14G18G21G24G31G27G10G32S38S35S33
 119145295.178 7  92840562.12145  22672610.500    22672615.500
        46.300          31.100
 110598585.475 8  86180720.99646  21046185.156    21046187.719
        48.000          36.900
 116285338.121 7  90612009.26745  22128347.586    22128349.250
        47.000          32.400
 120319665.503 7  93755631.94344  22896064.406    22896066.781
        44.700          28.800
 125218094.750 7  97572535.40144  23828188.617    23828194.766
        42.300          25.900
 128947473.543 6 100478587.66742  24537894.766    24537898.996
        37.900          17.800
 116801605.080 7  91014157.32445  22226578.164    22226583.387
        45.700          34.200
 109661048.041 8  85450241.21546  20867783.055    20867787.523
        52.100          41.500
 107551033.664 8  83806081.72647  20466262.211    20466266.961
        52.100          43.200
 195323936.256 7                  37168936.203
        47.700
 195908745.533 7                  37280194.828
        47.900
 197711724.812 6                  37638776.359
        41.600
 17  9  1  1 37 30.0000000  0 12G08G14G18G21G24G31G27G10G32S38S35S33
 119147763.318 7  92842485.35745  22673079.711    22673085.180
        42.900          31.600
 110548947.930 8  86142042.40546  21036739.523    21036741.828
        48.500          38.100
 116328667.544 7  90645772.44045  22136592.633    22136594.715
        46.200          31.900
 120398377.102 7  93816965.60444  22911042.336    22911045.082
        43.500          27.200
 125267777.333 7  97611249.09244  23837643.492    23837649.094
        42.900          24.600
 128840934.726 5 100395570.50542  24517622.375    24517625.277
        34.300          17.800
 116865080.938 7  91063618.99245  22238657.227    22238662.547
        44.900          35.500
 109678667.210 8  85463970.42547  20871136.234    20871140.590
        52.700          42.200
 107531932.417 8  83791197.63847  20462627.742    20462632.059
        51.700          43.000
 195323982.377 8                  37168945.656
        48.800
 195908774.166 8                  37280199.984
        48.600
 197712140.953 6                  37638855.563
        41.300
 17  9  1  1 38  0.0000000  0 12G08G14G18G21G24G31G27G10G32S38S35S33
 119150783.443 7  92844838.68545  22673654.977    22673660.426
        47.500          31.200
 110499746.910 8  86103703.98046  21027377.055    21027379.375
        49.000          37.500
 116372101.851 7  90679617.34745  22144858.180    22144859.984
        45.800          31.800
 120477394.515 7  93878537.55944  22926079.211    22926082.176
        44.600          27.800
 125317965.759 7  97650356.96044  23847193.516    23847199.418
        42.600          24.600
 128734314.790 5 100312490.12442  24497334.602    24497336.750
        32.200          16.900
 116928948.954 7  91113386.23845  22250811.688    22250815.723
        46.700          35.000
 109696463.890 8  85477837.96646  20874522.578    20874527.387
        52.300          41.300
 107513319.133 8  83776693.80047  20459085.461    20459089.574
        51.900          42.600
 195324029.862 7                  37168954.984
        47.900
 195908803.384 8                  37280205.906
        48.300
 197712552.339 7                  37638933.672
        42.100
 17  9  1  1 38 30.0000000  0 12G08G14G18G21G24G31G27G10G32S38S35S33
 119154354.213 7  92847621.10645  22674333.875    22674339.867
        45.900          31.800
 110450982.328 8  86065705.63346  21018097.398    21018099.641
        48.200          37.700
 116415640.743 7  90713543.75745  22153143.633    22153145.477
        47.300          32.900
 120556716.243 7  93940346.66644  22941173.531    22941176.805
        43.700          27.100
 125368658.200 6  97689857.56844  23856840.164    23856845.984
        41.600          25.800
 128627615.519 5 100229347.82642  24477029.297    24477031.172
        33.500          15.600
 116993205.710 7  91163456.41345  22263038.836    22263044.160
        47.600          34.800
 109714437.437 8  85491843.33046  20877942.922    20877947.691
        51.800          41.800
 107495192.771 8  83762569.37947  20455636.281    20455640.555
        52.100          43.700
 195324077.348 8                  37168963.500
        48.100
 195908833.345 8                  37280211.234
        48.000
 197712957.468 6                  37639009.891
        41.800
 17  9  1  1 39  0.0000000  0 12G08G14G18G21G24G31G27G10G32S38S35S33
 119158473.788 7  92850831.15245  22675118.445    22675122.742
        45.200          30.400
 110402653.831 8  86028047.06746  21008900.828    21008903.133
        48.500          37.700
 116459283.534 7  90747551.11145  22161447.875    22161450.078
        46.900          32.400
 120636340.162 7  94002391.22444  22956325.773    22956327.832
        42.600          26.000
 125419851.399 7  97729748.36444  23866581.984    23866587.508
        42.300          24.800
 128520838.860 6 100146145.29943  24456709.102    24456710.539
        37.700          18.300
 117057847.340 7  91213826.49045  22275339.672    22275344.836
        47.000          35.000
 109732586.776 8  85505985.67046  20881396.391    20881401.070
        52.700          41.200
 107477551.795 8  83748823.17547  20452279.484    20452284.031
        53.200          43.200
 195324122.931 8                  37168971.984
        48.800
 195908860.693 8                  37280216.031
        48.400
 197713356.479 7                  37639084.297
        42.500
 17  9  1  1 39 30.0000000  0 12G08G14G18G21G24G31G27G10G32S38S35S33
 119163142.262 7  92854468.92345  22676006.883    22676011.336
        46.700          31.600
 110354762.808 8  85990729.42646  20999787.969    20999789.691
        48.600          37.900
 116503031.328 7  90781640.30245  22169772.969    22169775.441
        46.600          32.700
 120716265.955 7  94064671.04344  22971534.539    22971537.336
        43.200          27.100
 125471545.344 6  97770029.36944  23876419.469    23876424.711
        41.900          24.700
 128413988.561 6 100062885.46742  24436373.453    24436375.891
        39.900          17.800
 117122872.026 7  91264495.04845  22287713.781    22287718.191
        47.500          34.900
 109750912.862 8  85520265.73546  20884883.695    20884888.238
        52.900          41.800
 107460396.751 8  83735455.61947  20449014.805    20449019.313
        52.700          43.800
 195324171.094 8                  37168981.438
        48.300
 195908888.575 8                  37280222.141
        48.300
 197713749.612 7                  37639160.969
        43.200
 17  9  1  1 40  0.0000000  0 12G08G14G18G21G24G31G27G10G32S38S35S33
 119168359.851 7  92858534.54845  22676999.844    22677004.434
        44.600          30.800
 110307310.596 7  85953753.68846  20990757.281    20990759.949
        46.600          36.600
 116546885.132 7  90815812.09345  22178117.984    22178120.277
        46.400          31.000
 120796492.917 7  94127185.54444  22986802.328    22986804.977
        42.500          25.900
 125523739.710 7  97810700.27443  23886350.820    23886356.738
        42.000          22.600
 128307067.835 7  99979570.70242  24416020.938    24416026.285
        42.200          16.900
 117188277.608 7  91315460.42245  22300160.500    22300165.207
        47.500          35.000
 109769416.355 8  85534684.04146  20888405.078    20888409.461
        51.400          41.300
 107443727.880 8  83722466.89847  20445843.008    20445847.211
        51.100          43.000
 195324217.936 7                  37168989.469
        47.500
 195908918.002 7                  37280227.922
        47.600
 197714137.532 7                  37639232.875
        43.100
 17  9  1  1 40 30.0000000  0 12G08G14G18G21G24G31G27G10G32S38S35S33
 119174126.010 7  92863027.66845  22678096.328    22678101.840
        45.500          30.400
 110260297.683 8  85917120.26546  20981811.023    20981813.348
        49.000          38.100
 116590845.415 7  90850066.84445  22186482.938    22186485.172
        46.800          31.400
 120877020.155 7  94189934.01844  23002125.625    23002128.902
        43.900          28.500
 125576432.318 7  97851759.45044  23896378.234    23896383.707
        43.400          25.500
 128200079.990 7  99896203.65342  24395656.719    24395665.074
        42.300          17.800
 117254061.504 8  91366720.58045  22312678.477    22312683.328
        48.300          34.600
 109788097.543 8  85549240.81447  20891960.180    20891964.539
        52.400          42.000
 107427544.876 8  83709856.77047  20442763.383    20442767.641
        52.500          43.700
 195324265.385 8                  37168998.891
        48.500
 195908946.866 8                  37280233.438
        48.000
 197714521.342 7                  37639306.297
        43.700
 17  9  1  1 41  0.0000000  0 12G08G14G18G21G24G31G27G10G32S38S35S33
 119180438.179 7  92867946.22345  22679298.125    22679303.164
        47.100          30.100
 110213722.927 8  85880828.28146  20972948.578    20972950.156
        48.400          38.100
 116634910.924 7  90884403.60245  22194868.789    22194870.758
        47.100          31.700
 120957845.059 7  94252914.43244  23017505.977    23017508.285
        43.300          27.800
 125629620.571 7  97893204.85144  23906499.484    23906505.363
        42.600          25.200
 128093025.784 6  99812784.83843  24375271.906    24375291.742
        40.600          18.300
 117320219.311 7  91418272.09345  22325268.063    22325272.875
        46.600          34.500
 109806954.858 8  85563934.82846  20895548.242    20895552.863
        52.100          41.200
 107411845.737 8  83697623.68647  20439775.977    20439780.406
        52.700          43.300
 195324313.442 8                  37169007.625
        49.300
 195908976.196 8                  37280239.750
        48.600
 197714898.294 7                  37639379.688
        43.700
 17  9  1  1 41 30.0000000  0 12G08G14G18G21G24G31G27G10G32S38S35S33
 119187296.474 7  92873290.33345  22680603.086    22680607.867
        46.600          31.200
 110167587.973 8  85844878.98546  20964168.828    20964171.500
        48.000          37.700
 116679083.024 7  90918823.41145  22203274.789    22203276.438
        47.100          31.400
 121038966.828 7  94316126.20744  23032942.789    23032945.152
        43.300          28.000
 125683304.076 7  97935036.13544  23916715.469    23916720.965
        42.600          24.700
 127985909.348 6  99729317.51643  24354886.859    24354909.176
        39.200          18.600
 117386749.250 7  91470113.58245  22337927.539    22337932.160
        47.100          34.400
 109825989.371 8  85578766.90746  20899170.547    20899174.648
        52.100          41.700
 107396630.992 8  83685768.04647  20436880.492    20436884.711
        51.600          43.600
 195324359.724 8                  37169017.000
        48.900
 195909005.577 7                  37280244.422
        47.900
 197715268.561 7                  37639450.000
        43.200
 17  9  1  1 42  0.0000000  0 12G08G14G18G21G24G31G27G10G32S38S35S33
 119194699.897 7  92879059.24045  22682011.383    22682016.895
        44.800          30.400
 110121892.912 7  85809272.46746  20955473.461    20955475.961
        47.300          37.700
 116723361.738 7  90953326.30145  22211700.695    22211702.117
        47.000          31.400
 121120384.077 7  94379568.21844  23048436.172    23048438.711
        44.700          28.200
 125737480.480 7  97977251.51244  23927024.852    23927030.316
        42.900          24.500
 127878733.313 6  99645803.78142  24334492.781    24334515.309
        38.600          16.900
 117453648.020 7  91522242.45445  22350657.969    22350663.320
        47.000          34.000
 109845200.682 8  85593736.75246  20902826.094    20902830.836
        51.100          41.500
 107381899.613 8  83674289.07047  20434077.320    20434080.973
        50.900          42.600
 195324406.896 8                  37169025.719
        48.800
 195909033.966 8                  37280249.875
        48.200
 197715635.503 6                  37639518.813
        41.800
 17  9  1  1 42 30.0000000  0 12G08G14G18G21G24G31G27G10G32S38S35S33
 119202647.536 7  92885252.18645  22683524.086    22683528.938
        46.400          30.900
 110076638.235 8  85774009.10546  20946862.125    20946864.203
        48.700          38.500
 116767747.458 7  90987912.56045  22220146.648    22220148.613
        46.600          31.900
 121202095.734 7  94443239.61144  23063985.406    23063987.777
        44.400          28.800
 125792148.691 7  98019850.11544  23937427.438    23937433.461
        42.300          25.600
 127771500.535 5  99562245.74542  24314084.352    24314113.172
        32.200          16.300
 117520912.980 7  91574656.67445  22363458.047    22363463.609
        46.500          34.200
 109864588.990 8  85608844.52947  20906515.758    20906520.172
        51.300          42.000
 107367651.338 8  83663186.52547  20431365.555    20431369.859
        50.800          43.400
 195324453.754 8                  37169034.375
        48.600
 195909063.003 8                  37280255.234
        48.000
 197715994.966 6                  37639587.641
        41.800
 17  9  1  1 43  0.0000000  0 11G08G14G18G21G24G27G10G32S38S35S33
 119211138.611 7  92891868.59945  22685140.383    22685145.129
        46.500          31.800
 110031824.223 7  85739089.12046  20938334.266    20938336.602
        47.400          37.900
 116812240.524 7  91022582.47045  22228613.734    22228615.406
        45.800          31.200
 121284100.471 7  94507139.39244  23079590.273    23079592.629
        43.600          28.000
 125847306.560 7  98062830.26044  23947923.898    23947929.949
        43.500          25.800
 117588541.107 7  91627353.87145  22376327.508    22376332.570
        45.800          33.600
 109884154.214 8  85624090.14946  20910238.898    20910243.496
        51.300          41.800
 107353885.393 8  83652459.82347  20428746.539    20428750.652
        51.300          43.400
 195324500.007 8                  37169043.328
        49.000
 195909092.731 7                  37280260.609
        47.900
 197716349.798 6                  37639655.000
        41.700
 17  9  1  1 43 30.0000000  0 12G08G14G18G21G24G31G27G10G32S38S35S33
 119220171.896 7  92898907.51745  22686858.953    22686864.172
        46.100          31.500
 109987451.103 7  85704512.68946  20929890.156    20929892.656
        47.300          38.200
 116856841.064 7  91057336.11945  22237100.523    22237102.773
        46.000          31.500
 121366397.343 7  94571266.84644  23095251.047    23095253.641
        42.600          27.900
 125902952.689 7  98106190.88444  23958512.852    23958519.086
        43.200          24.200
 127556874.82416  99395004.42952  24273244.461    24273275.734
        37.100          17.400
 117656529.461 7  91680331.77445  22389265.031    22389270.730
        46.100          34.000
 109903896.332 8  85639473.62146  20913995.758    20914000.012
        50.900          41.700
 107340601.198 8  83642108.52147  20426218.188    20426222.832
        50.500          44.100
 195324547.102 8                  37169052.203
        49.100
 195909121.770 8                  37280265.391
        49.300
 197716698.071 7                  37639721.688
        42.000
 17  9  1  1 44  0.0000000  0 12G08G14G18G21G24G31G27G10G32S38S35S33
 119229746.797 7  92906368.47045  22688681.070    22688686.266
        45.900          30.900
 109943519.609 7  85670280.37346  20921530.359    20921532.836
        46.700          38.000
 116901549.578 7  91092173.90545  22245608.813    22245610.570
        45.600          31.800
 121448984.809 7  94635620.70744  23110967.406    23110970.613
        44.700          27.100
 125959085.671 7  98149930.84544  23969195.156    23969200.191
        42.800          24.500
 127449488.550 6  99311326.83843  24252812.438    24252841.375
        41.700          18.300
 117724875.480 7  91733588.38045  22402271.273    22402276.801
        46.600          34.400
 109923815.655 8  85654995.16946  20917786.000    20917790.281
        50.300          41.100
 107327798.437 8  83632132.35747  20423782.211    20423786.270
        50.400          42.700
 195324593.522 8                  37169061.953
        48.900
 195909150.738 8                  37280271.875
        49.100
 197717039.696 6                  37639786.766
        41.700
 17  9  1  1 44 30.0000000  0 12G08G14G18G21G24G31G27G10G32S38S35S33
 119239861.746 7  92914250.24145  22690606.344    22690611.633
        44.600          32.500
 109900029.555 7  85636392.02846  20913254.188    20913256.453
        46.000          38.600
 116946366.134 7  91127095.89245  22254137.094    22254139.176
        45.500          31.300
 121531860.898 7  94700199.43644  23126737.859    23126740.867
        44.300          27.300
 126015703.815 7  98194048.87643  23979969.203    23979974.496
        42.400          23.900
 127342056.376 7  99227613.46443  24232369.852    24232398.492
        45.000          19.000
 117793575.814 7  91787121.08445  22415344.305    22415349.922
        46.900          34.800
 109943911.811 8  85670654.51547  20921610.508    20921615.102
        49.200          42.200
 107315475.986 8  83622530.46647  20421437.367    20421441.445
        50.500          44.600
 195324639.871 8                  37169069.859
        48.100
 195909178.486 8                  37280277.141
        49.000
 197717377.632 7                  37639849.656
        42.700
 17  9  1  1 45  0.0000000  0 12G08G14G18G21G24G31G27G10G32S38S35S33
 119250516.085 7  92922552.31445  22692633.484    22692639.082
        46.000          31.600
 109856980.830 7  85602847.58246  20905062.500    20905064.355
        46.400          37.700
 116991290.618 7  91162101.97445  22262686.305    22262687.602
        45.500          31.000
 121615024.202 7  94765002.00544  23142562.484    23142566.168
        42.600          26.200
 126072805.129 7  98238543.42144  23990834.969    23990841.371
        42.600          25.900
 127234581.218 7  99143866.58243  24211916.891    24211946.730
        46.700          18.600
 117862627.458 7  91840927.52845  22428484.461    22428489.727
        46.700          34.700
 109964184.830 8  85686451.66346  20925468.078    20925472.387
        50.700          41.300
 107303633.213 8  83613302.33747  20419183.523    20419188.074
        52.000          43.700
 195324685.745 8                  37169078.906
        48.400
 195909207.559 8                  37280282.516
        48.500
 197717707.810 7                  37639913.297
        42.800
 17  9  1  1 45 30.0000000  0 12G08G14G18G21G24G31G27G10G32S38S35S33
 119261708.811 7  92931273.93145  22694763.766    22694768.629
        44.700          31.800
 109814374.531 7  85569647.88346  20896954.836    20896957.227
        45.900          38.600
 117036324.015 7  91197192.91145  22271255.406    22271257.281
        45.800          30.600
 121698474.319 7  94830028.06444  23158442.789    23158446.000
        42.500          25.600
 126130388.025 7  98283413.18744  24001792.766    24001798.320
        42.800          24.700
 127127066.372 7  99060088.71742  24191464.156    24191483.387
        46.800          16.900
 117932027.990 7  91895005.81745  22441690.984    22441696.547
        46.600          34.900
 109984635.196 8  85702387.01046  20929359.938    20929364.480
        49.700          41.800
 107292269.952 8  83604447.86847  20417021.227    20417025.906
        49.800          44.100
 195324731.148 7                  37169087.938
        47.600
 195909235.504 8                  37280288.094
        48.100
 197718033.237 7                  37639976.297
        43.000
 17  9  1  1 46  0.0000000  0 12G08G14G18G21G24G31G27G10G32S38S35S33
 119273438.846 7  92940414.18845  22696995.945    22697000.586
        45.400          31.500
 109772211.514 7  85536793.60346  20888931.156    20888934.090
        46.200          37.800
 117081466.661 7  91232368.99145  22279845.781    22279847.242
        46.500          31.400
 121782209.611 7  94895276.31344  23174377.977    23174381.094
        44.000          26.900
 126188451.369 7  98328657.34644  24012841.711    24012846.941
        42.600          25.700
 127019514.730 7  98976282.19842  24170995.258    24171005.621
        44.700          16.900
 118001774.421 7  91949353.63345  22454963.508    22454968.707
        45.500          33.700
 110005262.964 8  85718460.59246  20933285.195    20933289.695
        50.200          41.300
 107281385.507 8  83595966.49747  20414949.852    20414954.527
        51.700          43.000
 195324776.951 8                  37169096.563
        48.100
 195909263.448 8                  37280293.328
        49.100
 197718352.518 7                  37640036.281
        43.400
 17  9  1  1 46 30.0000000  0 12G08G14G18G21G24G31G27G10G32S38S35S33
 119285705.451 7  92949972.57745  22699329.359    22699335.438
        43.900          32.100
 109730491.251 7  85504284.32546  20880992.430    20880994.363
        46.400          38.500
 117126718.484 7  91267630.13545  22288456.938    22288458.453
        47.100          31.600
 121866228.472 7  94960745.54644  23190365.164    23190369.332
        43.500          24.700
 126246992.731 7  98374273.98544  24023981.859    24023987.000
        43.200          25.200
 126911928.926 6  98892449.11742  24150512.398    24150522.473
        39.900          17.400
 118071863.631 7  92003968.57945  22468301.422    22468306.082
        47.000          34.300
 110026067.931 8  85734672.25946  20937244.117    20937248.617
        49.900          41.400
 107270978.899 8  83587857.46647  20412969.852    20412973.855
        51.200          43.500
 195324821.389 7                  37169105.031
        46.800
 195909291.677 8                  37280298.047
        48.500
 197718666.245 7                  37640095.656
        42.500
 17  9  1  1 47  0.0000000  0 12G08G14G18G21G24G31G27G10G32S38S35S33
 119298507.493 7  92959948.18045  22701766.219    22701771.441
        46.200          31.000
 109689214.627 7  85472120.75146  20873137.766    20873139.816
        46.400          38.300
 117172080.552 7  91302977.18245  22297088.945    22297090.918
        47.800          31.000
 121950530.182 6  95026435.17744  23206407.711    23206410.441
        41.400          24.700
 126306010.745 7  98420262.03644  24035212.680    24035218.395
        43.000          24.500
 126804312.610 5  98808592.25042  24130027.227    24130040.816
        30.700          17.800
 118142293.313 7  92058848.80045  22481703.039    22481708.301
        47.000          33.700
 110047050.820 8  85751022.55546  20941237.211    20941241.664
        50.300          41.900
 107261050.046 8  83580120.71247  20411080.250    20411084.352
        52.100          42.800
 195324867.983 7                  37169113.938
        47.100
 195909320.439 8                  37280303.453
        48.000
 197718974.309 7                  37640155.219
        42.300
 17  9  1  1 47 30.0000000  0 12G08G14G18G21G24G31G27G10G32S38S35S33
 119311843.697 7  92970340.02145  22704302.938    22704308.473
        44.700          31.200
 109648380.978 7  85440302.32546  20865367.023    20865369.359
        46.800          38.400
 117217552.665 7  91338409.99445  22305742.250    22305743.676
        46.800          31.600
 122035112.759 7  95092343.67744  23222503.805    23222506.590
        43.000          26.800
 126365503.692 7  98466620.17544  24046533.789    24046540.055
        42.500          25.600
 126696668.403 6  98724713.53142  24109551.852    24109554.895
        37.600          17.400
 118213059.850 7  92113991.51245  22495170.047    22495175.254
        45.400          33.500
 110068211.138 8  85767511.11846  20945264.008    20945268.340
        51.200          41.300
 107251597.741 8  83572755.28347  20409281.539    20409286.027
        52.300          44.000
 195324913.950 8                  37169122.469
        49.000
 195909348.582 8                  37280309.734
        49.200
 197719276.249 7                  37640212.203
        42.600
 17  9  1  1 48  0.0000000  0 12G08G14G18G21G24G31G27G10G32S38S35S33
 119325713.075 7  92981147.31645  22706943.063    22706947.609
        44.300          30.200
 109607991.165 7  85408829.76346  20857681.242    20857683.574
        46.600          38.400
 117263135.558 7  91373929.11045  22314416.117    22314418.195
        46.700          31.100
 122119974.966 7  95158470.04444  23238652.844    23238655.633
        43.800          26.300
 126425469.387 6  98513346.66644  24057944.414    24057951.250
        41.700          25.300
 126588998.555 7  98640815.04243  24089066.594    24089064.410
        42.900          18.300
 118284160.587 7  92169394.62845  22508699.914    22508704.836
        45.200          32.800
 110089549.246 8  85784138.20246  20949324.250    20949328.844
        49.700          41.300
 107242621.465 8  83565760.80047  20407573.078    20407577.387
        52.000          43.400
 195324957.940 8                  37169130.594
        48.300
 195909376.673 8                  37280315.234
        48.400
 197719573.863 7                  37640268.438
        42.700
 17  9  1  1 48 30.0000000  0 12G08G14G18G21G24G31G27G10G32S38S35S33
 119340114.222 7  92992368.98545  22709683.914    22709688.910
        45.200          31.000
 109568045.408 7  85377703.22946  20850080.117    20850081.926
        46.800          39.200
 117308828.949 7  91409534.34445  22323111.641    22323113.539
        47.800          31.100
 122205115.147 7  95224813.02044  23254853.680    23254857.250
        43.200          25.900
 126485906.911 6  98560440.84544  24069445.367    24069451.539
        41.600          24.400
 126481306.164 7  98556899.03243  24068571.625    24068570.805
        46.800          22.300
 118355592.363 7  92225055.72545  22522292.945    22522297.945
        46.300          33.300
 110111064.983 8  85800903.70547  20953418.898    20953422.645
        51.600          42.400
 107234120.260 8  83559136.50347  20405955.477    20405959.781
        52.000          43.600
 195325003.707 8                  37169139.938
        48.700
 195909405.077 8                  37280320.609
        48.700
 197719863.201 7                  37640321.578
        42.200
 17  9  1  1 49  0.0000000  0 12G08G14G18G21G24G31G27G10G32S38S35S33
 119355045.990 7  93004004.13345  22712524.547    22712530.059
        44.300          30.100
 109528543.735 7  85346922.71646  20842563.242    20842565.250
        46.700          37.500
 117354633.677 8  91445226.33945  22331827.523    22331829.496
        48.200          30.600
 122290532.266 6  95291371.79144  23271108.016    23271110.543
        41.100          26.700
 126546813.779 7  98607900.74044  24081036.047    24081042.148
        42.400          24.700
 126373594.254 7  98472967.81243  24048073.758    24048073.582
        46.400          23.200
 118427352.400 7  92280972.61645  22535947.984    22535953.316
        44.700          32.700
 110132758.574 8  85817807.79646  20957546.711    20957551.250
        51.800          41.000
 107226093.479 8  83552881.88047  20404428.164    20404432.422
        52.200          43.000
 195325048.725 8                  37169147.750
        48.600
 195909433.373 8                  37280325.625
        49.000
 197720148.757 7                  37640377.516
        42.600
 17  9  1  1 49 30.0000000  0 12G08G14G18G21G24G31G27G10G32S38S35S33
 119370507.393 7  93016051.97445  22715467.047    22715471.816
        46.400          32.000
 109489486.537 7  85316488.53546  20835130.789    20835133.285
        46.500          38.700
 117400549.999 8  91481005.29445  22340565.750    22340567.520
        49.000          31.200
 122376224.759 6  95358145.17544  23287415.094    23287417.359
        40.400          26.200
 126608188.260 6  98655725.01543  24092715.094    24092721.055
        41.100          22.000
 126265866.029 7  98389023.88343  24027572.773    24027574.809
        44.500          22.500
 118499437.651 7  92337142.91845  22549665.820    22549671.613
        45.100          33.500
 110154630.116 8  85834850.56446  20961708.680    20961713.340
        51.900          41.800
 107218540.401 8  83546996.37447  20402990.586    20402994.719
        51.100          44.000
 195325094.359 8                  37169156.703
        48.200
 195909461.032 8                  37280331.172
        48.500
 197720426.821 7                  37640431.016
        42.000
 17  9  1  1 50  0.0000000  0 12G08G14G18G21G24G31G27G10G32S38S35S33
 119386497.000 7  93028511.39344  22718509.180    22718515.039
        45.200          29.700
 109450873.341 8  85286400.34646  20827782.945    20827785.086
        48.600          38.500
 117446578.107 8  91516871.34245  22349324.141    22349326.102
        48.200          30.700
 122462190.984 6  95425131.83744  23303773.695    23303775.832
        41.800          25.600
 126670028.460 6  98703912.17843  24104483.117    24104488.652
        40.900          22.000
 126158124.456 6  98305069.51243  24007068.922    24007073.824
        41.800          20.900
 118571845.021 7  92393564.22445  22563444.742    22563449.953
        46.800          33.000
 110176679.667 8  85852032.02646  20965904.547    20965909.293
        51.000          41.400
 107211460.121 8  83541479.28647  20401643.633    20401647.969
        51.600          43.300
 195325138.469 8                  37169164.875
        48.600
 195909489.028 8                  37280336.234
        48.900
 197720701.330 6                  37640482.156
        41.200
 17  9  1  1 50 30.0000000  0 12G08G14G18G21G24G31G27G10G32S38S35S33
 119403013.789 7  93041381.62445  22721653.383    22721658.031
        46.800          31.100
 109412705.140 7  85256658.92046  20820519.617    20820521.480
        47.500          38.200
 117492718.681 8  91552825.03145  22358104.438    22358106.547
        48.200          31.400
 122548430.083 6  95492331.11044  23320184.211    23320187.039
        40.900          25.300
 126732332.553 6  98752460.83443  24116338.789    24116344.914
        39.500          22.300
 126050372.719 6  98221107.14143  23986564.281    23986571.629
        37.400          22.200
 118644571.963 7  92450234.52045  22577284.055    22577289.238
        46.600          34.100
 110198907.708 8  85869352.56846  20970134.328    20970139.141
        51.300          41.200
 107204852.247 8  83536330.31447  20400385.930    20400390.383
        51.500          43.600
 195325183.459 8                  37169173.859
        48.500
 195909517.195 8                  37280341.891
        49.100
 197720968.982 7                  37640533.609
        43.100
 17  9  1  1 51  0.0000000  0 12G08G14G18G21G24G31G27G10G32S38S35S33
 119420056.061 7  93054661.29545  22724895.570    22724901.254
        45.800          31.500
 109374981.416 7  85227263.81346  20813341.094    20813342.730
        47.600          37.800
 117538972.074 7  91588866.62945  22366906.016    22366908.109
        47.400          30.900
 122634939.871 6  95559741.30944  23336646.117    23336649.453
        39.800          24.800
 126795099.073 6  98801369.78643  24128282.664    24128288.855
        39.500          22.000
 125942613.177 6  98137138.65943  23966058.898    23966066.566
        40.100          21.700
 118717614.988 7  92507151.09645  22591183.773    22591189.039
        47.200          33.600
 110221313.871 8  85886811.91946  20974398.563    20974403.551
        50.300          40.600
 107198715.477 8  83531548.42547  20399218.211    20399222.590
        51.800          43.000
 195325228.780 8                  37169182.781
        48.500
 195909544.685 8                  37280346.438
        49.100
 197721230.257 7                  37640583.219
        43.700
 17  9  1  1 51 30.0000000  0 12G08G14G18G21G24G31G27G10G32S38S35S33
 119437622.949 7  93068349.78345  22728238.781    22728243.969
        45.700          31.500
 109337702.600 7  85198215.40346  20806246.922    20806249.016
        46.700          38.100
 117585338.637 8  91624996.41045  22375729.875    22375731.078
        48.000          32.100
 122721719.291 6  95627361.61744  23353160.227    23353162.512
        40.800          25.500
 126858325.796 6  98850637.36443  24140314.945    24140321.133
        40.100          21.300
 125834848.779 7  98053166.49743  23945552.734    23945557.840
        44.900          21.700
 118790971.277 7  92564311.80845  22605143.289    22605148.070
        45.800          33.300
 110243898.527 8  85904410.34446  20978695.703    20978700.508
        51.100          41.400
 107193049.202 8  83527133.15647  20398139.891    20398144.453
        51.700          43.700
 195325272.348 8                  37169190.672
        48.200
 195909572.928 8                  37280353.109
        49.000
 197721486.073 7                  37640631.313
        43.700
 17  9  1  1 52  0.0000000  0 12G08G14G18G21G24G31G27G10G32S38S35S33
 119455713.060 7  93082445.95945  22731681.102    22731686.176
        45.300          31.100
 109300868.928 7  85169513.84346  20799237.711    20799239.813
        47.400          37.300
 117631818.568 8  91661214.54245  22384574.547    22384575.836
        48.000          30.100
 122808766.796 6  95695190.79243  23369724.836    23369727.676
        40.200          23.800
 126922010.800 6  98900262.06143  24152433.352    24152439.352
        39.400          20.600
 125727082.787 7  97969193.13743  23925045.734    23925046.582
        47.300          22.900
 118864637.902 7  92621714.31345  22619161.242    22619166.512
        45.700          31.900
 110266661.765 8  85922147.94046  20983027.539    20983032.461
        49.900          40.600
 107187852.477 8  83523083.75847  20397151.242    20397155.820
        51.900          43.200
 195325316.648 7                  37169198.750
        46.700
 195909599.958 8                  37280358.750
        48.900
 197721736.386 7                  37640681.078
        43.500
 17  9  1  1 52 30.0000000  0 12G08G14G18G21G24G31G27G10G32S38S35S33
 119474325.012 7  93096948.78545  22735222.781    22735228.137
        45.600          31.300
 109264480.534 7  85141159.26346  20792313.266    20792315.637
        46.300          38.900
 117678412.118 7  91697521.19145  22393441.023    22393442.734
        47.100          30.300
 122896081.048 6  95763227.81944  23386340.133    23386343.977
        40.600          26.000
 126986152.084 6  98950242.28543  24164639.234    24164644.941
        40.600          21.300
 125619318.343 7  97885220.98143  23904536.516    23904537.172
        45.800          22.200
 118938611.886 7  92679356.34045  22633238.438    22633242.797
        45.200          32.400
 110289603.849 8  85940024.87746  20987393.133    20987397.730
        49.100          41.900
 107183124.655 8  83519399.75747  20396251.766    20396255.734
        50.300          43.800
 195325361.715 8                  37169207.563
        48.400
 195909628.080 8                  37280362.500
        48.500
 197721981.240 7                  37640726.656
        43.100
 17  9  1  1 53  0.0000000  0 12G08G14G18G21G24G31G27G10G32S38S35S33
 119493457.541 7  93111857.22245  22738863.977    22738868.848
        45.500          31.200
 109228537.304 7  85113151.56846  20785473.844    20785475.379
        47.300          38.100
 117725119.552 7  91733916.57745  22402329.367    22402330.910
        47.200          30.200
 122983660.350 6  95831471.39944  23403006.266    23403009.555
        40.400          25.600
 127050748.247 6  99000576.97743  24176932.117    24176937.313
        40.200          21.300
 125511558.331 7  97801252.22643  23884030.625    23884030.598
        44.500          22.300
 119012890.167 7  92737235.47945  22647373.133    22647378.000
        46.300          32.500
 110312724.784 8  85958041.18446  20991793.281    20991798.129
        49.800          41.300
 107178864.760 8  83516080.36647  20395440.922    20395444.898
        50.500          43.400
 195325405.841 8                  37169215.594
        48.600
 195909655.799 7                  37280367.484
        47.100
 197722219.301 7                  37640773.391
        42.500
 17  9  1  1 53 30.0000000  0 12G08G14G18G21G24G31G27G10G32S38S35S33
 119513108.944 7  93127169.99745  22742603.297    22742608.008
        46.800          31.800
 109193038.979 7  85085490.55846  20778718.258    20778720.566
        46.300          39.000
 117771941.431 7  91770401.15345  22411239.164    22411240.738
        47.200          30.200
 123071503.170 6  95899920.35144  23419722.219    23419725.148
        40.300          25.800
 127115797.012 6  99051264.31843  24189309.664    24189316.043
        40.700          20.900
 125403805.505 6  97717288.99543  23863526.922    23863526.945
        40.300          22.600
 119087469.577 7  92795349.31245  22661564.773    22661570.410
        45.300          32.600
 110336024.584 8  85976196.87846  20996227.094    20996231.426
        50.800          41.300
 107175071.679 8  83513124.73647  20394719.008    20394722.980
        51.200          44.100
 195325449.961 8                  37169223.891
        49.100
 195909682.754 7                  37280373.844
        46.700
 197722452.467 6                  37640815.266
        41.800
 17  9  1  1 54  0.0000000  0 12G08G14G18G21G24G31G27G10G32S38S35S33
 119533277.990 7  93142886.12745  22746441.781    22746446.934
        46.700          32.100
 109157985.863 7  85058176.46046  20772047.719    20772050.105
        46.200          38.100
 117818878.364 7  91806975.36745  22420170.953    22420172.242
        46.600          30.100
 123159608.101 6  95968573.50244  23436488.016    23436489.621
        41.100          24.800
 127181296.070 6  99102302.56943  24201774.797    24201780.188
        40.700          19.600
 125296063.229 7  97633333.94843  23843023.633    23843026.574
        42.800          22.800
 119162347.190 7  92853695.49745  22675813.758    22675818.695
        46.300          32.300
 110359503.525 8  85994492.15046  21000694.586    21000699.695
        50.300          40.900
 107171744.669 8  83510532.26847  20394085.875    20394090.363
        50.300          44.200
 195325492.637 7                  37169233.219
        46.400
 195909711.105 8                  37280378.688
        48.200
 197722678.865 6                  37640857.578
        41.300
 17  9  1  1 54 30.0000000  0 12G08G14G18G21G24G31G27G10G32S38S35S33
 119553963.534 7  93159004.71945  22750377.609    22750383.219
        46.000          32.200
 109123378.522 7  85031209.70846  20765462.453    20765464.250
        46.400          38.400
 117865930.925 7  91843639.68745  22429124.656    22429126.078
        46.300          30.700
 123247973.948 6  96037429.97344  23453303.375    23453305.953
        40.900          25.800
 127247243.917 6  99153690.46843  24214323.305    24214329.703
        39.000          19.300
 125188334.441 7  97549389.50543  23822524.313    23822529.465
        46.400          22.000
 119237520.366 7  92912271.94645  22690118.234    22690123.840
        45.300          31.800
 110383162.191 8  86012927.47146  21005196.719    21005201.367
        49.600          40.800
 107168883.256 8  83508302.59847  20393541.250    20393545.645
        50.200          43.800
 195325537.539 7                  37169241.922
        47.800
 195909738.800 7                  37280383.656
        46.600
 197722900.574 7                  37640900.875
        43.400
 17  9  1  1 55  0.0000000  0 12G08G14G18G21G24G31G27G10G32S38S35S33
 119575163.733 7  93175524.32845  22754412.086    22754416.676
        45.600          31.700
 109089216.191 7  85004589.73846  20758961.539    20758964.000
        46.000          38.000
 117913098.963 7  91880393.99845  22438100.273    22438102.547
        47.500          30.600
 123336598.609 6  96106488.14344  23470168.023    23470172.984
        40.600          25.300
 127313638.571 6  99205426.57043  24226958.406    24226963.934
        38.600          19.000
 125080621.785 8  97465457.64744  23802028.773    23802033.688
        48.800          25.100
 119312985.518 7  92971075.96345  22704479.063    22704484.145
        44.000          31.100
 110407000.222 8  86031502.56546  21009733.320    21009737.965
        49.500          41.000
 107166485.960 8  83506434.58947  20393085.281    20393089.273
        51.300          42.500
 195325580.930 8                  37169249.391
        49.000
 195909766.375 8                  37280389.125
        48.500
 197723115.429 6                  37640942.891
        41.700
 17  9  1  1 55 30.0000000  0 13G08G14G18G21G24G31G27G10G11G32S38S35
                                S33
 119596877.390 7  93192444.02845  22758544.641    22758549.488
        46.100          32.400
 109055498.657 7  84978316.35946  20752545.469    20752547.559
        45.700          38.800
 117960382.713 7  91917238.46245  22447098.070    22447100.352
        47.400          31.400
 123425480.692 6  96175746.91944  23487081.773    23487086.883
        41.700          25.400
 127380477.477 6  99257508.82942  24239677.102    24239682.836
        37.800          15.600
 124972928.204 8  97381540.67044  23781534.219    23781538.785
        48.100          25.800
 119388739.500 7  93030104.99045  22718894.875    22718900.730
        46.000          32.700
 110431017.659 8  86050217.43846  21014303.547    21014307.758
        51.000          41.600
 124882309.88415                  23764305.945
        32.000
 107164551.730 8  83504927.40747  20392717.156    20392721.461
        50.500          43.400
 195325624.997 7                  37169258.125
        47.200
 195909793.995 8                  37280394.234
        48.200
 197723325.654 6                  37640980.313
        41.300
 17  9  1  1 56  0.0000000  0 13G08G14G18G21G24G31G27G10G11G32S38S35
                                S33
 119619102.761 7  93209762.49245  22762773.398    22762778.445
        43.100          31.100
 109022226.609 7  84952390.09646  20746213.953    20746216.105
        46.400          38.300
 118007783.123 7  91954173.82544  22456117.852    22456120.523
        47.600          29.800
 123514619.030 7  96245205.34143  23504044.898    23504046.984
        42.000          23.900
 127447759.366 6  99309936.26942  24252479.508    24252485.309
        37.200          16.300
 124865257.352 7  97297641.37743  23761043.508    23761047.180
        45.100          23.500
 119464779.625 7  93089356.97245  22733364.836    22733370.422
        45.600          32.200
 110455215.058 8  86069072.55346  21018907.969    21018912.688
        49.400          40.900
 124788111.24615                  23746380.445
        31.600
 107163080.010 8  83503780.62147  20392436.813    20392441.516
        52.500          43.200
 195325668.195 7                  37169266.391
        47.900
 195909821.112 8                  37280400.000
        48.500
 197723529.892 7                  37641021.578
        42.800
 17  9  1  1 56 30.0000000  0 13G08G14G18G21G24G31G27G10G11G32S38S35
                                S33
 119641838.468 7  93227478.62745  22767100.039    22767104.688
        45.600          31.500
 108989399.762 7  84926810.73246  20739967.000    20739969.172
        45.700          39.200
 118055300.317 7  91991200.18245  22465160.336    22465162.477
        47.300          31.600
 123604011.551 6  96314861.81243  23521054.734    23521056.316
        41.200          23.500
 127515481.570 5  99362706.80142  24265366.750    24265372.910
        35.700          17.800
 124757612.328 6  97213762.13444  23740560.414    23740561.129
        40.600          25.000
 119541102.839 7  93148829.57745  22747888.438    22747893.523
        45.600          32.500
 110479592.381 8  86088067.85146  21023546.750    21023551.793
        50.600          41.000
 124694236.621 5                  23728516.602
        33.200
 107162069.600 8  83502993.28747  20392244.742    20392249.141
        50.500          44.000
 195325712.428 7                  37169273.313
        46.500
 195909849.056 8                  37280404.641
        48.900
 197723726.959 7                  37641058.406
        43.100
 17  9  1  1 57  0.0000000  0 13G08G14G18G21G24G31G27G10G11G32S38S35
                                S33
 119665082.927 7  93245591.16845  22771522.664    22771528.418
        42.200          30.200
 108957017.901 7  84901578.13946  20733804.922    20733807.188
        45.700          38.700
 118102934.537 7  92028317.73545  22474225.250    22474226.906
        47.800          30.100
 123693657.065 6  96384715.46243  23538114.289    23538116.043
        39.700          21.700
 127583642.337 6  99415819.09242  24278338.477    24278344.277
        36.500          16.900
 124649995.539 7  97129904.90944  23720081.188    23720082.316
        45.700          25.500
 119617705.885 7  93208520.23945  22762466.031    22762471.121
        45.800          33.000
 110504149.745 8  86107203.45646  21028220.016    21028224.457
        50.300          41.100
 124600688.575 5                  23710715.734
        32.900
 107161519.447 8  83502564.59047  20392140.242    20392144.742
        52.600          43.400
 195325756.089 7                  37169282.703
        47.800
 195909876.268 8                  37280409.609
        49.200
 197723919.915 7                  37641095.578
        43.300
 17  9  1  1 57 30.0000000  0 13G08G14G18G21G24G31G27G10G11G32S38S35
                                S33
 119688834.729 7  93264099.06845  22776042.602    22776048.020
        45.100          30.400
 108925081.118 7  84876692.35246  20727727.664    20727730.188
        45.200          38.200
 118150686.507 8  92065527.04945  22483311.602    22483314.051
        48.000          30.300
 123783553.782 6  96454764.88643  23555220.625    23555224.695
        40.600          22.900
 127652239.775 5  99469271.68442  24291391.594    24291397.875
        35.000          14.800
 124542410.419 8  97046072.41244  23699608.766    23699610.137
        48.300          26.700
 119694585.875 7  93268426.69645  22777095.328    22777101.660
        45.900          33.300
 110528887.589 8  86126479.69546  21032927.539    21032932.285
        50.500          41.100
 124507470.404 5                  23692976.211
        32.800
 107161428.775 8  83502493.95847  20392122.867    20392127.133
        53.300          43.700
 195325799.119 8                  37169290.281
        48.000
 195909903.215 8                  37280415.078
        48.600
 197724104.877 7                  37641129.609
        42.700
 17  9  1  1 58  0.0000000  0 13G08G14G18G21G24G31G27G10G11G32S38S35
                                S33
 119713092.585 7  93283001.26845  22780659.086    22780663.965
        45.200          31.400
 108893589.877 7  84852153.72846  20721735.031    20721737.191
        46.200          38.700
 118198556.705 7  92102828.48345  22492421.172    22492423.238
        47.500          30.400
 123873700.576 7  96525009.10043  23572375.688    23572380.035
        43.000          23.600
 127721272.008 5  99523062.99342  24304526.984    24304533.406
        32.900          16.300
 124434860.329 8  96962267.23844  23679142.242    23679145.352
        48.700          26.500
 119771740.051 7  93328546.78545  22791777.648    22791782.848
        45.900          32.300
 110553806.344 8  86145896.90246  21037669.461    21037673.930
        51.400          40.700
 124414584.847 5                  23675301.266
        32.800
 107161796.855 8  83502780.77847  20392192.828    20392197.262
        52.300          43.000
 195325843.574 7                  37169298.766
        46.900
 195909931.244 8                  37280420.563
        48.500
 197724286.893 7                  37641166.172
        43.300
 17  9  1  1 58 30.0000000  0 13G08G14G18G21G24G31G27G10G11G32S38S35
                                S33
 119737854.470 7  93302296.22545  22785371.219    22785376.535
        45.800          30.900
 108862543.337 7  84827961.64046  20715827.320    20715828.598
        45.600          38.700
 118246545.160 7  92140222.06945  22501553.266    22501554.758
        47.300          31.000
 123964095.069 7  96595446.33044  23589577.227    23589580.391
        42.800          24.800
 127790736.622 5  99577191.29842  24317746.266    24317752.941
        34.300          15.600
 124327347.830 7  96878491.35044  23658683.094    23658687.063
        45.900          26.100
 119849164.792 7  93388877.67045  22806511.438    22806515.887
        47.100          33.400
 110578905.649 8  86165454.79446  21042445.711    21042450.441
        50.700          40.400
 124322034.211 5  96874293.75442  23657689.320    23657691.758
        34.100          16.300
 107162622.085 8  83503423.80547  20392349.750    20392353.891
        51.200          44.100
 195325886.040 7                  37169307.188
        46.400
 195909958.786 8                  37280425.875
        48.500
 197724462.022 7                  37641197.109
        42.600
 17  9  1  1 59  0.0000000  0 13G08G14G18G21G24G31G27G10G11G32S38S35
                                S33
 119763118.391 7  93321982.39745  22790178.641    22790183.918
        45.900          30.900
 108831940.921 7  84804115.62546  20710003.836    20710005.785
        46.000          38.100
 118294652.140 7  92177708.01644  22510707.344    22510709.559
        47.300          29.700
 124054735.645 6  96666075.31643  23606825.141    23606827.039
        40.500          23.300
 127860631.222 5                  24331047.148
        35.000
 124219875.742 6  96794746.87744  23638232.516    23638236.023
        40.000          24.700
 119926857.005 7  93449417.04145  22821295.313    22821300.895
        47.000          32.400
 110604185.580 8  86185153.43446  21047256.211    21047260.559
        51.100          40.700
 124229821.098 5  96802439.35642  23640141.703    23640143.570
        34.900          15.600
 107163903.330 8  83504422.18047  20392593.773    20392597.848
        51.800          43.800
 195325929.421 7                  37169314.797
        47.600
 195909985.801 8                  37280430.844
        48.300
 197724631.424 7                  37641231.797
        42.200
 17  9  1  1 59 30.0000000  0 13G08G14G18G21G24G31G27G10G11G32S38S35
                                S33
 119788883.364 7  93342058.96545  22795081.750    22795086.902
        45.700          31.700
 108801783.191 7  84780616.09646  20704264.703    20704266.754
        45.500          38.700
 118342878.116 8  92215286.67244  22519884.594    22519886.348
        48.000          29.400
 124145621.181 6  96736895.20443  23624120.078    23624121.828
        40.400          22.900
 127930954.161 5                  24344429.766
        35.100
 124112447.508 7  96711036.53744  23617789.094    23617792.590
        42.400          24.500
 120004813.817 7  93510162.57045  22836130.156    22836135.379
        46.400          32.800
 110629646.623 8  86204993.19346  21052101.234    21052105.758
        50.900          41.100
 124137948.539 5  96730850.38042  23622659.203    23622661.566
        35.000          17.400
 107165639.790 8  83505775.26847  20392924.383    20392928.383
        51.800          43.800
 195325971.924 7                  37169323.688
        47.500
 195910011.792 8                  37280436.516
        48.000
 197724795.557 6                  37641259.703
        41.800
 17  9  1  2  0  0.0000000  0 13G08G14G18G21G24G31G27G10G11G32S38S35
                                S33
 119815147.495 7  93362524.51845  22800079.586    22800084.934
        45.900          32.300
 108772069.812 7  84757462.82346  20698610.492    20698612.906
        46.900          38.400
 118391223.874 7  92252958.67444  22529084.742    22529086.770
        47.400          29.600
 124236749.951 6  96807904.61443  23641461.297    23641463.684
        40.200          22.500
 128001702.715 5                  24357891.883
        33.100
 124005066.316 7  96627362.95844  23597354.453    23597357.414
        47.300          25.200
 120083032.159 7  93571111.92145  22851014.656    22851019.367
        45.900          31.500
 110655289.004 8  86224974.27046  21056980.766    21056985.543
        50.000          40.600
 124046419.544 5  96659529.13642  23605241.750    23605243.801
        34.500          17.400
 107167830.477 8  83507482.30647  20393340.859    20393345.254
        52.400          43.000
 195326014.503 7                  37169331.578
        47.900
 195910040.264 8                  37280441.094
        48.300
 197724952.288 7                  37641293.813
        42.200
 17  9  1  2  0 30.0000000  0 13G08G14G18G21G24G31G27G10G11G32S38S35
                                S33
 119841908.947 7  93383377.57045  22805172.492    22805177.090
        43.900          32.600
 108742800.733 7  84734655.77046  20693040.906    20693042.340
        46.800          38.600
 118439689.268 7  92290723.90045  22538307.344    22538309.113
        47.300          30.500
 124328120.012 6  96879102.08044  23658847.969    23658852.938
        39.300          24.600
 128072875.002 5                  24371437.188
        34.100
 123897735.104 8  96543728.32144  23576931.109    23576932.605
        49.300          27.200
 120161508.835 7  93632262.55745  22865947.602    22865952.828
        46.000          32.600
 110681112.814 8  86245096.71546  21061895.109    21061899.492
        51.400          41.300
 123955237.171 5  96588477.98342  23587889.852    23587891.969
        34.800          16.900
 107170474.094 8  83509542.27047  20393844.008    20393848.445
        52.100          44.400
 195326057.109 7                  37169340.313
        47.600
 195910066.513 7                  37280446.672
        47.000
 197725103.183 7                  37641320.906
        43.100
 17  9  1  2  1  0.0000000  0 13G08G14G18G21G24G31G27G10G11G32S38S35
                                S33
 119869166.242 7  93404617.00545  22810358.750    22810363.879
        44.400          31.100
 108713975.744 7  84712194.77046  20687555.641    20687557.020
        46.400          38.300
 118488274.857 7  92328582.78744  22547552.633    22547554.492
        47.800          28.900
 124419729.956 6  96950486.42643  23676280.617    23676284.984
        38.600          22.600
 128144469.516 5                  24385060.211
        33.700
 123790456.861 8  96460134.97044  23556515.586    23556518.012
        48.800          27.500
 120240240.874 7  93693612.17845  22880930.164    22880936.074
        45.400          31.700
 110707118.350 8  86265360.76246  21066843.531    21066848.055
        49.900          40.300
 123864402.898 5  96517698.04242  23570604.578    23570607.051
        35.300          16.900
 107173569.674 8  83511954.41947  20394433.195    20394437.496
        52.300          43.500
 195326097.794 7                  37169348.219
        46.900
 195910093.288 8                  37280451.922
        48.400
 197725250.262 7                  37641348.188
        43.200
 17  9  1  2  1 30.0000000  0 13G08G14G18G21G24G31G27G10G11G32S38S35
                                S33
 119896917.691 7  93426241.48645  22815640.555    22815645.148
        44.600          32.100
 108685594.792 7  84690079.74446  20682154.711    20682156.801
        46.400          38.600
 118536981.405 7  92366535.93545  22556821.734    22556822.934
        47.500          30.000
 124511578.233 6  97022056.48543  23693759.117    23693761.574
        39.400          21.800
 128216483.657 5                  24398763.242
        33.000
 123683235.093 7  96376585.56844  23536111.711    23536115.973
        45.100          25.800
 120319225.366 7  93755158.52545  22895960.531    22895966.234
        46.800          32.100
 110733306.065 8  86285766.76346  21071827.125    21071831.031
        50.900          40.300
 123773920.283 5  96447192.11442  23553386.484    23553387.887
        35.900          15.600
 107177116.325 8  83514718.03347  20395107.469    20395112.277
        51.100          43.700
 195326140.578 7                  37169355.609
        47.700
 195910120.969 8                  37280456.938
        48.700
 197725389.663 7                  37641375.734
        43.500
 17  9  1  2  2  0.0000000  0 13G08G14G18G21G24G31G27G10G11G32S38S35
                                S33
 119925161.466 7  93448249.60545  22821014.453    22821019.582
        44.600          32.300
 108657657.199 7  84668310.21046  20676838.508    20676840.941
        45.800          38.300
 118585809.139 7  92404583.50244  22566113.398    22566115.102
        47.300          29.100
 124603662.876 6  97093810.70743  23711282.281    23711284.211
        39.500          22.800
 128288915.10915                  24412546.672
        30.700
 123576072.460 7  96293082.20144  23515719.781    23515723.766
        45.000          27.600
 120398458.756 7  93816898.78445  22911038.406    22911043.598
        45.600          31.800
 110759675.673 8  86306314.51146  21076845.094    21076849.719
        50.500          40.400
 123683792.090 6  96376962.38842  23536235.594    23536238.012
        37.900          17.800
 107181112.452 8  83517831.89847  20395868.617    20395873.086
        50.000          43.400
 195326181.922 7                  37169363.688
        47.300
 195910147.656 7                  37280461.375
        47.000
 197725524.602 6                  37641399.906
        41.400
 17  9  1  2  2 30.0000000  0 12G08G14G18G21G31G27G10G11G32S38S35S33
 119953895.552 7  93470639.79345  22826482.523    22826487.645
        43.400          31.500
 108630162.937 7  84646886.12346  20671606.211    20671608.469
        45.200          38.800
 118634758.295 7  92442725.69144  22575427.789    22575429.914
        47.200          29.100
 124695982.579 6  97165748.10643  23728850.461    23728852.398
        40.500          22.600
 123468972.442 8  96209627.67044  23495339.195    23495343.180
        48.400          27.500
 120477938.058 7  93878830.67245  22926162.617    22926167.977
        44.000          30.700
 110786227.605 8  86327004.32146  21081897.867    21081902.305
        48.900          40.600
 123594020.818 6  96307010.77343  23519152.281    23519154.637
        38.900          19.300
 107185557.086 8  83521295.24347  20396714.453    20396718.375
        52.500          44.300
 195326225.547 7                  37169372.078
        47.300
 195910174.768 7                  37280466.891
        47.600
 197725652.821 7                  37641423.984
        43.200
 17  9  1  2  3  0.0000000  0 12G08G14G18G21G31G27G10G11G32S38S35S33
 119983118.545 7  93493410.92845  22832043.852    22832048.492
        44.400          31.600
 108603111.636 7  84625807.19746  20666458.633    20666460.648
        45.300          37.900
 118683829.473 7  92480962.94844  22584765.891    22584767.836
        46.600          28.500
 124788535.246 6  97237867.02943  23746463.008    23746467.578
        39.800          23.800
 123361937.641 8  96126224.02944  23474971.172    23474973.793
        48.800          27.900
 120557660.271 7  93940951.83245  22941333.133    22941338.961
        45.700          30.900
 110812962.062 8  86347836.36146  21086984.938    21086989.621
        50.000          39.900
 123504609.151 6  96237339.30843  23502138.469    23502140.242
        39.200          19.600
 107190449.094 8  83525107.21147  20397645.352    20397649.258
        51.600          43.900
 195326266.745 7                  37169380.297
        46.700
 195910201.693 7                  37280471.969
        47.400
 197725776.053 7                  37641449.563
        42.900
 17  9  1  2  3 30.0000000  0 12G08G14G18G21G31G27G10G11G32S38S35S33
 120012828.393 7  93516561.44745  22837697.242    22837702.535
        46.100          31.500
 108576503.428 7  84605073.56046  20661395.484    20661397.500
        47.300          39.500
 118733023.003 7  92519295.55644  22594127.102    22594128.918
        47.400          29.800
 124881319.430 6  97310166.38543  23764118.500    23764123.945
        38.800          22.800
 123254971.656 8  96042873.97544  23454616.148    23454618.113
        48.100          28.600
 120637622.538 7  94003260.05445  22956549.711    22956555.297
        45.300          31.300
 110839879.542 8  86368811.01946  21092107.156    21092111.949
        48.800          40.900
 123415560.189 6  96167950.54243  23485192.898    23485195.363
        39.800          20.400
 107195787.590 8  83529267.06947  20398661.203    20398665.719
        53.700          43.900
 195326309.060 8                  37169388.594
        48.100
 195910228.875 8                  37280476.531
        48.300
 197725892.549 7                  37641471.625
        43.100
 17  9  1  2  4  0.0000000  0 12G08G14G18G21G31G27G10G11G32S38S35S33
 120043023.502 7  93540090.08445  22843442.930    22843448.406
        45.000          31.500
 108550337.600 7  84584684.63446  20656416.156    20656418.551
        45.300          38.900
 118782339.365 7  92557723.87544  22603511.977    22603513.371
        47.100          28.200
 124974333.247 6  97382644.66844  23781819.422    23781823.688
        39.000          24.000
 123148077.368 7  95959579.75244  23434275.359    23434277.430
        44.400          27.300
 120717821.240 7  94065752.50144  22971810.656    22971816.723
        43.800          29.900
 110866979.847 8  86389928.13346  21097264.352    21097269.008
        50.300          40.200
 123326875.831 6  96098845.86043  23468316.781    23468319.172
        40.100          22.000
 107201570.940 8  83533773.58947  20399761.688    20399765.680
        52.100          43.900
 195326350.251 8                  37169396.047
        48.000
 195910255.174 8                  37280481.672
        48.800
 197726004.096 6                  37641490.656
        41.900
 17  9  1  2  4 30.0000000  0 12G08G14G18G21G31G27G10G11G32S38S35S33
 120073702.103 7  93563995.47645  22849281.211    22849286.176
        44.300          31.100
 108524614.145 7  84564640.38746  20651521.039    20651523.063
        45.800          38.800
 118831778.855 7  92596248.13744  22612919.844    22612921.047
        47.700          29.300
 125067575.230 6  97455300.75743  23799562.008    23799564.891
        39.000          22.500
 123041258.032 7  95876343.85544  23413947.898    23413951.113
        45.300          28.100
 120798253.644 7  94128427.09544  22987116.797    22987121.594
        44.100          28.900
 110894263.504 8  86411188.11446  21102456.133    21102460.902
        50.700          40.500
 123238559.564 6  96030028.03743  23451510.672    23451512.355
        40.600          22.200
 107207798.204 8  83538626.01147  20400946.563    20400950.691
        52.700          43.900
 195326392.580 7                  37169403.203
        46.800
 195910281.692 7                  37280487.000
        47.200
 197726109.564 7                  37641512.406
        42.100
 17  9  1  2  5  0.0000000  0 12G08G14G18G21G31G27G10G11G32S38S35S33
 120104861.843 7  93588275.76245  22855210.289    22855215.215
        43.100          30.400
 108499332.574 7  84544940.49146  20646710.406    20646712.355
        46.800          39.200
 118881341.669 7  92634868.49844  22622350.992    22622352.922
        46.900          29.300
 125161043.508 6  97528133.15843  23817349.055    23817349.785
        40.300          22.800
 122934516.495 8  95793168.68844  23393635.852    23393640.121
        48.800          27.500
 120878916.480 7  94191281.23144  23002466.242    23002471.375
        44.200          29.100
 110921730.621 8  86432591.05546  21107682.977    21107687.637
        49.600          39.900
 123150613.842 6  95961498.91643  23434774.688    23434777.145
        41.000          22.800
 107214468.099 8  83543823.34947  20402215.664    20402219.875
        51.800          43.900
 195326434.852 7                  37169411.750
        46.400
 195910308.280 8                  37280491.891
        48.500
 197726209.764 6                  37641531.297
        41.300
 17  9  1  2  5 30.0000000  0 12G08G14G18G21G31G27G10G11G32S38S35S33
 120136501.172 7  93612929.76845  22861231.031    22861236.719
        43.000          32.000
 108474492.703 7  84525584.78046  20641983.609    20641985.301
        46.000          39.200
 118931028.560 7  92673585.55544  22631806.055    22631808.074
        47.300          29.400
 125254736.470 6  97601140.62443  23835177.938    23835178.945
        40.500          21.800
 122827856.110 8  95710056.79744  23373338.617    23373342.594
        48.900          28.700
 120959806.800 7  94254312.61945  23017859.531    23017864.176
        44.300          30.800
 110949381.567 8  86454137.24646  21112945.195    21112949.301
        49.600          40.200
 123063041.302 6  95893260.61243  23418110.727    23418112.504
        41.900          22.600
 107221579.551 8  83549364.73947  20403568.953    20403573.168
        52.100          43.900
 195326475.221 8                  37169419.125
        48.300
 195910335.435 7                  37280497.938
        46.600
 197726301.536 7                  37641550.000
        42.100
 17  9  1  2  6  0.0000000  0 12G08G14G18G21G31G27G10G11G32S38S35S33
 120168618.159 7  93637955.96844  22867342.508    22867347.703
        44.700          29.500
 108450094.217 7  84506572.96646  20637340.313    20637342.594
        45.500          38.400
 118980839.779 7  92712399.46544  22641284.734    22641286.578
        46.900          29.100
 125348652.189 6  97674321.69643  23853049.609    23853052.270
        40.300          22.800
 122721280.208 7  95627010.70344  23353056.945    23353059.949
        44.600          25.700
 121040921.230 7  94317518.65644  23033295.063    23033299.910
        44.600          29.900
 110977216.406 8  86475826.72846  21118241.953    21118246.000
        50.900          39.600
 122975844.838 7  95825315.33143  23401518.156    23401519.379
        42.900          22.800
 107229131.150 8  83555249.10147  20405006.414    20405010.500
        52.000          43.500
 195326517.328 7                  37169427.156
        47.000
 195910361.566 8                  37280501.969
        48.400
 197726391.271 7                  37641567.375
        42.600
 17  9  1  2  6 30.0000000  0 12G08G14G18G21G31G27G10G11G32S38S35S33
 120201210.637 7  93663352.67945  22873545.375    22873550.438
        43.800          31.100
 108426136.087 7  84487904.28746  20632781.359    20632783.059
        45.900          38.400
 119030775.416 7  92751310.33944  22650787.602    22650789.887
        45.700          28.700
 125442789.000 6  97747675.05243  23870962.953    23870968.039
        39.800          22.300
 122614791.893 7  95544032.75944  23332795.039    23332795.145
        42.000          27.800
 121122256.525 7  94380896.77645  23048772.500    23048777.758
        44.900          30.600
 111005235.255 8  86497659.59446  21123573.508    21123578.090
        49.100          40.300
 122889026.764 6  95757664.91543  23384996.930    23384998.297
        41.100          21.800
 107237121.466 8  83561475.32247  20406526.789    20406531.074
        52.200          43.700
 195326558.133 7                  37169435.219
        47.500
 195910387.724 8                  37280506.828
        48.300
 197726474.119 7                  37641580.594
        43.400
 17  9  1  2  7  0.0000000  0 12G08G14G18G21G31G27G10G11G32S38S35S33
 120234276.621 7  93689118.36644  22879837.109    22879842.262
        43.600          29.900
 108402618.414 7  84469578.84246  20628306.383    20628308.086
        45.900          38.700
 119080836.134 7  92790318.67544  22660313.672    22660315.613
        46.600          28.600
 125537145.209 6  97821199.35943  23888919.016    23888923.016
        40.400          21.100
 122508394.297 7  95461125.55044  23312547.883    23312549.891
        47.800          27.100
 121203809.840 7  94444444.75445  23064291.117    23064297.316
        44.300          30.200
 111033438.604 8  86519636.21946  21128940.266    21128945.051
        50.500          39.100
 122802590.149 6  95690311.74843  23368548.305    23368550.398
        40.800          21.800
 107245549.535 8  83568042.66347  20408130.477    20408134.742
        53.000          43.000
 195326599.827 8                  37169442.609
        48.600
 195910414.242 7                  37280512.344
        47.300
 197726549.152 7                  37641596.469
        42.400
 17  9  1  2  7 30.0000000  0 13G08G14G18G21G22G31G27G10G11G32S38S35
                                S33
 120267815.082 7  93715252.22645  22886219.891    22886224.465
        44.600          31.400
 108379541.396 7  84451596.77746  20623914.234    20623916.695
        46.100          39.600
 119131022.609 7  92829424.99744  22669863.578    22669866.238
        46.100          29.400
 125631719.040 6  97894893.25043  23906915.992    23906917.234
        40.200          20.900
 132322437.224 5                  25180125.180
        33.900
 122402090.208 8  95378291.26944  23292319.094    23292322.566
        49.700          29.400
 121285578.224 7  94508160.34145  23079851.703    23079857.492
        43.900          30.700
 111061826.905 8  86541756.97546  21134342.469    21134346.734
        50.800          40.100
 122716537.395 7  95623257.67743  23352173.086    23352175.375
        42.800          22.600
 107254414.308 8  83574950.27447  20409817.359    20409821.582
        53.000          43.900
 195326639.523 7                  37169451.438
        47.900
 195910440.350 8                  37280517.875
        49.000
 197726619.798 7                  37641608.875
        42.500
 17  9  1  2  8  0.0000000  0 13G08G14G18G21G22G31G27G10G11G32S38S35
                                S33
 120301823.164 7  93741752.00745  22892691.164    22892696.691
        44.500          30.200
 108356904.043 7  84433957.30846  20619606.742    20619609.305
        45.000          39.000
 119181335.047 7  92868629.47744  22679438.555    22679440.355
        46.600          28.300
 125726508.797 6  97968755.38943  23924953.898    23924952.926
        41.400          21.100
 132247904.350 5                  25165941.641
        34.700
 122295883.045 8  95295532.52244  23272107.422    23272111.352
        49.100          27.800
 121367558.327 7  94572040.95545  23095452.680    23095457.723
        45.100          30.900
 111090400.164 8  86564021.85746  21139780.078    21139784.215
        50.700          39.900
 122630871.362 7  95556504.96243  23335871.555    23335873.934
        42.600          23.500
 107263714.210 8  83582196.96047  20411586.992    20411591.145
        52.700          43.600
 195326681.849 7                  37169458.703
        47.900
 195910467.571 7                  37280523.094
        47.700
 197726683.310 7                  37641622.594
        43.500
 17  9  1  2  8 30.0000000  0 13G08G14G18G21G22G31G27G10G11G32S38S35
                                S33
 120336298.975 7  93768616.26045  22899251.539    22899257.012
        44.300          31.600
 108334705.763 7  84416659.94446  20615382.844    20615384.809
        45.300          38.500
 119231773.896 7  92907932.45844  22689036.406    22689039.059
        46.400          28.800
 125821512.691 6  98042784.38543  23943032.078    23943032.355
        40.500          21.100
 132173350.014 6                  25151755.766
        37.100
 122189776.082 7  95212851.83244  23251914.898    23251918.742
        42.900          27.300
 121449746.967 7  94636084.02745  23111092.328    23111097.590
        45.100          31.200
 111119158.565 8  86586430.99446  21145252.695    21145257.414
        51.100          40.800
 122545594.465 7  95490055.46644  23319643.430    23319645.813
        43.500          24.800
 107273447.907 8  83589781.66647  20413439.438    20413443.734
        52.400          44.100
 195326721.134 7                  37169467.703
        47.700
 195910494.067 7                  37280527.125
        47.100
 197726742.386 7                  37641633.844
        43.400
 17  9  1  2  9  0.0000000  0 13G08G14G18G21G22G31G27G10G11G32S38S35
                                S33
 120371240.633 7  93795843.51745  22905900.727    22905905.547
        44.900          30.900
 108312946.303 7  84399704.53746  20611241.852    20611243.863
        45.500          38.600
 119282339.345 7  92947334.07844  22698658.781    22698660.480
        46.500          28.900
 125916728.740 6  98116978.69043  23961150.867    23961153.000
        39.900          21.300
 132098774.230 6                  25137563.898
        38.100
 122083772.358 6  95130251.49044  23231744.680    23231745.504
        41.900          27.100
 121532141.122 7  94700287.26245  23126771.555    23126776.953
        44.600          30.000
 111148102.534 8  86608984.72946  21150760.016    21150765.207
        50.400          39.900
 122460709.600 7  95423911.41544  23303490.422    23303493.551
        43.000          25.000
 107283614.229 8  83597703.47247  20415373.672    20415378.063
        51.700          43.500
 195326762.494 7                  37169475.516
        46.600
 195910519.430 7                  37280532.250
        47.900
 197726795.057 7                  37641643.281
        43.000
 17  9  1  2  9 30.0000000  0 13G08G14G18G21G22G31G27G10G11G32S38S35
                                S33
 120406646.233 7  93823432.28045  22912638.594    22912643.758
        44.200          30.700
 108291625.294 7  84383090.77146  20607184.836    20607186.695
        46.300          39.900
 119333032.273 7  92986835.05044  22708305.703    22708306.973
        45.700          28.400
 126012155.506 6  98191337.20143  23979310.336    23979314.445
        40.100          22.300
 132024177.070 5                  25123368.406
        34.000
 121977874.854 7  95047734.00344  23211592.813    23211594.395
        46.400          28.900
 121614737.567 7  94764648.08545  23142489.172    23142494.824
        45.000          30.900
 111177232.214 8  86631683.18646  21156303.422    21156308.086
        49.400          40.000
 122376219.063 6  95358074.69944  23287412.953    23287415.297
        41.800          24.000
 107294211.832 8  83605961.36047  20417390.539    20417394.848
        51.500          43.300
 195326803.168 7                  37169481.453
        47.600
 195910546.242 7                  37280537.313
        47.900
 197726841.493 7                  37641651.891
        43.000
 17  9  1  2 10  0.0000000  0 13G08G14G18G21G22G31G27G10G11G32S38S35
                                S33
 120442513.609 7  93851380.85844  22919463.375    22919468.500
        44.600          29.700
 108270742.422 7  84366818.41746  20603210.938    20603212.613
        46.500          39.200
 119383852.845 7  93026435.46444  22717976.086    22717977.820
        46.000          29.200
 126107790.926 6  98265858.28543  23997508.805    23997514.684
        39.000          21.300
 131949558.698 6                  25109169.484
        36.700
 121872087.206 7  94965302.15344  23191461.500    23191464.777
        46.800          29.100
 121697533.332 7  94829164.23845  23158244.500    23158249.609
        46.000          31.300
 111206548.135 8  86654526.75546  21161881.961    21161886.609
        50.800          39.600
 122292125.928 7  95292547.61643  23271410.547    23271412.691
        42.200          22.900
 107305239.517 8  83614554.35747  20419489.445    20419493.113
        52.400          43.900
 195326843.862 7                  37169488.844
        47.600
 195910571.688 8                  37280542.250
        48.000
 197726883.107 7                  37641659.781
        42.400
 17  9  1  2 10 30.0000000  0 13G08G14G18G21G22G31G27G10G11G32S38S35
                                S33
 120478840.683 7  93879687.64045  22926376.750    22926381.969
        45.100          31.300
 108250296.763 7  84350886.75046  20599320.461    20599321.895
        45.100          39.200
 119434801.351 7  93066135.57544  22727671.070    22727673.395
        44.700          28.900
 126203632.967 6  98340540.39343  24015747.500    24015752.066
        39.900          21.300
 131874918.726 6 102759696.53952  25094965.719    25094967.965
        36.500          17.400
 121766412.186 7  94882958.03044  23171351.180    23171355.762
        45.000          29.300
 121780525.156 7  94893833.14845  23174037.414    23174043.152
        43.200          30.900
 111236050.275 8  86677515.44146  21167496.125    21167500.875
        51.400          40.900
 122208432.521 7  95227332.00843  23255484.250    23255486.184
        43.000          22.600
 107316695.781 8  83623481.32747  20421669.313    20421673.344
        51.200          44.100
 195326884.577 8                  37169496.656
        48.500
 195910597.908 7                  37280549.078
        47.900
 197726919.872 6                  37641666.719
        41.900
 17  9  1  2 11  0.0000000  0 13G08G14G18G21G22G31G27G10G11G32S38S35
                                S33
 120515625.689 7  93908351.27845  22933376.234    22933382.402
        45.400          30.800
 108230288.484 7  84335295.87746  20595513.047    20595514.934
        46.800          38.900
 119485878.416 7  93105935.86744  22737390.883    22737392.582
        46.500          28.700
 126299680.443 6  98415382.56043  24034024.609    24034027.363
        41.200          22.200
 131800257.419 6 102701518.95443  25080758.344    25080759.766
        36.600          18.300
 121660853.330 7  94800704.38744  23151265.227    23151267.848
        43.300          27.500
 121863710.291 7  94958652.72145  23189866.703    23189872.090
        45.300          30.200
 111265739.371 8  86700649.79646  21173145.953    21173150.434
        50.700          39.800
 122125141.732 7  95162430.11843  23239634.023    23239635.734
        42.100          22.500
 107328579.700 8  83632741.52147  20423930.313    20423934.559
        52.900          43.000
 195326924.567 7                  37169505.141
        47.500
 195910624.733 8                  37280552.109
        48.500
 197726949.960 7                  37641672.703
        43.000
 17  9  1  2 11 30.0000000  0 13G08G14G18G21G22G31G27G10G11G32S38S35
                                S33
 120552866.182 7  93937369.82145  22940463.492    22940468.262
        45.600          30.400
 108210716.587 7  84320045.06246  20591788.227    20591790.188
        45.800          39.100
 119537084.341 7  93145836.58044  22747134.594    22747136.605
        44.300          28.700
 126395931.316 6  98490383.20443  24052340.703    24052342.070
        41.700          21.500
 131725574.609 6 102643324.57342  25066546.953    25066546.691
        36.700          15.600
 121555413.642 7  94718543.62644  23131200.313    23131202.555
        46.700          28.300
 121947084.981 7  95023619.99545  23205732.727    23205738.563
        43.400          30.700
 111295615.063 8  86723929.55046  21178830.930    21178835.203
        50.000          40.200
 122042255.840 7  95097843.72544  23223861.289    23223863.457
        42.700          24.300
 107340889.251 8  83642333.37747  20426272.805    20426277.254
        52.600          43.300
 195326965.279 8                  37169513.266
        48.100
 195910650.561 7                  37280557.266
        47.800
 197726975.301 7                  37641676.703
        42.400
 17  9  1  2 12  0.0000000  0 13G08G14G18G21G22G31G27G10G11G32S38S35
                                S33
 120590559.531 7  93966741.24345  22947635.945    22947640.500
        44.600          30.600
 108191580.373 7  84305133.73846  20588147.344    20588148.992
        45.800          38.800
 119588419.408 7  93185837.90444  22756903.773    22756905.332
        46.100          27.500
 126492383.294 6  98565540.59343  24070694.555    24070696.496
        40.900          21.700
 131650870.216 6 102585113.37042  25052329.477    25052330.504
        37.900          15.600
 121450096.190 7  94636478.13944  23111158.914    23111161.406
        46.200          27.900
 122030646.102 7  95088732.50344  23221633.758    23221639.164
        44.500          29.500
 111325677.713 8  86747354.99646  21184551.773    21184556.367
        50.300          40.000
 121959777.740 7  95033575.11243  23208165.828    23208168.613
        42.300          23.300
 107353623.158 8  83652255.90947  20428696.047    20428700.121
        52.000          43.300
 195327004.592 7                  37169520.766
        47.900
 195910676.645 8                  37280562.516
        48.200
 197726994.591 6                  37641682.516
        41.800
 17  9  1  2 12 30.0000000  0 13G08G14G18G21G22G31G27G10G11G32S38S35
                                S33
 120628704.196 7  93996464.35145  22954895.219    22954899.652
        45.000          30.400
 108172879.420 7  84290561.57946  20584588.281    20584590.008
        45.300          39.400
 119639884.201 7  93225940.32144  22766696.906    22766699.039
        46.600          27.300
 126589034.488 6  98640853.18943  24089086.609    24089089.875
        40.400          20.900
 131576144.764 5 102526885.77942  25038109.391    25038110.188
        35.700          15.600
 121344904.395 7  94554510.53944  23091141.633    23091144.785
        45.100          29.100
 122114390.875 7  95153988.14344  23237569.969    23237575.285
        44.100          29.100
 111355927.847 8  86770926.51846  21190307.984    21190313.152
        50.200          41.100
 121877710.136 7  94969626.34944  23192549.344    23192551.672
        42.100          24.400
 107366780.309 8  83662508.24147  20431200.000    20431204.207
        52.800          43.800
 195327045.854 7                  37169527.750
        47.900
 195910702.502 8                  37280567.734
        48.600
 197727006.053 7                  37641683.000
        42.600
 17  9  1  2 13  0.0000000  0 13G08G14G18G21G22G31G27G10G11G32S38S35
                                S33
 120667298.097 7  94026537.51945  22962239.086    22962244.395
        45.100          30.300
 108154613.069 7  84276328.08446  20581112.039    20581113.805
        45.800          38.600
 119691478.739 7  93266143.83644  22776515.039    22776517.152
        45.500          27.400
 126685883.548 6  98716320.02943  24107516.289    24107520.656
        40.400          21.300
 131501397.791 6 102468641.42642  25023887.578    25023886.910
        37.400          16.900
 121239841.412 7  94472643.26644  23071148.852    23071152.133
        45.400          28.600
 122198315.991 7  95219384.31444  23253539.758    23253545.328
        43.600          29.800
 111386365.651 8  86794644.29346  21196100.188    21196105.047
        50.800          40.100
 121796055.230 7  94905999.19844  23177011.016    23177013.324
        42.500          24.700
 107380359.165 8  83673089.17747  20433783.844    20433787.934
        52.100          43.200
 195327085.113 8                  37169535.438
        48.100
 195910728.213 8                  37280572.281
        48.000
 197727012.400 7                  37641683.250
        43.800
 17  9  1  2 13 30.0000000  0 13G08G14G18G21G22G31G27G10G11G32S38S35
                                S33
 120706338.865 7  94056958.85045  22969667.750    22969673.070
        44.600          30.000
 108136781.074 7  84262433.03346  20577718.492    20577720.777
        45.200          39.600
 119743203.919 7  93306449.13244  22786358.594    22786360.492
        47.000          29.700
 126782928.636 6  98791939.55343  24125984.031    24125987.793
        40.400          19.600
 131426629.820 6 102410380.67943  25009658.297    25009659.410
        37.200          18.300
 121134910.158 7  94390878.70644  23051181.594    23051182.641
        47.600          29.800
 122282418.451 7  95284918.64945  23269544.172    23269549.699
        42.800          30.200
 111416991.484 8  86818508.57646  21201928.281    21201932.996
        50.800          40.900
 121714816.007 7  94842695.93144  23161551.563    23161553.887
        44.300          26.100
 107394358.495 8  83683997.74747  20436447.695    20436451.707
        51.900          43.700
 195327125.123 7                  37169543.016
        47.500
 195910753.775 8                  37280576.359
        48.400
 197727014.629 7                  37641685.219
        43.700
 17  9  1  2 14  0.0000000  0 13G08G14G18G21G22G31G27G10G11G32S38S35
                                S33
 120745824.104 7  94087726.54444  22977181.297    22977186.469
        44.300          28.500
 108119382.967 7  84248876.07646  20574407.906    20574409.816
        44.700          38.600
 119795060.227 7  93346856.62844  22796226.344    22796228.453
        46.700          28.400
 126880167.930 6  98867710.42443  24144487.203    24144490.684
        40.000          20.100
 131351840.412 5 102352103.24142  24995425.891    24995427.063
        35.800          16.900
 121030114.137 7  94309219.55544  23031238.813    23031240.352
        47.200          28.600
 122366695.034 7  95350588.66444  23285581.555    23285587.969
        42.700          28.200
 111447805.614 8  86842519.58746  21207792.219    21207796.520
        50.600          40.200
 121633994.896 7  94779718.45944  23146171.633    23146173.477
        43.600          24.700
 107408776.829 8  83695232.81847  20439191.531    20439195.641
        51.900          43.200
 195327162.985 7                  37169550.250
        47.500
 195910779.496 8                  37280582.000
        48.200
 197727009.360 7                  37641684.281
        43.800
 17  9  1  2 14 30.0000000  0 13G08G14G18G21G22G31G27G10G11G32S38S35
                                S33
 120785752.123 7  94118839.27345  22984780.141    22984786.203
        45.600          31.100
 108102418.160 7  84235656.75746  20571179.859    20571181.863
        45.300          39.000
 119847047.954 7  93387366.51844  22806119.180    22806121.379
        46.000          28.100
 126977599.619 6  98943631.25343  24163027.320    24163029.723
        37.500          18.600
 131277029.802 6 102293809.42842  24981191.547    24981190.492
        36.600          14.800
 120925456.607 7  94227668.27644  23011323.633    23011325.891
        43.900          27.800
 122451142.785 7  95416392.08944  23301651.031    23301657.688
        42.600          29.300
 111478808.590 8  86866677.75246  21213691.688    21213696.109
        50.400          40.400
 121553594.300 7  94717068.65844  23130872.539    23130873.848
        44.800          26.200
 107423612.942 8  83706793.43347  20442014.758    20442019.203
        51.400          43.900
 195327203.546 8                  37169557.891
        48.500
 195910805.761 8                  37280586.953
        48.000
 197726998.969 7                  37641681.422
        43.900
