     2.11           OBSERVATION DATA    G (GPS)             RINEX VERSION / TYPE
teqc  2017Jul18     gpsops              20170902 00:32:16UTCPGM / RUN BY / DATE
Linux 2.6.32-573.12.1.x86_64|x86_64|gcc -static|Linux 64|=+ COMMENT
BIT 2 OF LLI FLAGS DATA COLLECTED UNDER A/S CONDITION       COMMENT
TIDB                                                        MARKER NAME
50103M108                                                   MARKER NUMBER
GGN                 JPL                                     OBSERVER / AGENCY
UC2200524011        ASHTECH UZ-12       CQ00                REC # / TYPE / VERS
402                 AOAD/M_T        NONE                    ANT # / TYPE
 -4460996.4047  2682557.0885 -3674443.3930                  APPROX POSITION XYZ
        0.0614        0.0000        0.0000                  ANTENNA: DELTA H/E/N
     1     1                                                WAVELENGTH FACT L1/2
     7    L1    L2    P1    P2    C1    S1    S2            # / TYPES OF OBSERV
    30.0000                                                 INTERVAL
                                                            COMMENT
This data is provided as a public service by NASA/JPL.      COMMENT
No warranty is expressed or implied regarding suitability   COMMENT
for use.  For further information, contact:                 COMMENT
Dave Stowers, NASA/JPL m/s 238-600                          COMMENT
4800 Oak Grove Drive, Pasadena CA 91109 USA                 COMMENT
                                                            COMMENT
Forced Modulo Decimation to 30 seconds                      COMMENT
 SNR is mapped to RINEX snr flag value [0-9]                COMMENT
  L1 & L2: min(max(int(snr_dBHz/6), 0), 9)                  COMMENT
pseudorange smoothing corrections not applied               COMMENT
  2017     9     1     0     0    0.0000000     GPS         TIME OF FIRST OBS
                                                            END OF HEADER
 17  9  1  0  0  0.0000000  0  9G31G03G16G23G22G14G01G09G26
 -13801084.77248 -10743236.75147  22686037.9614   22686039.6884   22686037.881
        51.0004         46.0004
 -25081857.67849 -19503017.22548  20707932.5934   20707937.2654   20707931.946
        57.0004         52.0004
  -8307332.31448  -6467760.30547  23269099.2864   23269101.9714   23269098.590
        48.0004         44.0004
 -16873329.67648 -13100020.00348  21788637.2384   21788637.8834   21788637.497
        52.0004         48.0004
 -23416417.15049 -18204789.70148  20542566.0724   20542567.1714   20542566.607
        57.0004         53.0004
  -1821200.34347  -1363851.93546  24700321.0974   24700323.3494   24700319.962
        42.0004         37.0004
  -4828720.56748  -3728009.07047  22976648.1864   22976653.8294   22976647.414
        48.0004         44.0004
  -6046429.88447  -4671140.80146  24075616.1264   24075620.5524   24075614.978
        45.0004         41.0004
 -13322700.91448 -10341871.03847  22523658.3874   22523664.9064   22523657.588
        52.0004         47.0004
 17  9  1  0  0 30.0000000  0  9G31G03G16G23G22G14G01G09G26
 -13718009.98448 -10678503.16647  22701846.6904   22701848.4524   22701846.605
        51.0004         46.0004
 -25111912.42549 -19526436.51048  20702213.2824   20702217.9524   20702212.686
        57.0004         52.0004
  -8387391.85648  -6530144.32247  23253863.6374   23253867.0344   23253864.023
        48.0004         44.0004
 -16923547.94148 -13139151.10548  21779080.8884   21779081.4124   21779081.213
        52.0004         48.0004
 -23387129.20749 -18181967.93848  20548139.1134   20548140.3444   20548139.821
        57.0004         52.0004
  -1739988.86747  -1300570.27946  24715773.8594   24715777.0594   24715773.962
        42.0004         37.0004
  -4743244.78648  -3661404.57647  22992913.6044   22992919.8634   22992913.011
        48.0004         44.0004
  -6119335.51147  -4727950.36946  24061741.2424   24061746.5744   24061741.104
        45.0004         41.0004
 -13358126.62748 -10369475.47947  22516917.2124   22516923.1544   22516916.676
        52.0004         47.0004
 17  9  1  0  1  0.0000000  0  9G31G03G16G23G22G14G01G09G26
 -13634713.89748 -10613597.14547  22717697.5384   22717699.1864   22717696.521
        50.0004         46.0004
 -25141496.93149 -19549489.37448  20696583.7454   20696588.2764   20696582.829
        57.0004         52.0004
  -8467204.72348  -6592336.12547  23238675.8074   23238679.8344   23238676.206
        48.0004         44.0004
 -16973577.71148 -13178135.33948  21769560.4424   21769561.4984   21769560.807
        52.0004         48.0004
 -23357324.90249 -18158743.81548  20553811.0114   20553811.9594   20553811.467
        57.0004         52.0004
  -1658759.17147  -1237274.53846  24731232.4874   24731235.6854   24731231.834
        42.0004         38.0004
  -4657516.51248  -3594603.35747  23009226.9364   23009232.8954   23009226.296
        48.0004         44.0004
  -6192196.86447  -4784725.42646  24047875.9764   24047881.9744   24047876.275
        45.0004         41.0004
 -13393044.24548 -10396683.99547  22510272.0474   22510278.6484   22510271.726
        52.0004         47.0004
 17  9  1  0  1 30.0000000  0  9G31G03G16G23G22G14G01G09G26
 -13551198.76048 -10548520.43547  22733590.1634   22733591.6554   22733589.056
        50.0004         46.0004
 -25170609.41849 -19572174.43048  20691043.7624   20691048.2784   20691042.981
        57.0004         52.0004
  -8546767.90648  -6654333.35747  23223535.1154   23223538.9834   23223535.226
        48.0004         44.0004
 -17023418.74748 -13216972.50248  21760076.4344   21760076.9614   21760076.094
        53.0004         48.0004
 -23327004.37649 -18135117.44648  20559580.9044   20559581.8994   20559581.325
        57.0004         52.0004
  -1577511.52647  -1173964.70646  24746693.8864   24746695.8104   24746692.230
        42.0004         36.0004
  -4571538.96648  -3527607.89147  23025587.1284   23025594.2254   23025587.636
        48.0004         44.0004
  -6265013.80047  -4841465.87546  24034020.4504   24034025.6374   24034019.487
        46.0004         41.0004
 -13427451.87248 -10423495.11947  22503724.7074   22503731.3034   22503724.612
        52.0004         47.0004
 17  9  1  0  2  0.0000000  0  9G31G03G16G23G22G14G01G09G26
 -13467466.65448 -10483274.65247  22749523.1184   22749525.0924   22749523.650
        50.0004         46.0004
 -25199248.23949 -19594490.39548  20685593.9944   20685598.5324   20685592.997
        57.0004         52.0004
  -8626078.62848  -6716133.87547  23208443.2324   23208445.0464   23208443.127
        48.0004         44.0004
 -17073070.86948 -13255662.46248  21750627.7784   21750628.4674   21750627.913
        53.0004         48.0004
 -23296167.96249 -18111089.08448  20565448.9394   20565449.7754   20565449.217
        57.0004         52.0004
  -1496245.89546  -1110640.79646  24762155.4184   24762159.1184   24762156.394
        41.0004         36.0004
  -4485315.42348  -3460420.74347  23041996.5134   23042002.2664   23041994.947
        48.0004         44.0004
  -6337786.34247  -4898171.71946  24020172.1634   24020176.7294   24020171.619
        46.0004         41.0004
 -13461347.81248 -10449907.52947  22497274.6924   22497280.9304   22497274.395
        52.0004         47.0004
 17  9  1  0  2 30.0000000  0  9G31G03G16G23G22G14G01G09G26
 -13383519.78548 -10417861.52647  22765497.8814   22765500.2784   22765497.735
        50.0004         46.0004
 -25227411.62349 -19616435.89248  20680234.6304   20680239.2174   20680233.786
        57.0004         52.0004
  -8705133.85448  -6777735.31847  23193399.2714   23193402.8144   23193399.198
        49.0004         44.0004
 -17122533.70348 -13294204.92448  21741215.1564   21741216.2624   21741215.299
        53.0004         48.0004
 -23264815.86149 -18086658.88848  20571415.0844   20571415.9864   20571415.530
        57.0004         52.0004
  -1414962.34047  -1047303.05946  24777624.6254   24777627.9124   24777624.598
        42.0004         38.0004
  -4398849.00848  -3393044.35247  23058450.7334   23058456.0864   23058449.748
        48.0004         44.0004
  -6410514.41947  -4954842.92846  24006332.2034   24006336.8784   24006330.872
        46.0004         41.0004
 -13494730.19948 -10475919.75947  22490922.5094   22490928.1674   22490921.348
        52.0004         47.0004
 17  9  1  0  3  0.0000000  0  9G31G03G16G23G22G14G01G09G26
 -13299360.56248 -10352282.92847  22781513.1654   22781514.8634   22781512.535
        50.0004         46.0004
 -25255097.75149 -19638009.49548  20674966.0784   20674970.6814   20674965.270
        57.0004         52.0004
  -8783930.31148  -6839135.11647  23178405.4144   23178407.8294   23178405.270
        49.0004         44.0004
 -17171806.97648 -13332599.66948  21731839.0154   21731839.6914   21731838.630
        53.0004         48.0004
 -23232948.31349 -18061827.04448  20577479.1254   20577480.1044   20577479.756
        57.0004         52.0004
  -1333660.50347   -983951.09446  24793094.7524   24793098.9554   24793094.342
        42.0004         37.0004
  -4312142.89448  -3325481.17647  23074949.7594   23074955.8734   23074948.866
        48.0004         43.0004
  -6483197.79447  -5011479.31046  23992502.4094   23992507.6454   23992500.321
        46.0004         41.0004
 -13527597.14848 -10501530.34247  22484668.0194   22484674.0364   22484667.363
        52.0004         47.0004
 17  9  1  0  3 30.0000000  0  9G31G03G16G23G22G14G01G09G26
 -13214991.57548 -10286540.88347  22797568.0474   22797570.0294   22797566.974
        50.0004         45.0004
 -25282305.21649 -19659210.12248  20669788.6494   20669793.3464   20669788.042
        57.0004         52.0004
  -8862465.52848  -6900331.35747  23163460.2514   23163463.7524   23163460.363
        49.0004         44.0004
 -17220890.57548 -13370846.62648  21722498.3544   21722499.5274   21722498.922
        53.0004         48.0004
 -23200566.17249 -18036594.22348  20583641.2544   20583642.3494   20583641.748
        57.0004         52.0004
  -1252341.38146   -920585.60746  24808570.6554   24808572.9474   24808570.350
        41.0004         36.0004
  -4225200.52048  -3257733.91047  23091493.9784   23091500.5224   23091492.999
        48.0004         43.0004
  -6555836.73947  -5068081.05846  23978678.3374   23978684.1694   23978676.648
        46.0004         41.0004
 -13559947.21648 -10526738.17047  22478511.6414   22478518.4724   22478511.623
        52.0004         47.0004
 17  9  1  0  4  0.0000000  0  9G31G03G16G23G22G14G01G09G26
 -13130414.77148 -10220636.89947  22813662.0304   22813664.3744   22813662.198
        50.0004         45.0004
 -25309032.09149 -19680036.26148  20664702.6714   20664707.3374   20664702.034
        57.0004         52.0004
  -8940735.91648  -6961321.24347  23148565.6284   23148568.4094   23148565.620
        49.0004         44.0004
 -17269783.81248 -13408945.24548  21713194.4564   21713195.0674   21713194.569
        53.0004         48.0004
 -23167669.13549 -18010960.18048  20589901.2974   20589902.4134   20589901.864
        57.0004         52.0004
  -1171004.63146   -857206.24546  24824047.8234   24824050.3004   24824048.149
        40.0004         36.0004
  -4138024.93148  -3189804.90947  23108083.6594   23108089.6744   23108082.593
        48.0004         44.0004
  -6628430.88547  -5124647.90846  23964864.3414   23964867.9974   23964863.753
        46.0004         41.0004
 -13591778.45748 -10551541.71747  22472454.6544   22472461.1414   22472454.233
        52.0004         47.0004
 17  9  1  0  4 30.0000000  0  9G31G03G16G23G22G14G01G09G26
 -13045632.63848 -10154572.91147  22829795.9424   22829797.6984   22829795.085
        50.0004         45.0004
 -25335276.95349 -19700486.80848  20659708.6074   20659713.0634   20659707.846
        57.0004         52.0004
  -9018739.07848  -7022102.89547  23133721.6334   23133726.2744   23133722.231
        49.0004         44.0004
 -17318487.08848 -13446895.84948  21703926.6364   21703927.1354   21703926.479
        53.0004         48.0004
 -23134258.08449 -17984925.61248  20596259.2584   20596260.4294   20596260.023
        57.0004         52.0004
  -1089650.65646   -793813.61746  24839527.5484   24839532.8784   24839527.841
        41.0004         36.0004
  -4050619.55648  -3121696.85347  23124716.1874   23124722.3174   23124714.865
        48.0004         43.0004
  -6700980.45047  -5181180.01246  23951058.3024   23951063.4854   23951058.225
        46.0004         41.0004
 -13623089.39048 -10575939.83448  22466496.2024   22466502.1694   22466495.586
        52.0004         48.0004
 17  9  1  0  5  0.0000000  0  9G31G03G16G23G22G14G01G09G26
 -12960646.87548 -10088350.26047  22845968.3954   22845970.3134   22845967.472
        50.0004         46.0004
 -25361037.83049 -19720560.21848  20654806.3484   20654811.0274   20654805.617
        57.0004         52.0004
  -9096471.72648  -7082673.76147  23118929.9294   23118933.6894   23118929.972
        49.0004         45.0004
 -17366999.38948 -13484697.63348  21694694.8744   21694695.8394   21694695.170
        53.0004         48.0004
 -23100332.87049 -17958490.39248  20602715.1434   20602716.0374   20602715.642
        57.0004         52.0004
  -1008278.83246   -730407.15445  24855011.5684   24855016.6864   24855013.306
        40.0004         35.0004
  -3962987.28948  -3053412.00747  23141391.7854   23141398.4584   23141391.063
        48.0004         43.0004
  -6773484.99947  -5237677.04046  23937259.5504   23937265.1964   23937259.318
        46.0004         41.0004
 -13653877.99548 -10599930.94448  22460637.6984   22460643.4084   22460637.049
        52.0004         48.0004
 17  9  1  0  5 30.0000000  0  9G31G03G16G23G22G14G01G09G26
 -12875460.00748 -10021970.90547  22862179.1014   22862180.0534   22862177.776
        50.0004         45.0004
 -25386313.43149 -19740255.49448  20649996.4004   20650001.3624   20649995.779
        57.0004         52.0004
  -9173931.25448  -7143031.81347  23104189.9014   23104193.8674   23104190.582
        49.0004         45.0004
 -17415321.00048 -13522350.83448  21685499.6694   21685500.4704   21685499.795
        53.0004         48.0004
 -23065894.38949 -17931655.22548  20609268.4094   20609269.4864   20609269.178
        57.0004         52.0004
   -926890.10346   -666987.34746  24870501.5464   24870503.4054   24870502.911
        40.0004         36.0004
  -3875131.75148  -2984953.17247  23158110.1494   23158115.9844   23158109.873
        48.0004         43.0004
  -6845944.76447  -5294139.17046  23923471.9544   23923476.8264   23923471.371
        46.0004         41.0004
 -13684142.99148 -10623514.04748  22454878.2804   22454883.9194   22454877.745
        52.0004         48.0004
 17  9  1  0  6  0.0000000  0  9G31G03G16G23G22G14G01G09G26
 -12790074.20248  -9955436.52047  22878426.8184   22878429.1074   22878426.576
        50.0004         45.0004
 -25411102.00749 -19759571.27048  20645279.3214   20645284.1674   20645278.681
        57.0004         52.0004
  -9251114.61248  -7203174.65947  23089502.0364   23089505.6734   23089503.107
        49.0004         45.0004
 -17463451.20048 -13559854.88548  21676340.7634   21676341.4724   21676340.869
        53.0004         48.0004
 -23030942.69149 -17904420.15148  20615919.4904   20615920.6644   20615920.129
        57.0004         52.0004
   -845484.25146   -603554.19346  24885991.9334   24885996.3544   24885993.076
        41.0004         36.0004
  -3787055.96848  -2916322.72247  23174870.6744   23174876.3584   23174869.521
        48.0004         43.0004
  -6918359.60547  -5350566.29446  23909693.5074   23909698.7724   23909691.856
        46.0004         41.0004
 -13713882.57748 -10646687.74648  22449218.1824   22449224.9144   22449218.609
        52.0004         48.0004
 17  9  1  0  6 30.0000000  0  9G31G03G16G23G22G14G01G09G26
 -12704491.74048  -9888748.91147  22894713.2284   22894715.0774   22894712.384
        50.0004         45.0004
 -25435401.81649 -19778506.18748  20640655.2434   20640660.1304   20640654.581
        57.0004         52.0004
  -9328018.77448  -7263099.95547  23074867.7064   23074871.2284   23074868.412
        49.0004         45.0004
 -17511389.88948 -13597209.70048  21667218.3184   21667219.0384   21667218.225
        53.0004         48.0004
 -22995478.09949 -17876785.41948  20622668.2834   20622669.3454   20622668.879
        57.0004         52.0004
   -764060.99446   -540107.67546  24901487.9984   24901492.0534   24901487.336
        40.0004         36.0004
  -3698763.17248  -2847523.17847  23191672.2764   23191678.6114   23191671.369
        48.0004         43.0004
  -6990729.28247  -5406958.23546  23895921.4854   23895926.2834   23895920.216
        46.0004         41.0004
 -13743095.05648 -10669450.69948  22443659.9714   22443665.9154   22443659.116
        52.0004         48.0004
 17  9  1  0  7  0.0000000  0  9G31G03G16G23G22G14G01G09G26
 -12618714.95148  -9821909.87147  22911036.0084   22911037.7374   22911035.437
        50.0004         45.0004
 -25459211.52849 -19797059.21248  20636124.4464   20636129.1214   20636123.714
        57.0004         52.0004
  -9404640.75148  -7322805.36247  23060287.5864   23060290.6104   23060287.454
        49.0004         45.0004
 -17559136.64748 -13634414.96448  21658132.7344   21658133.5834   21658132.226
        53.0004         48.0004
 -22959501.18149 -17848751.47048  20629514.5044   20629515.4204   20629515.036
        57.0004         52.0004
   -682621.00046   -476648.02846  24916985.3294   24916989.3844   24916984.786
        40.0004         36.0004
  -3610256.73648  -2778557.14747  23208513.8024   23208520.7454   23208514.109
        48.0004         43.0004
  -7063053.91647  -5463315.07246  23882158.5794   23882162.1994   23882158.910
        46.0004         41.0004
 -13771779.01548 -10691801.83448  22438201.4744   22438207.5624   22438201.049
        52.0004         48.0004
 17  9  1  0  7 30.0000000  0  9G31G03G16G23G22G14G01G09G26
 -12532745.71748  -9754920.87847  22927395.4304   22927396.6504   22927394.510
        50.0004         45.0004
 -25482529.36149 -19815228.95348  20631687.1484   20631691.9654   20631686.466
        57.0004         52.0004
  -9480977.86048  -7382288.79847  23045761.2054   23045764.3644   23045761.216
        50.0004         45.0004
 -17606691.29848 -13671470.53248  21649083.1144   21649083.7434   21649083.234
        53.0004         48.0004
 -22923012.63849 -17820318.85248  20636457.9344   20636459.0794   20636458.685
        57.0004         52.0004
   -601164.19946   -413175.15245  24932485.5604   24932489.2444   24932485.628
        40.0004         35.0004
  -3521539.71448  -2709427.04547  23225396.8724   23225402.8584   23225395.858
        48.0004         43.0004
  -7135333.27547  -5519636.63246  23868402.4404   23868406.9214   23868403.610
        46.0004         41.0004
 -13799932.74948 -10713739.79648  22432843.4794   22432850.3934   22432843.075
        52.0004         48.0004
 17  9  1  0  8  0.0000000  0  9G31G03G16G23G22G14G01G09G26
 -12446586.63248  -9687783.94947  22943790.9784   22943792.3704   22943790.016
        50.0004         45.0004
 -25505353.90249 -19833014.31148  20627344.0524   20627348.5714   20627343.218
        57.0004         52.0004
  -9557026.97748  -7441547.83247  23031288.7934   23031292.1234   23031289.523
        50.0004         45.0004
 -17654053.66848 -13708376.26948  21640070.2654   21640070.9224   21640070.543
        53.0004         48.0004
 -22886012.88449 -17791487.89148  20643498.7634   20643499.8984   20643499.341
        57.0004         52.0004
   -519690.34746   -349689.07946  24947989.1544   24947994.1024   24947989.524
        40.0004         36.0004
  -3432615.53948  -2640135.49847  23242318.5424   23242324.0854   23242317.779
        48.0004         43.0004
  -7207567.38147  -5575922.93447  23854655.4744   23854661.5624   23854655.306
        46.0004         42.0004
 -13827554.82648 -10735263.48648  22427587.6194   22427593.7964   22427587.340
        52.0004         48.0004
 17  9  1  0  8 30.0000000  0  9G31G03G16G23G22G14G01G09G26
 -12360239.89748  -9620500.79047  22960221.4954   22960223.4354   22960221.336
        50.0004         45.0004
 -25527683.48949 -19850413.99248  20623094.8224   20623099.6604   20623093.905
        57.0004         52.0004
  -9632785.19048  -7500580.18747  23016873.2924   23016875.4294   23016873.385
        50.0004         45.0004
 -17701223.25948 -13745131.79348  21631094.4224   21631094.8214   21631094.193
        53.0004         48.0004
 -22848502.27849 -17762258.86248  20650636.9744   20650637.9294   20650637.501
        56.0004         52.0004
   -438199.77447   -286190.05446  24963496.5694   24963501.4454   24963497.119
        42.0004         37.0004
  -3343487.30747  -2570684.96947  23259278.9524   23259285.3164   23259278.249
        47.0004         43.0004
  -7279756.00347  -5632173.78146  23840920.6584   23840926.5374   23840918.205
        46.0004         41.0004
 -13854643.62248 -10756371.62448  22422432.8244   22422438.8944   22422432.428
        52.0004         48.0004
 17  9  1  0  9  0.0000000  0  9G31G03G16G23G22G14G01G09G26
 -12273707.31448  -9553072.82847  22976688.8034   22976690.7614   22976688.300
        50.0004         45.0004
 -25549516.70949 -19867426.89548  20618940.1104   20618944.7824   20618939.373
        57.0004         52.0004
  -9708249.85148  -7559383.78947  23002513.0254   23002516.0324   23002513.266
        50.0004         45.0004
 -17748199.66648 -13781736.78248  21622154.9644   21622155.6024   21622154.686
        53.0004         48.0004
 -22810481.41549 -17732632.23048  20657871.8894   20657873.0344   20657872.536
        56.0004         52.0004
   -356692.86046   -222678.21746  24979006.6404   24979008.6594   24979006.711
        41.0004         36.0004
  -3254158.41148  -2501078.07047  23276277.9554   23276284.2684   23276277.304
        48.0004         43.0004
  -7351899.12747  -5688389.17847  23827193.1854   23827197.5684   23827191.845
        46.0004         42.0004
 -13881197.72848 -10777063.13148  22417379.2984   22417386.0044   22417379.421
        52.0004         48.0004
 17  9  1  0  9 30.0000000  0  9G31G03G16G23G22G14G01G09G26
 -12186991.57048  -9485502.13947  22993189.6464   22993192.2484   22993189.857
        50.0004         45.0004
 -25570851.87049 -19884051.69748  20614879.9164   20614884.8024   20614879.432
        57.0004         52.0004
  -9783417.68448  -7617956.10847  22988209.3774   22988211.5884   22988209.349
        50.0004         45.0004
 -17794982.62248 -13818191.03048  21613251.9084   21613252.8164   21613252.687
        53.0004         48.0004
 -22771950.74049 -17702608.34248  20665204.1134   20665205.1284   20665204.757
        56.0004         52.0004
   -275169.06746   -159153.29245  24994521.3684   24994524.3634   24994521.628
        39.0004         33.0004
  -3164631.90147  -2431317.19547  23293313.3304   23293320.6444   23293313.258
        47.0004         43.0004
  -7423996.52247  -5744568.95047  23813473.0234   23813478.2324   23813472.954
        46.0004         42.0004
 -13907215.52948 -10797336.73248  22412428.7744   22412434.9624   22412428.230
        52.0004         48.0004
 17  9  1  0 10  0.0000000  0  9G31G03G16G23G22G14G01G09G26
 -12100094.65348  -9417790.27447  23009726.2704   23009728.6654   23009725.561
        50.0004         45.0004
 -25591687.69449 -19900287.40748  20610915.1914   20610919.8824   20610914.355
        57.0004         52.0004
  -9858286.08648  -7676295.09347  22973961.5004   22973964.5654   22973962.085
        50.0004         45.0004
 -17841571.90548 -13854494.36148  21604386.6704   21604387.7394   21604386.618
        53.0004         48.0004
 -22732911.10449 -17672187.86248  20672633.0844   20672634.3254   20672633.739
        56.0004         52.0004
   -193628.91546    -95615.48845  25010038.6444   25010038.2934   25010037.273
        39.0004         34.0004
  -3074911.16547  -2361404.97347  23310386.8414   23310393.9624   23310386.607
        47.0004         43.0004
  -7496048.26547  -5800713.15247  23799761.3194   23799766.2804   23799760.930
        46.0004         42.0004
 -13932695.72048 -10817191.40948  22407579.9844   22407586.3854   22407579.219
        52.0004         48.0004
 17  9  1  0 10 30.0000000  0  9G31G03G16G23G22G14G01G09G26
 -12013018.69248  -9349938.90247  23026296.0324   23026297.9534   23026296.006
        50.0004         45.0004
 -25612022.50849 -19916132.72048  20607045.5694   20607050.1734   20607044.998
        57.0004         52.0004
  -9932852.15748  -7734398.51247  22959772.1844   22959775.9234   22959772.840
        50.0004         45.0004
 -17887967.12548 -13890646.48348  21595558.1534   21595558.6534   21595558.307
        53.0004         48.0004
 -22693362.79349 -17641371.01448  20680158.8874   20680160.2124   20680159.517
        56.0004         52.0004
   -112072.42446    -32064.96946  25025557.9004   25025561.7304   25025557.194
        41.0004         37.0004
  -2984999.40247  -2291343.90047  23327497.5384   23327503.6144   23327496.961
        47.0004         43.0004
  -7568054.12247  -5856821.60047  23786058.7654   23786063.9664   23786058.574
        46.0004         42.0004
 -13957636.78248 -10836625.99348  22402833.7354   22402840.1054   22402833.599
        52.0004         48.0004
 17  9  1  0 11  0.0000000  0  9G31G03G16G23G22G14G01G09G26
 -11925765.86648  -9281949.72347  23042899.8234   23042901.3584   23042899.028
        50.0004         45.0004
 -25631854.99849 -19931586.61048  20603271.7054   20603276.1704   20603270.857
        57.0004         52.0004
 -10007113.08348  -7792264.15047  22945640.3014   22945643.6624   22945640.545
        50.0004         45.0004
 -17934168.00848 -13926647.16348  21586766.1414   21586767.0414   21586766.395
        53.0004         48.0004
 -22653306.52749 -17610158.35548  20687781.5704   20687782.4964   20687782.126
        56.0004         52.0004
    -30499.66646     31498.15846  25041080.0584   25041085.2864   25041079.719
        41.0004         36.0004
  -2894899.89547  -2221136.52947  23344642.3084   23344648.4504   23344641.189
        47.0004         42.0004
  -7640014.06247  -5912894.25947  23772365.8114   23772370.6964   23772365.208
        47.0004         42.0004
 -13982037.38848 -10855639.44048  22398190.4024   22398196.5684   22398189.926
        52.0004         48.0004
 17  9  1  0 11 30.0000000  0  8G31G03G16G23G22G01G09G26
 -11838338.18948  -9213824.28147  23059536.9364   23059538.5164   23059535.833
        50.0004         45.0004
 -25651183.64249 -19946647.89148  20599593.5534   20599597.9944   20599592.723
        57.0004         52.0004
 -10081065.72348  -7849889.55947  22931567.0844   22931570.7054   22931568.256
        50.0004         45.0004
 -17980174.22948 -13962496.15948  21578011.4104   21578011.8264   21578011.679
        53.0004         48.0004
 -22612742.85149 -17578550.31248  20695500.4464   20695501.4384   20695501.119
        56.0004         52.0004
  -2804615.84247  -2150785.38247  23361823.1334   23361829.0234   23361822.823
        47.0004         43.0004
  -7711927.83547  -5968930.95547  23758680.9714   23758686.0774   23758681.713
        47.0004         42.0004
 -14005896.08548 -10874230.62948  22393650.2634   22393656.7104   22393649.850
        52.0004         48.0004
 17  9  1  0 12  0.0000000  0  8G31G03G16G23G22G01G09G26
 -11750737.90348  -9145564.34347  23076206.6384   23076208.0914   23076205.429
        49.0004         45.0004
 -25670006.97249 -19961315.42148  20596011.5254   20596016.0344   20596010.837
        57.0004         52.0004
 -10154707.24648  -7907272.53947  22917554.3784   22917557.1844   22917554.538
        50.0004         45.0004
 -18025985.15348 -13998192.97848  21569294.1184   21569294.5554   21569294.210
        53.0004         48.0004
 -22571672.56449 -17546547.50748  20703315.8614   20703317.0264   20703316.578
        56.0004         52.0004
  -2714150.48647  -2080292.94747  23379037.7284   23379044.1394   23379037.293
        47.0004         42.0004
  -7783795.38447  -6024931.62547  23745005.0134   23745009.6474   23745004.559
        47.0004         42.0004
 -14029211.49448 -10892398.46248  22389213.3134   22389219.9514   22389213.428
        52.0004         48.0004
 17  9  1  0 12 30.0000000  0  8G31G03G16G23G22G01G09G26
 -11662967.30948  -9077171.69247  23092908.2254   23092910.5984   23092907.944
        49.0004         45.0004
 -25688323.60249 -19975588.12348  20592525.9954   20592530.5054   20592525.441
        57.0004         52.0004
 -10228035.14448  -7964411.14947  22903600.6264   22903602.9084   22903600.457
        50.0004         45.0004
 -18071600.76848 -14033737.60748  21560614.0674   21560614.3254   21560613.747
        53.0004         49.0004
 -22530096.11449 -17514150.29248  20711227.7684   20711228.8774   20711228.289
        56.0004         52.0004
  -2623507.06647  -2009661.77447  23396286.9544   23396293.2924   23396285.858
        47.0004         42.0004
  -7855616.56447  -6080896.17047  23731337.7974   23731342.6114   23731337.375
        47.0004         42.0004
 -14051982.30748 -10910141.94048  22384880.3854   22384886.6094   22384880.090
        52.0004         48.0004
 17  9  1  0 13  0.0000000  0  9G31G03G16G23G22G14G01G09G26
 -11575028.49548  -9008647.97547  23109642.6494   23109644.5944   23109642.691
        49.0004         45.0004
 -25706132.13849 -19989464.90748  20589137.0434   20589141.6804   20589136.308
        57.0004         52.0004
 -10301046.09448  -8021302.78347  22889707.0064   22889709.7184   22889707.202
        50.0004         45.0004
 -18117020.56148 -14069129.64748  21551970.7874   21551970.9404   21551970.860
        53.0004         49.0004
 -22488014.39549 -17481359.36048  20719235.6534   20719236.8744   20719236.315
        56.0004         52.0004
    126993.96448     85737.40745  25103201.8054   25103203.6354   25103202.610
        50.0004         35.0004
  -2532688.82347  -1938894.37447  23413569.5934   23413575.2424   23413568.605
        47.0004         42.0004
  -7927391.22647  -6136824.45747  23717679.7904   23717683.9114   23717678.936
        47.0004         42.0004
 -14074207.19148 -10927460.01848  22380651.6534   22380657.5564   22380650.931
        52.0004         48.0004
 17  9  1  0 13 30.0000000  0  9G31G03G16G23G22G14G01G09G26
 -11486923.60548  -8939994.83347  23126408.3344   23126410.5384   23126408.839
        49.0004         45.0004
 -25723431.17049 -20002944.67248  20585845.2464   20585849.8454   20585844.600
        57.0004         52.0004
 -10373737.50548  -8077945.42047  22875874.5754   22875877.2804   22875874.823
        50.0004         45.0004
 -18162244.47248 -14104369.05148  21543364.6324   21543365.6114   21543365.028
        53.0004         49.0004
 -22445428.07749 -17448175.23248  20727339.2914   20727340.5724   20727340.094
        56.0004         52.0004
    208647.59847    149363.51945  25118737.9234   25118743.3944   25118740.408
        44.0004         35.0004
  -2441699.08047  -1867993.35547  23430884.0894   23430890.6984   23430883.045
        47.0004         42.0004
  -7999119.24147  -6192716.39747  23704030.1044   23704035.2994   23704029.428
        47.0004         42.0004
 -14095884.87148 -10944351.69148  22376526.3394   22376532.1474   22376525.492
        53.0004         48.0004
 17  9  1  0 14  0.0000000  0 10G31G03G16G23G07G22G14G01G09G26
 -11398654.89248  -8871214.05047  23143205.9864   23143208.2564   23143205.512
        49.0004         45.0004
 -25740219.30749 -20016026.34048  20582650.7424   20582655.0764   20582649.996
        57.0004         52.0004
 -10446106.48248  -8134336.81247  22862102.4754   22862105.6604   22862103.037
        50.0004         45.0004
 -18207271.94848 -14139455.38848  21534796.2474   21534797.2934   21534796.274
        53.0004         49.0004
   -258893.83948   -145165.37646  25334248.7834   25334254.0324   25334249.385
        50.0004         37.0004
 -22402337.62649 -17414598.27448  20735539.4074   20735540.5544   20735539.891
        56.0004         52.0004
    290317.18346    213002.13645  25134279.9644   25134282.1704   25134281.078
        41.0004         34.0004
  -2350540.85147  -1796961.01247  23448231.2674   23448237.3544   23448229.988
        47.0004         42.0004
  -8070800.47847  -6248571.89147  23690389.6634   23690394.4694   23690389.043
        47.0004         42.0004
 -14117014.04348 -10960815.97548  22372505.4194   22372511.1214   22372504.646
        53.0004         48.0004
 17  9  1  0 14 30.0000000  0 10G31G03G16G23G07G22G14G01G09G26
 -11310224.33048  -8802307.14447  23160033.8594   23160036.6614   23160033.369
        49.0004         45.0004
 -25756495.27649 -20028708.91648  20579553.4724   20579558.0044   20579552.623
        57.0004         52.0004
 -10518150.39548  -8190474.90547  22848393.8494   22848396.5654   22848393.492
        50.0004         45.0004
 -18252102.59848 -14174388.35848  21526265.7454   21526265.9734   21526265.328
        53.0004         49.0004
   -367611.14647   -229880.11246  25313561.3354   25313565.4554   25313561.577
        45.0004         37.0004
 -22358744.06149 -17380629.28048  20743834.8644   20743835.8164   20743835.624
        56.0004         52.0004
    372002.54846    276653.03245  25149823.8164   25149829.2144   25149825.121
        39.0004         34.0004
  -2259217.60047  -1725800.07247  23465609.0364   23465615.4794   23465608.023
        47.0004         42.0004
  -8142434.79547  -6304390.82747  23676758.0254   23676762.9994   23676758.468
        47.0004         42.0004
 -14137593.52648 -10976851.92948  22368589.4194   22368595.2574   22368588.994
        53.0004         48.0004
 17  9  1  0 15  0.0000000  0 10G31G03G16G23G07G22G14G01G09G26
 -11221634.17948  -8733275.88647  23176891.5624   23176893.2644   23176891.257
        49.0004         45.0004
 -25772257.65249 -20040991.29248  20576553.9324   20576558.5004   20576553.220
        57.0004         52.0004
 -10589866.28548  -8246357.39247  22834746.4144   22834749.1554   22834746.574
        50.0004         45.0004
 -18296735.87348 -14209167.52948  21517772.0134   21517772.6054   21517771.993
        53.0004         49.0004
   -476213.68447   -314505.39346  25292895.9934   25292899.1744   25292896.355
        43.0004         37.0004
 -22314647.68849 -17346268.48848  20752226.2964   20752227.3474   20752226.776
        56.0004         52.0004
    453703.83456    340316.31355  25165373.8195   25165379.3995   25165374.362
        39.0004         34.0004
  -2167732.40447  -1654512.94147  23483017.6134   23483024.3334   23483017.637
        46.0004         42.0004
  -8214022.00747  -6360173.05747  23663136.2154   23663140.4984   23663134.975
        47.0004         43.0004
 -14157622.00648 -10992458.51948  22364778.4204   22364783.7904   22364777.421
        53.0004         48.0004
 17  9  1  0 15 30.0000000  0 10G31G03G16G23G07G22G14G01G09G26
 -11132886.54048  -8664121.91647  23193780.0784   23193781.3084   23193779.346
        49.0004         45.0004
 -25787505.14349 -20052872.45648  20573652.4574   20573657.1294   20573651.598
        57.0004         52.0004
 -10661251.31248  -8301982.07747  22821162.9984   22821165.5094   22821162.930
        50.0004         45.0004
 -18341171.71448 -14243792.85748  21509315.9954   21509316.6644   21509316.065
        53.0004         49.0004
   -584699.97246   -399040.01446  25272248.9854   25272256.7284   25272247.284
        41.0004         36.0004
 -22270049.88449 -17311516.96948  20760712.9964   20760714.1664   20760713.520
        56.0004         52.0004
    535421.09756    403992.04455  25180922.6075   25180926.3265   25180922.965
        38.0004         33.0004
  -2076088.61047  -1583102.22647  23500458.2154   23500463.5894   23500457.009
        46.0004         42.0004
  -8285561.95847  -6415918.46347  23649522.4414   23649527.0154   23649521.921
        47.0004         42.0004
 -14177098.34348 -11007634.87248  22361071.7524   22361077.9984   22361071.251
        53.0004         48.0004
 17  9  1  0 16  0.0000000  0  8G31G03G16G23G22G01G09G26
 -11043983.61548  -8594846.93047  23210698.0474   23210699.2354   23210697.257
        49.0004         45.0004
 -25802236.45849 -20064351.40648  20570849.0754   20570853.7884   20570848.516
        57.0004         52.0004
 -10732302.90848  -8357346.94447  22807641.7644   22807644.3474   22807641.939
        50.0004         45.0004
 -18385409.76448 -14278264.06448  21500898.0554   21500898.3344   21500897.904
        53.0004         49.0004
 -22224951.25749 -17276375.19948  20769294.9724   20769296.0654   20769295.424
        56.0004         52.0004
  -1984289.45247  -1511570.46447  23517925.6624   23517932.0484   23517925.652
        46.0004         42.0004
  -8357054.47247  -6471626.89147  23635917.8664   23635922.4794   23635917.052
        47.0004         42.0004
 -14196021.34848 -11022380.05848  22357470.5494   22357476.7544   22357470.165
        53.0004         48.0004
 17  9  1  0 16 30.0000000  0  8G31G03G16G23G22G01G09G26
 -10954927.23248  -8525452.37347  23227643.8904   23227646.4954   23227644.181
        49.0004         45.0004
 -25816450.32249 -20075427.15248  20568144.4294   20568148.9764   20568143.431
        57.0004         52.0004
 -10803017.75848  -8412449.38747  22794183.9804   22794188.1304   22794184.459
        50.0004         46.0004
 -18429449.32648 -14312580.59948  21492517.5744   21492518.3734   21492517.625
        53.0004         49.0004
 -22179352.59649 -17240843.79348  20777972.0704   20777973.1484   20777972.419
        56.0004         52.0004
  -1892338.14747  -1439920.15647  23535424.0714   23535430.8714   23535423.611
        47.0004         42.0004
  -8428499.42047  -6527298.25947  23622321.5664   23622327.1284   23622321.443
        47.0004         42.0004
 -14214389.88748 -11036693.20148  22353975.4924   22353981.4214   22353975.277
        53.0004         48.0004
 17  9  1  0 17  0.0000000  0  8G31G03G16G23G22G01G09G26
 -10865719.50148  -8455939.88847  23244619.9624   23244622.0714   23244619.395
        49.0004         44.0004
 -25830145.42049 -20086098.66148  20565538.2334   20565542.9684   20565537.396
        57.0004         52.0004
 -10873393.49648  -8467287.61047  22780792.8774   22780796.0304   22780793.009
        50.0004         46.0004
 -18473290.42848 -14346742.49848  21484174.8904   21484175.2434   21484174.914
        53.0004         49.0004
 -22133254.52449 -17204923.23248  20786744.1774   20786745.4934   20786744.920
        56.0004         52.0004
  -1800237.84547  -1368153.73547  23552950.4344   23552957.1444   23552949.226
        46.0004         42.0004
  -8499896.58847  -6582932.40247  23608734.8434   23608740.3524   23608734.638
        47.0004         42.0004
 -14232202.80148 -11050573.38548  22350585.8134   22350591.7054   22350585.168
        53.0004         48.0004
 17  9  1  0 17 30.0000000  0  8G31G03G16G23G22G01G09G26
 -10776362.60848  -8386311.16747  23261624.0624   23261626.6604   23261623.473
        49.0004         44.0004
 -25843320.53149 -20096364.98948  20563031.0714   20563035.6614   20563030.502
        57.0004         52.0004
 -10943427.11748  -8521859.23847  22767465.8964   22767469.2524   22767465.433
        50.0004         46.0004
 -18516932.37448 -14380749.20748  21475870.2334   21475870.6754   21475869.995
        53.0004         49.0004
 -22086657.94249 -17168614.22148  20795611.3164   20795612.5074   20795611.961
        56.0004         52.0004
  -1707991.84547  -1296273.75647  23570504.0144   23570509.9514   23570503.887
        46.0004         42.0004
  -8571245.80147  -6638529.17547  23595158.3884   23595163.3304   23595157.742
        47.0004         42.0004
 -14249458.99348 -11064019.75948  22347302.1514   22347307.9374   22347301.371
        53.0004         48.0004
 17  9  1  0 18  0.0000000  0  8G31G03G16G23G22G01G09G26
 -10686858.80048  -8316567.96147  23278656.0264   23278658.3604   23278656.257
        49.0004         45.0004
 -25855974.43949 -20106225.18748  20560623.2274   20560627.8364   20560622.413
        57.0004         52.0004
 -11013116.08948  -8576162.31747  22754204.9844   22754207.5674   22754204.933
        50.0004         46.0004
 -18560374.98048 -14414600.58848  21467603.2204   21467603.3484   21467602.951
        53.0004         49.0004
 -22039563.81749 -17131917.51848  20804573.1074   20804574.1754   20804573.599
        56.0004         52.0004
  -1615603.38947  -1224282.79847  23588085.5134   23588091.7844   23588084.598
        46.0004         42.0004
  -8642546.91347  -6694088.46147  23581589.5404   23581594.4224   23581589.942
        47.0004         42.0004
 -14266157.40248 -11077031.49948  22344124.2754   22344130.0854   22344123.629
        53.0004         48.0004
 17  9  1  0 18 30.0000000  0  8G31G03G16G23G22G01G09G26
 -10597210.36048  -8246712.07447  23295715.7284   23295717.4474   23295715.872
        49.0004         44.0004
 -25868105.91749 -20115678.29748  20558314.6984   20558318.9204   20558314.261
        57.0004         52.0004
 -11082457.69648  -8630194.72747  22741009.5964   22741011.2984   22741009.292
        51.0004         46.0004
 -18603617.83648 -14448296.31848  21459374.2094   21459374.5214   21459374.433
        53.0004         49.0004
 -21991973.01449 -17094833.79348  20813629.2984   20813630.1524   20813630.063
        56.0004         51.0004
  -1523075.69047  -1152183.34847  23605693.1234   23605699.2384   23605691.586
        46.0004         42.0004
  -8713799.74547  -6749610.14247  23568030.6114   23568035.2964   23568030.282
        47.0004         42.0004
 -14282296.95648 -11089607.77148  22341053.0404   22341058.9554   22341052.698
        53.0004         48.0004
 17  9  1  0 19  0.0000000  0  8G31G03G16G23G22G01G09G26
 -10507419.09748  -8176744.89247  23312802.7484   23312804.3964   23312802.077
        49.0004         44.0004
 -25879713.73249 -20124723.36548  20556105.9434   20556110.2504   20556105.237
        57.0004         52.0004
 -11151448.75348  -8683953.98947  22727880.8914   22727883.0524   22727881.255
        51.0004         46.0004
 -18646660.35448 -14481835.95248  21451183.9564   21451183.7974   21451184.048
        53.0004         49.0004
 -21943886.54749 -17057363.84348  20822780.0854   20822780.6594   20822780.923
        56.0004         52.0004
  -1430411.99647  -1079977.93347  23623326.5694   23623332.2454   23623325.911
        46.0004         42.0004
  -8785004.05347  -6805094.00247  23554481.2834   23554486.2494   23554480.543
        47.0004         42.0004
 -14297876.71348 -11101747.84148  22338088.8194   22338093.9494   22338088.271
        53.0004         48.0004
 17  9  1  0 19 30.0000000  0  8G31G03G16G23G22G01G09G26
 -10417486.81948  -8106667.82247  23329916.7294   23329917.4014   23329915.902
        49.0004         44.0004
 -25890796.72249 -20133359.46648  20553996.9264   20554001.0774   20553996.289
        57.0004         52.0004
 -11220086.50448  -8737437.92847  22714819.8214   22714821.9564   22714819.514
        51.0004         46.0004
 -18689502.29648 -14515219.28548  21443031.4044   21443031.2114   21443031.344
        53.0004         49.0004
 -21895305.22149 -17019508.27948  20832024.8404   20832025.2994   20832025.256
        56.0004         51.0004
  -1337615.44747  -1007668.97246  23640985.2744   23640991.8734   23640984.286
        46.0004         41.0004
  -8856159.62547  -6860539.87347  23540940.6214   23540945.1324   23540940.032
        47.0004         42.0004
 -14312895.48948 -11113450.77748  22335230.7484   22335236.2584   22335229.942
        53.0004         48.0004
 17  9  1  0 20  0.0000000  0  8G31G03G16G23G22G01G09G26
 -10327415.87748  -8036482.67247  23347055.2734   23347057.7784   23347055.639
        49.0004         44.0004
 -25901353.74949 -20141585.71548  20551988.0414   20551992.3334   20551987.285
        57.0004         52.0004
 -11288368.80048  -8790644.89047  22701825.7814   22701828.7744   22701825.881
        51.0004         46.0004
 -18732143.46348 -14548446.15248  21434916.8384   21434917.2284   21434917.081
        53.0004         49.0004
 -21846229.80849 -16981267.70148  20841363.3554   20841364.3444   20841363.986
        56.0004         51.0004
  -1244689.30647   -935259.03046  23658667.9774   23658674.3754   23658667.335
        46.0004         41.0004
  -8927266.31947  -6915947.66747  23527409.7834   23527414.3384   23527409.588
        47.0004         42.0004
 -14327352.38948 -11124715.86848  22332479.3574   22332485.1814   22332479.112
        53.0004         48.0004
 17  9  1  0 20 30.0000000  0  8G31G03G16G23G22G01G09G26
 -10237208.24448  -7966191.05147  23364221.8824   23364223.4394   23364221.958
        49.0004         44.0004
 -25911383.66449 -20149401.24848  20550079.2384   20550083.6344   20550078.740
        57.0004         52.0004
 -11356292.73548  -8843572.62247  22688900.5254   22688902.7494   22688900.397
        51.0004         46.0004
 -18774583.00448 -14581515.93548  21426840.8454   21426841.1814   21426840.853
        53.0004         49.0004
 -21796661.34049 -16942642.95148  20850796.2874   20850796.7874   20850796.668
        56.0004         51.0004
  -1151636.73047   -862750.58046  23676375.4404   23676381.7274   23676374.769
        46.0004         41.0004
  -8998323.90647  -6971317.20647  23513887.7354   23513892.3974   23513887.673
        47.0004         42.0004
 -14341246.47148 -11135542.42748  22329835.4284   22329841.1114   22329835.275
        53.0004         48.0004
 17  9  1  0 21  0.0000000  0  8G31G03G16G23G22G01G09G26
 -10146865.82048  -7895794.37747  23381412.4894   23381415.7524   23381412.197
        49.0004         44.0004
 -25920885.19549 -20156805.02948  20548271.1194   20548275.7104   20548270.263
        57.0004         52.0004
 -11423855.26248  -8896218.71947  22676043.5254   22676046.5234   22676043.300
        51.0004         46.0004
 -18816820.74349 -14614428.44548  21418803.5894   21418803.6214   21418803.268
        54.0004         49.0004
 -21746601.03149 -16903634.92348  20860322.0554   20860323.1584   20860322.439
        56.0004         51.0004
  -1058460.95347   -790146.10546  23694106.1434   23694112.9244   23694105.678
        46.0004         41.0004
  -9069332.09047  -7026648.23747  23500375.1934   23500379.7654   23500373.191
        47.0004         42.0004
 -14354576.69948 -11145929.59948  22327298.5964   22327304.6544   22327298.461
        53.0004         48.0004
 17  9  1  0 21 30.0000000  0  9G31G03G16G06G23G22G01G09G26
 -10056391.07248  -7825294.59447  23398630.6054   23398632.6394   23398628.693
        49.0004         44.0004
 -25929857.53849 -20163796.46848  20546563.7624   20546568.2654   20546563.126
        57.0004         52.0004
 -11491053.92248  -8948581.29547  22663256.0244   22663258.6104   22663256.258
        51.0004         46.0004
   -121437.76548    -71340.21046  24941035.8174   24941041.5684   24941034.448
        49.0004         38.0004
 -18858856.47249 -14647183.55648  21410804.1774   21410804.4124   21410804.067
        54.0004         49.0004
 -21696049.86849 -16864244.42448  20869941.7174   20869942.7034   20869942.366
        56.0004         51.0004
   -965165.32847   -717448.27246  23711859.4904   23711866.0904   23711858.596
        46.0004         41.0004
  -9140290.81747  -7081940.72947  23486872.3154   23486877.2894   23486871.500
        47.0004         42.0004
 -14367342.36948 -11155876.86948  22324868.9194   22324875.2564   22324868.855
        53.0004         48.0004
 17  9  1  0 22  0.0000000  0  9G31G03G16G06G23G22G01G09G26
  -9965785.54348  -7754692.91147  23415871.9264   23415874.2314   23415870.941
        49.0004         44.0004
 -25938299.34949 -20170374.51048  20544957.5974   20544961.7304   20544956.599
        57.0004         52.0004
 -11557885.96148  -9000658.18647  22650537.9134   22650541.0364   22650537.950
        51.0004         46.0004
   -168635.77647   -108117.87446  24932055.3574   24932061.5094   24932054.482
        45.0004         39.0004
 -18900689.65849 -14679780.84248  21402843.5694   21402843.8064   21402843.396
        54.0004         49.0004
 -21645008.46549 -16824471.92648  20879654.6594   20879655.5694   20879655.441
        56.0004         51.0004
   -871752.91547   -644659.43446  23729635.5304   23729641.1924   23729634.704
        46.0004         41.0004
  -9211199.71347  -7137194.40247  23473378.5574   23473383.0324   23473378.776
        47.0004         42.0004
 -14379542.42548 -11165383.40448  22322547.7644   22322553.8984   22322547.440
        53.0004         48.0004
 17  9  1  0 22 30.0000000  0  9G31G03G16G06G23G22G01G09G26
  -9875051.60348  -7683991.17047  23433138.5924   23433140.5214   23433137.109
        48.0004         44.0004
 -25946209.63649 -20176538.36748  20543451.9764   20543456.5854   20543451.426
        57.0004         52.0004
 -11624348.54948  -9052447.20747  22637890.9594   22637893.6684   22637891.266
        51.0004         46.0004
   -215347.07447   -144516.25046  24923166.2594   24923173.1774   24923165.347
        44.0004         38.0004
 -18942319.57849 -14712219.73048  21394921.6514   21394921.6184   21394921.466
        54.0004         49.0004
 -21593478.14049 -16784318.44148  20889460.3144   20889461.3784   20889461.058
        56.0004         51.0004
   -778226.91647   -571782.06046  23747432.6424   23747439.2304   23747432.320
        46.0004         41.0004
  -9282058.62047  -7192409.10847  23459894.3304   23459899.2544   23459893.710
        47.0004         42.0004
 -14391176.06148 -11174448.56248  22320334.3864   22320339.7074   22320333.701
        53.0004         48.0004
 17  9  1  0 23  0.0000000  0  9G31G03G16G06G23G22G01G09G26
  -9784191.22148  -7613190.89347  23450428.5814   23450430.8404   23450428.182
        48.0004         44.0004
 -25953587.23649 -20182287.14548  20542048.0564   20542052.7874   20542047.327
        57.0004         52.0004
 -11690439.32148  -9103946.48447  22625313.8734   22625317.2614   22625314.397
        51.0004         46.0004
   -261570.15147   -180534.22546  24914370.1084   24914376.7934   24914368.816
        43.0004         39.0004
 -18983746.01049 -14744500.05748  21387038.3284   21387038.5834   21387038.213
        54.0004         49.0004
 -21541459.93949 -16743784.79048  20899359.2224   20899360.3924   20899360.029
        56.0004         51.0004
   -684590.45147   -498818.63846  23765251.5684   23765257.7624   23765250.608
        46.0004         41.0004
  -9352867.20147  -7247584.60447  23446419.6984   23446425.5984   23446418.835
        47.0004         42.0004
 -14402242.30448 -11183071.59848  22318227.8844   22318234.0544   22318227.610
        53.0004         48.0004
 17  9  1  0 23 30.0000000  0 10G31G03G16G06G23G07G22G01G09G26
  -9693206.39648  -7542293.65047  23467742.1634   23467744.4904   23467741.070
        48.0004         44.0004
 -25960431.36349 -20187620.23348  20540745.6304   20540750.3464   20540744.973
        57.0004         52.0004
 -11756155.69648  -9155154.02947  22612808.5214   22612811.1474   22612808.876
        51.0004         46.0004
   -307304.03647   -216171.00246  24905665.9974   24905672.3804   24905666.204
        43.0004         38.0004
 -19024968.61849 -14776621.56648  21379193.7404   21379194.2794   21379193.702
        54.0004         49.0004
                                                                  24945200.295

 -21488954.81349 -16702871.72648  20909350.5484   20909351.5554   20909351.179
        56.0004         51.0004
   -590846.96947   -425771.83046  23783089.9614   23783096.6034   23783089.929
        46.0004         41.0004
  -9423625.39647  -7302720.84447  23432955.8754   23432960.9044   23432955.160
        47.0004         42.0004
 -14412740.61948 -11191252.09648  22316229.9734   22316236.1834   22316229.563
        53.0004         48.0004
 17  9  1  0 24  0.0000000  0 10G31G03G16G06G23G07G22G01G09G26
  -9602099.01948  -7471300.91647  23485079.1854   23485080.7784   23485077.893
        48.0004         43.0004
 -25966740.93849 -20192536.79048  20539545.0974   20539549.6454   20539544.394
        57.0004         52.0004
 -11821494.77948  -9206067.57847  22600374.8154   22600377.3954   22600375.117
        51.0004         46.0004
   -352547.37247   -251425.52246  24897056.7314   24897062.8194   24897056.547
        43.0004         39.0004
 -19065987.04549 -14808583.97448  21371388.5734   21371388.5804   21371388.326
        54.0004         49.0004
                                                                  24924980.399

 -21435964.14149 -16661580.31048  20919434.4394   20919435.5814   20919434.987
        56.0004         51.0004
   -496999.55947   -352644.04846  23800948.9484   23800955.0434   23800948.259
        46.0004         41.0004
  -9494332.91747  -7357817.59447  23419500.3294   23419505.7994   23419499.726
        47.0004         42.0004
 -14422670.14548 -11198989.38448  22314340.6784   22314347.0644   22314340.437
        53.0004         48.0004
 17  9  1  0 24 30.0000000  0 10G31G03G16G06G23G07G22G01G09G26
  -9510871.19548  -7400214.31947  23502438.5734   23502441.0484   23502438.201
        48.0004         43.0004
 -25972514.88449 -20197035.97348  20538446.3064   20538451.1594   20538445.611
        57.0004         52.0004
 -11886453.80648  -9256684.98747  22588014.2744   22588016.3464   22588014.173
        51.0004         46.0004
   -397298.88247   -286296.83346  24888541.0304   24888548.7894   24888539.471
        43.0004         38.0004
 -19106800.51849 -14840386.67348  21363621.7534   21363622.3794   21363622.001
        54.0004         49.0004
                                                                  24904786.548

 -21382488.78549 -16619911.22348  20929610.3364   20929611.6404   20929610.860
        56.0004         51.0004
   -403051.32447   -279437.66046  23818827.3594   23818832.8914   23818826.156
        46.0004         41.0004
  -9564989.48547  -7412874.63947  23406054.5764   23406059.9534   23406053.279
        47.0004         43.0004
 -14432030.01748 -11206282.78448  22312559.7454   22312565.4934   22312559.287
        53.0004         48.0004
 17  9  1  0 25  0.0000000  0 10G31G03G16G06G23G07G22G01G09G26
  -9419524.75948  -7329035.31847  23519822.1564   23519823.7974   23519821.639
        48.0004         43.0004
 -25977752.13049 -20201116.94648  20537449.5784   20537454.2274   20537448.941
        57.0004         52.0004
 -11951030.38648  -9307004.37547  22575725.4304   22575728.3414   22575725.448
        51.0004         46.0004
   -441557.30947   -320783.88646  24880118.6674   24880124.8254   24880117.723
        43.0004         38.0004
 -19147408.83649 -14872029.51548  21355894.3894   21355894.8794   21355894.188
        54.0004         49.0004
                                                                  24884619.707

 -21328529.78649 -16577865.26448  20939878.3944   20939879.7464   20939878.896
        56.0004         51.0004
   -309005.38547   -206155.15246  23836722.2224   23836729.5434   23836722.222
        45.0004         41.0004
  -9635594.70147  -7467891.67647  23392618.5064   23392623.3714   23392618.284
        47.0004         43.0004
 -14440819.44348 -11213131.67848  22310886.8984   22310893.5974   22310886.633
        53.0004         48.0004
 17  9  1  0 25 30.0000000  0 10G31G03G16G06G23G07G22G01G09G26
  -9328061.92648  -7257765.59847  23537227.7034   23537228.9394   23537226.075
        48.0004         43.0004
 -25982451.98549 -20204779.17648  20536555.4694   20536560.0784   20536554.648
        57.0004         52.0004
 -12015221.90648  -9357023.71847  22563509.7204   22563512.7574   22563509.982
        51.0004         47.0004
   -485321.60647   -354885.95046  24871789.2654   24871795.6024   24871790.365
        43.0004         38.0004
 -19187811.50449 -14903512.11248  21348205.9894   21348206.2454   21348206.069
        54.0004         49.0004
   -486306.43948   -115850.10746  24864483.2284   24864488.6274   24864482.945
        52.0004         37.0004
 -21274088.30749 -16535443.35148  20950238.2944   20950239.7474   20950238.918
        56.0004         51.0004
   -214865.17747   -132799.21346  23854637.1714   23854644.2234   23854636.488
        45.0004         41.0004
  -9706148.54847  -7522868.68047  23379192.7854   23379198.2054   23379192.879
        47.0004         43.0004
 -14449037.94148 -11219535.70148  22309323.0544   22309328.7864   22309322.857
        53.0004         48.0004
 17  9  1  0 26  0.0000000  0 10G31G03G16G06G23G07G22G01G09G26
  -9236484.75348  -7186406.79447  23554654.0804   23554655.0674   23554652.023
        48.0004         43.0004
 -25986613.32949 -20208021.78348  20535763.4344   20535768.1504   20535762.684
        57.0004         52.0004
 -12079025.61548  -9406740.87547  22551368.6174   22551371.4134   22551368.968
        51.0004         47.0004
   -528590.52447   -388601.96946  24863557.0844   24863564.1174   24863556.877
        43.0004         39.0004
 -19228008.04349 -14934834.08248  21340556.5654   21340557.5154   21340556.792
        54.0004         49.0004
   -591982.46447   -198195.00946  24844373.5544   24844377.8834   24844371.846
        46.0004         37.0004
 -21219165.49149 -16492646.36648  20960689.7444   20960691.2114   20960690.427
        56.0004         51.0004
   -120633.67247    -59372.13346  23872569.5164   23872575.6624   23872568.666
        46.0004         41.0004
  -9776650.59048  -7577805.31947  23365776.9654   23365781.8424   23365776.666
        48.0004         43.0004
 -14456684.63348 -11225494.15248  22307868.3044   22307873.8824   22307867.569
        53.0004         48.0004
 17  9  1  0 26 30.0000000  0 10G31G03G16G06G23G07G22G01G09G26
  -9144794.86248  -7114960.14347  23572101.6704   23572104.4324   23572101.464
        48.0004         43.0004
 -25990235.25949 -20210844.07048  20535074.1444   20535078.9654   20535073.467
        57.0004         52.0004
 -12142438.90948  -9456153.81947  22539300.6344   22539303.9894   22539301.076
        51.0004         46.0004
   -571362.88047   -421931.06746  24855419.0824   24855424.6774   24855416.607
        43.0004         38.0004
 -19267998.18349 -14965995.22548  21332946.8184   21332947.4014   21332946.871
        54.0004         49.0004
   -697507.53647   -280422.27746  24824294.3424   24824297.1984   24824292.885
        43.0004         37.0004
 -21163762.72649 -16449475.40148  20971232.6404   20971233.9684   20971233.218
        56.0004         51.0004
    -26314.10647     14123.59646  23890517.0194   23890524.0834   23890516.174
        45.0004         41.0004
  -9847100.62648  -7632701.43747  23352370.3254   23352375.2084   23352370.066
        48.0004         43.0004
 -14463758.91848 -11231006.56748  22306521.8424   22306527.7864   22306521.417
        53.0004         48.0004
 17  9  1  0 27  0.0000000  0 10G31G03G16G06G23G07G22G01G09G26
  -9052994.51247  -7043427.43847  23589570.4924   23589573.1014   23589569.613
        47.0004         43.0004
 -25993316.96149 -20213245.40348  20534487.7034   20534492.5394   20534486.997
        57.0004         52.0004
 -12205459.48848  -9505260.74747  22527308.9574   22527311.4694   22527309.111
        51.0004         46.0004
   -613637.61247   -454872.40546  24847373.0364   24847379.4904   24847372.271
        43.0004         38.0004
 -19307781.33749 -14996995.08448  21325376.6314   21325376.9294   21325376.643
        54.0004         49.0004
   -802880.27347   -362530.83546  24804240.3024   24804243.7124   24804242.421
        42.0004         37.0004
 -21107881.04649 -16405931.25248  20981866.5134   20981867.7764   20981867.074
        56.0004         51.0004
     68090.38047     87685.47546  23908482.3944   23908488.8644   23908481.565
        45.0004         41.0004
  -9917498.31348  -7687556.76147  23338973.9744   23338978.8334   23338974.408
        48.0004         43.0004
 -14470260.17148 -11236072.47048  22305284.4554   22305290.7564   22305284.243
        53.0004         48.0004
 17  9  1  0 27 30.0000000  0 10G31G03G16G06G23G07G22G01G09G26
  -8961085.35247  -6971809.94247  23607059.1944   23607062.8194   23607059.300
        47.0004         43.0004
 -25995857.48949 -20215225.04348  20534004.2614   20534009.0304   20534003.475
        57.0004         52.0004
 -12268084.52048  -9554059.45747  22515392.0024   22515394.8054   22515391.471
        51.0004         46.0004
   -655413.55447   -487425.08046  24839424.1834   24839430.6244   24839423.792
        43.0004         38.0004
 -19347356.88349 -15027833.17148  21317845.7334   21317845.8464   21317845.664
        54.0004         49.0004
   -908098.88346   -444519.27546  24784216.4384   24784224.4574   24784218.172
        41.0004         36.0004
 -21051521.65049 -16362014.86048  20992591.5274   20992592.8344   20992591.880
        56.0004         51.0004
    162576.57847    161311.02746  23926461.9144   23926469.0834   23926461.622
        46.0004         41.0004
  -9987843.44848  -7742371.12847  23325588.1364   23325593.7784   23325587.060
        48.0004         44.0004
 -14476187.76248 -11240691.36548  22304156.5744   22304162.5954   22304156.229
        53.0004         48.0004
 17  9  1  0 28  0.0000000  0 10G31G03G16G06G23G07G22G01G09G26
  -8869069.53747  -6900109.35647  23624570.5504   23624572.3584   23624568.903
        47.0004         43.0004
 -25997856.06949 -20216782.38448  20533624.1144   20533628.6994   20533623.238
        57.0004         52.0004
 -12330311.59848  -9602548.07547  22503550.5234   22503552.9934   22503550.424
        51.0004         47.0004
   -696689.69547   -519588.30046  24831568.5924   24831575.9234   24831568.661
        43.0004         38.0004
 -19386724.60049 -15058509.31248  21310354.2004   21310354.3864   21310354.033
        54.0004         49.0004
  -1013162.30546   -526386.85346  24764226.0994   24764229.3664   24764226.106
        41.0004         37.0004
 -20994685.81349 -16317727.21548  21003406.8804   21003408.1624   21003407.565
        56.0004         51.0004
    257141.29147    234997.73846  23944457.2384   23944463.9944   23944456.982
        46.0004         41.0004
 -10058135.74348  -7797144.33747  23312211.5004   23312216.9154   23312211.290
        48.0004         44.0004
 -14481541.18348 -11244862.86248  22303138.0854   22303144.1324   22303137.825
        53.0004         48.0004
 17  9  1  0 28 30.0000000  0 10G31G03G16G06G23G07G22G01G09G26
  -8776949.08347  -6828327.16647  23642099.3564   23642102.4454   23642099.080
        47.0004         43.0004
 -25999311.65849 -20217916.61148  20533347.1264   20533351.7604   20533346.265
        57.0004         52.0004
 -12392138.04748  -9650724.51347  22491785.2734   22491787.6974   22491784.953
        51.0004         46.0004
   -737464.70547   -551361.00846  24823809.8724   24823815.9194   24823810.566
        43.0004         38.0004
 -19425883.67949 -15089022.87548  21302902.4684   21302902.5874   21302902.451
        54.0004         49.0004
  -1118068.92147   -608132.18046  24744264.7154   24744269.0244   24744263.336
        42.0004         37.0004
 -20937374.69349 -16273069.21448  21014313.1374   21014314.4114   21014313.603
        56.0004         51.0004
    351781.56347    308743.35546  23962466.7114   23962473.3684   23962466.312
        45.0004         41.0004
 -10128374.71148  -7851875.97947  23298845.3424   23298850.6444   23298845.044
        48.0004         44.0004
 -14486319.68348 -11248586.35748  22302228.3894   22302234.6944   22302228.026
        53.0004         48.0004
 17  9  1  0 29  0.0000000  0 10G31G03G16G06G23G07G22G01G09G26
  -8684725.76647  -6756464.90247  23659650.2614   23659651.1974   23659649.587
        47.0004         43.0004
 -26000223.75149 -20218627.34048  20533173.6174   20533178.3084   20533172.777
        57.0004         52.0004
 -12453561.34648  -9698586.81447  22480096.5754   22480099.6354   22480096.434
        51.0004         47.0004
   -777737.95647   -582742.76146  24816146.6334   24816151.2654   24816146.426
        43.0004         38.0004
 -19464834.21849 -15119373.94348  21295490.3274   21295490.7294   21295490.225
        54.0004         49.0004
  -1222817.30447   -689754.25546  24724330.6124   24724331.7574   24724329.271
        42.0004         37.0004
 -20879589.59249 -16228041.87948  21025308.8114   21025310.3314   21025309.539
        56.0004         51.0004
    446494.01047    382545.19346  23980489.9144   23980496.9454   23980489.229
        45.0004         41.0004
 -10198560.36548  -7906566.09247  23285489.9174   23285495.1794   23285489.974
        48.0004         44.0004
 -14490523.02448 -11251861.68548  22301428.7224   22301434.7734   22301427.789
        53.0004         48.0004
 17  9  1  0 29 30.0000000  0 10G31G03G16G06G23G07G22G01G09G26
  -8592401.45747  -6684523.88747  23677217.5664   23677221.3424   23677218.579
        47.0004         42.0004
 -26000591.34049 -20218913.77748  20533103.4014   20533108.1984   20533102.989
        57.0004         52.0004
 -12514579.11148  -9746133.10447  22468485.2614   22468488.2514   22468485.372
        51.0004         47.0004
   -817508.13647   -613732.48546  24808579.1544   24808583.2134   24808577.753
        43.0004         38.0004
 -19503575.20449 -15149561.71948  21288117.9744   21288118.6254   21288118.072
        54.0004         49.0004
  -1327405.84347   -771251.81046  24704427.2784   24704431.9594   24704426.535
        42.0004         38.0004
 -20821331.70849 -16182646.14348  21036395.3304   21036396.4414   21036395.965
        56.0004         51.0004
    541275.60647    456400.92446  23998526.2394   23998533.4254   23998526.466
        45.0004         41.0004
 -10268692.16748  -7961214.23047  23272144.3244   23272149.1764   23272143.718
        48.0004         44.0004
 -14494150.46548 -11254688.25348  22300738.3694   22300744.4594   22300738.215
        53.0004         48.0004
 17  9  1  0 30  0.0000000  0 10G31G03G16G06G23G07G22G01G09G26
  -8499978.25047  -6612505.85347  23694806.0304   23694808.1594   23694806.321
        47.0004         42.0004
 -26000413.72649 -20218775.38548  20533137.3214   20533142.0924   20533136.729
        57.0004         52.0004
 -12575188.56148  -9793361.23547  22456951.4244   22456954.8744   22456951.769
        51.0004         47.0004
   -856774.30347   -644329.49946  24801107.0784   24801112.5084   24801105.748
        43.0004         38.0004
 -19542106.39349 -15179586.02048  21280785.7634   21280786.5144   21280785.951
        54.0004         49.0004
  -1431832.96447   -852623.49446  24684553.4734   24684560.1184   24684553.944
        42.0004         38.0004
 -20762602.61649 -16136883.23448  21047570.8704   21047572.5244   21047571.615
        56.0004         51.0004
    636123.15547    530308.05846  24016575.1944   24016581.9794   24016574.835
        46.0004         41.0004
 -10338769.91948  -8015820.26347  23258809.3654   23258814.2564   23258808.989
        49.0004         44.0004
 -14497201.63048 -11257065.77948  22300157.7844   22300163.6604   22300157.392
        53.0004         48.0004
 17  9  1  0 30 30.0000000  0 10G31G03G16G06G23G07G22G01G09G26
  -8407457.86347  -6540412.05447  23712412.0704   23712414.5924   23712412.145
        47.0004         42.0004
 -25999690.19949 -20218211.60648  20533275.1454   20533279.7634   20533274.188
        57.0004         52.0004
 -12635387.45548  -9840269.45047  22445496.0184   22445498.6454   22445496.439
        51.0004         47.0004
   -895535.50947   -674533.02446  24793730.2914   24793735.7604   24793728.382
        43.0004         38.0004
 -19580427.34249 -15209446.49648  21273493.5744   21273494.0494   21273493.745
        54.0004         49.0004
  -1536097.23347   -933868.33646  24664715.0844   24664717.4484   24664715.171
        43.0004         38.0004
 -20703403.21149 -16090753.84648  21058836.2594   21058837.5594   21058836.836
        56.0004         51.0004
    731033.50847    604264.11246  24034635.8104   24034643.6594   24034635.128
        46.0004         41.0004
 -10408793.31848  -8070383.92947  23245484.5694   23245489.2104   23245483.601
        49.0004         44.0004
 -14499676.06848 -11258993.91148  22299686.9314   22299693.1114   22299686.614
        53.0004         48.0004
 17  9  1  0 31  0.0000000  0 10G31G03G16G06G23G07G22G01G09G26
  -8314842.37247  -6468244.17847  23730035.2364   23730037.8894   23730035.914
        47.0004         42.0004
 -25998419.89549 -20217221.76548  20533516.7784   20533521.3164   20533515.972
        57.0004         52.0004
 -12695173.20948  -9886855.73447  22434119.0644   22434122.2584   22434119.498
        52.0004         47.0004
   -933790.71547   -704342.25746  24786450.8814   24786458.1684   24786449.812
        43.0004         38.0004
 -19618537.52449 -15239142.73648  21266241.4974   21266242.2344   21266241.796
        54.0004         49.0004
  -1640197.35247  -1014985.22746  24644904.9184   24644907.7424   24644904.026
        43.0004         38.0004
 -20643734.98449 -16044259.13948  21070190.9204   21070191.9634   21070191.510
        56.0004         51.0004
    826003.68647    678266.77046  24052708.7864   24052715.6744   24052707.875
        46.0004         41.0004
 -10478761.92648  -8124904.90447  23232169.5364   23232174.2404   23232169.151
        49.0004         44.0004
 -14501573.22848 -11260472.21348  22299325.4884   22299332.1374   22299325.474
        53.0004         48.0004
 17  9  1  0 31 30.0000000  0 10G31G03G16G06G23G07G22G01G09G26
  -8222133.37547  -6396003.43747  23747678.2314   23747681.0474   23747677.962
        47.0004         42.0004
 -25996602.18149 -20215805.37148  20533862.6774   20533867.3024   20533861.953
        57.0004         52.0004
 -12754543.32448  -9933118.14147  22422821.2684   22422824.4244   22422821.543
        52.0004         47.0004
   -971538.99247   -733756.49146  24779267.0324   24779272.7214   24779266.374
        43.0004         39.0004
 -19656436.49249 -15268674.39448  21259029.3324   21259030.0414   21259029.673
        54.0004         49.0004
  -1744131.66747  -1095972.93746  24625127.2434   24625130.8234   24625126.344
        43.0004         39.0004
 -20583599.16349 -15997400.07748  21081634.1434   21081635.5194   21081634.875
        56.0004         51.0004
    921030.41947    752313.52546  24070790.9064   24070797.9874   24070790.596
        46.0004         41.0004
 -10548675.40748  -8179382.93347  23218864.9454   23218870.1134   23218865.622
        49.0004         44.0004
 -14502892.80548 -11261500.45248  22299075.1364   22299080.6774   22299074.671
        53.0004         48.0004
 17  9  1  0 32  0.0000000  0 10G31G03G16G06G23G07G22G01G09G26
  -8129333.15047  -6323691.60746  23765336.8454   23765339.3784   23765336.340
        47.0004         41.0004
 -25994236.47749 -20213961.98648  20534313.3564   20534317.5744   20534312.486
        57.0004         52.0004
 -12813495.55648  -9979054.94747  22411603.5584   22411605.8304   22411603.972
        52.0004         47.0004
  -1008779.58347   -762775.12846  24772180.4434   24772184.9974   24772178.940
        43.0004         38.0004
 -19694123.67449 -15298041.04148  21251858.2214   21251858.2974   21251858.231
        54.0004         50.0004
  -1847898.79647  -1176830.39846  24605381.0064   24605385.0434   24605379.869
        43.0004         39.0004
 -20522997.40849 -15950177.96648  21093167.0094   21093167.4654   21093167.371
        56.0004         51.0004
   1016110.48347    826401.82046  24088884.7904   24088890.9094   24088884.340
        46.0004         41.0004
 -10618533.66348  -8233817.94047  23205572.1424   23205576.0834   23205572.075
        49.0004         44.0004
 -14503634.53548 -11262078.43448  22298934.2354   22298939.7334   22298933.981
        53.0004         48.0004
 17  9  1  0 32 30.0000000  0 10G31G03G16G06G23G07G22G01G09G26
  -8036443.21247  -6251309.87047  23783014.5354   23783016.3754   23783014.782
        47.0004         42.0004
 -25991321.86249 -20211690.84948  20534867.5214   20534872.1634   20534866.836
        57.0004         52.0004
 -12872027.19048 -10024663.98347  22400464.9924   22400468.3464   22400465.163
        52.0004         47.0004
  -1045511.37447   -791397.26646  24765189.5524   24765196.0274   24765188.380
        43.0004         38.0004
 -19731598.49549 -15327242.18148  21244726.7944   21244727.1824   21244726.668
        54.0004         50.0004
  -1951497.46647  -1257556.55146  24585667.1794   24585670.1824   24585667.008
        44.0004         39.0004
 -20461930.93249 -15902593.70348  21104786.9564   21104788.1074   21104787.716
        56.0004         51.0004
   1111241.07347    900529.47647  24106987.5824   24106994.2384   24106986.580
        46.0004         42.0004
 -10688336.03348  -8288209.37447  23192288.9874   23192293.4154   23192289.349
        49.0004         44.0004
 -14503797.75748 -11262205.60148  22298902.9354   22298908.6624   22298902.415
        53.0004         48.0004
 17  9  1  0 33  0.0000000  0 10G31G03G16G06G23G07G22G01G09G26
  -7943465.70847  -6178859.90147  23800707.0524   23800710.2584   23800707.085
        46.0004         42.0004
 -25987857.93849 -20208991.69248  20535526.8344   20535531.3474   20535526.196
        57.0004         52.0004
 -12930135.99648 -10069943.55447  22389407.4234   22389410.1404   22389407.486
        52.0004         47.0004
  -1081733.52747   -819622.33146  24758296.8544   24758302.6354   24758298.307
        43.0004         38.0004
 -19768860.61049 -15356277.59248  21237636.1184   21237636.5334   21237635.972
        54.0004         50.0004
  -2054926.18147  -1338150.28946  24565984.2794   24565986.0194   24565984.128
        43.0004         39.0004
 -20400401.28549 -15854648.54248  21116495.9114   21116496.7684   21116496.447
        55.0004         51.0004
   1206418.76247    974693.84947  24125099.1504   24125105.8714   24125098.311
        47.0004         42.0004
 -10758082.40748  -8342557.17347  23179016.7274   23179021.9534   23179016.231
        49.0004         44.0004
 -14503382.41548 -11261881.95048  22298981.9114   22298987.6754   22298981.358
        53.0004         48.0004
 17  9  1  0 33 30.0000000  0 10G31G03G16G06G23G07G22G01G09G26
  -7850402.38947  -6106343.05046  23818416.1974   23818419.0184   23818417.576
        46.0004         41.0004
 -25983843.94549 -20205863.91748  20536290.9154   20536295.0844   20536289.955
        57.0004         52.0004
 -12987819.39248 -10114891.65147  22378430.4084   22378433.6564   22378430.789
        52.0004         47.0004
  -1117445.26347   -847449.65346  24751500.3394   24751506.6104   24751499.136
        43.0004         39.0004
 -19805909.16949 -15385146.60448  21230586.3194   21230586.0754   21230586.175
        54.0004         50.0004
  -2158183.25247  -1418610.25246  24546336.5544   24546339.5804   24546334.825
        44.0004         39.0004
 -20338409.61249 -15806343.36248  21128292.5254   21128293.3604   21128293.162
        55.0004         51.0004
   1301640.65447   1048892.65147  24143219.1354   24143226.4474   24143218.529
        47.0004         42.0004
 -10827772.33448  -8396860.99547  23165754.5014   23165759.8804   23165754.170
        49.0004         44.0004
 -14502388.07848 -11261107.14248  22299171.0004   22299177.0884   22299170.392
        53.0004         48.0004
 17  9  1  0 34  0.0000000  0 10G31G03G16G06G23G07G22G01G09G26
  -7757254.92447  -6033760.65247  23836142.0224   23836144.0274   23836141.277
        46.0004         42.0004
 -25979279.32549 -20202307.08048  20537159.3944   20537163.9334   20537158.601
        57.0004         52.0004
 -13045074.95748 -10159506.36547  22367534.9694   22367538.0124   22367535.419
        52.0004         47.0004
  -1152645.68547   -874878.53446  24744802.2174   24744809.8974   24744803.115
        43.0004         38.0004
 -19842743.93149 -15413849.01348  21223576.6334   21223576.6344   21223576.728
        54.0004         50.0004
  -2261267.24047  -1498935.40646  24526720.2354   24526725.5564   24526719.342
        44.0004         40.0004
 -20275957.36349 -15757679.29648  21140176.8294   21140177.7814   21140177.548
        55.0004         51.0004
   1396903.51847   1123123.39047  24161347.9884   24161354.4784   24161347.048
        47.0004         42.0004
 -10897405.46648  -8451120.57047  23152504.3474   23152508.9634   23152504.314
        49.0004         44.0004
 -14500814.52248 -11259880.99248  22299470.1254   22299476.2344   22299469.802
        52.0004         48.0004
 17  9  1  0 34 30.0000000  0 10G31G03G16G06G23G07G22G01G09G26
  -7664025.41647  -5961114.32647  23853882.5994   23853884.7184   23853882.705
        46.0004         42.0004
 -25974163.47149 -20198320.70948  20538133.0084   20538137.2524   20538132.126
        57.0004         52.0004
 -13101900.60948 -10203786.08047  22356721.4254   22356724.3334   22356721.680
        52.0004         47.0004
  -1187333.96947   -901908.35846  24738201.6064   24738209.1554   24738200.989
        43.0004         38.0004
 -19879364.53649 -15442384.54948  21216608.0014   21216608.0294   21216607.806
        54.0004         50.0004
  -2364176.76847  -1579124.61546  24507136.4754   24507137.8184   24507136.914
        44.0004         40.0004
 -20213045.90949 -15708657.40248  21152148.4484   21152149.3924   21152149.097
        55.0004         51.0004
   1492204.33347   1197383.72047  24179482.7284   24179488.4444   24179483.009
        47.0004         42.0004
 -10966981.44448  -8505335.61147  23139263.8294   23139268.8124   23139263.929
        49.0004         45.0004
 -14498661.46148 -11258203.27948  22299879.9624   22299885.9834   22299879.712
        52.0004         48.0004
 17  9  1  0 35  0.0000000  0 10G31G03G16G06G23G07G22G01G09G26
  -7570715.69547  -5888405.46346  23871639.5554   23871641.9294   23871639.087
        46.0004         41.0004
 -25968495.77949 -20193904.33248  20539211.2954   20539216.0224   20539210.588
        57.0004         52.0004
 -13158293.84148 -10247728.84348  22345990.0684   22345993.1674   22345990.549
        52.0004         48.0004
  -1221509.29747   -928538.45946  24731698.0054   24731705.6524   24731697.021
        43.0004         39.0004
 -19915770.30349 -15470752.67248  21209680.0304   21209680.3014   21209679.859
        54.0004         50.0004
  -2466910.52747  -1659176.77046  24487586.5764   24487589.8214   24487586.205
        44.0004         40.0004
 -20149676.74949 -15659278.84948  21164207.0284   21164208.3674   21164207.756
        55.0004         51.0004
   1587540.05147   1271671.24147  24197623.6674   24197630.9784   24197623.184
        47.0004         42.0004
 -11036499.80248  -8559505.73547  23126035.1744   23126040.0464   23126034.764
        49.0004         45.0004
 -14495928.61448 -11256073.77448  22300399.7104   22300406.0564   22300399.415
        52.0004         48.0004
 17  9  1  0 35 30.0000000  0 10G31G03G16G06G23G07G22G01G09G26
  -7477327.27247  -5815635.31847  23889411.9434   23889412.3274   23889410.361
        46.0004         42.0004
 -25962275.76949 -20189057.57848  20540394.9054   20540399.5864   20540394.104
        57.0004         52.0004
 -13214252.26348 -10291332.78448  22335341.5284   22335345.0584   22335341.757
        52.0004         48.0004
  -1255170.96747   -954768.32846  24725293.5894   24725299.0554   24725292.623
        43.0004         39.0004
 -19951960.71549 -15498952.99148  21202793.2064   21202793.6074   21202793.334
        54.0004         50.0004
  -2569467.15047  -1739090.97046  24468071.3124   24468072.7854   24468070.216
        44.0004         40.0004
 -20085851.58749 -15609544.97648  21176352.2724   21176353.6704   21176353.159
        55.0004         50.0004
   1682907.53547   1345983.47247  24215771.6664   24215779.3704   24215772.107
        46.0004         42.0004
 -11105960.31348  -8613630.79747  23112817.3394   23112822.7614   23112816.980
        49.0004         45.0004
 -14492615.87948 -11253492.41448  22301029.9764   22301036.4734   22301029.937
        52.0004         48.0004
 17  9  1  0 36  0.0000000  0 10G31G03G16G06G23G07G22G01G09G26
  -7383861.96047  -5742805.21447  23907196.7014   23907199.1054   23907196.152
        46.0004         42.0004
 -25955502.95049 -20183780.06648  20541683.6734   20541688.5094   20541682.816
        57.0004         52.0004
 -13269773.64748 -10334596.19148  22324776.2184   22324779.2924   22324776.649
        52.0004         48.0004
  -1288318.21947   -980597.34846  24718986.2144   24718992.6414   24718984.972
        43.0004         39.0004
 -19987935.28949 -15526985.12548  21195947.4684   21195948.0774   21195947.390
        54.0004         50.0004
  -2671845.16547  -1818866.00946  24448587.7564   24448591.3194   24448587.714
        44.0004         39.0004
 -20021571.89949 -15559456.92348  21188584.5574   21188586.0094   21188585.266
        55.0004         51.0004
   1778303.66947   1420318.06847  24233925.1114   24233933.0714   24233924.798
        47.0004         42.0004
 -11175362.57648  -8667710.46647  23099610.1044   23099615.5094   23099609.989
        49.0004         45.0004
 -14488723.10848 -11250459.08448  22301770.9194   22301777.1654   22301770.635
        52.0004         48.0004
 17  9  1  0 36 30.0000000  0 10G31G03G16G06G23G07G22G01G09G26
  -7290321.88647  -5669916.88546  23924995.4884   23924998.7624   23924995.788
        46.0004         41.0004
 -25948176.73449 -20178071.33248  20543078.0444   20543082.6494   20543077.079
        57.0004         52.0004
 -13324855.50948 -10377517.10348  22314294.9694   22314297.8454   22314294.383
        52.0004         48.0004
  -1320950.28347  -1006024.90746  24712776.6184   24712781.1284   24712775.968
        43.0004         39.0004
 -20023693.33449 -15554848.53548  21189143.1944   21189143.2194   21189142.735
        54.0004         49.0004
  -2774042.91047  -1898500.53546  24429139.7254   24429145.1524   24429139.170
        44.0004         39.0004
 -19956838.86849 -15509015.62348  21200903.1594   21200904.1684   21200903.361
        55.0004         50.0004
   1873725.44847   1494672.66547  24252083.9694   24252090.2564   24252083.974
        47.0004         42.0004
 -11244706.08548  -8721744.36047  23086414.9804   23086418.9034   23086414.719
        49.0004         45.0004
 -14484250.03948 -11246973.57648  22302622.5854   22302628.3044   22302622.248
        52.0004         48.0004
 17  9  1  0 37  0.0000000  0 10G31G03G16G06G23G07G22G01G09G26
  -7196708.79947  -5596971.66247  23942810.2394   23942813.0674   23942810.757
        46.0004         42.0004
 -25940296.66849 -20171931.02648  20544577.2164   20544582.0234   20544576.598
        57.0004         52.0004
 -13379495.43548 -10420093.65647  22303896.9454   22303899.6914   22303896.697
        52.0004         47.0004
  -1353066.38647  -1031050.44346  24706664.3304   24706668.9514   24706663.915
        44.0004         39.0004
 -20059234.29749 -15582542.78848  21182379.4334   21182379.7974   21182379.612
        54.0004         50.0004
  -2876059.32747  -1977993.85646  24409729.3514   24409731.3094   24409728.042
        45.0004         40.0004
 -19891654.08349 -15458222.29948  21213307.1574   21213308.5594   21213307.685
        55.0004         50.0004
   1969169.85247   1569044.86647  24270246.6314   24270253.3194   24270246.426
        47.0004         42.0004
 -11313990.48648  -8775732.19447  23073230.7234   23073234.9654   23073230.033
        50.0004         45.0004
 -14479196.54748 -11243035.78348  22303583.8124   22303590.1784   22303583.387
        52.0004         48.0004
 17  9  1  0 37 30.0000000  0 10G31G03G16G06G23G07G22G01G09G26
  -7103024.52147  -5523970.97247  23960638.4514   23960640.2294   23960637.635
        46.0004         42.0004
 -25931862.43449 -20165358.90648  20546182.3224   20546186.9004   20546181.590
        57.0004         52.0004
 -13433691.39048 -10462324.25747  22293583.2484   22293586.6844   22293583.895
        52.0004         47.0004
  -1384666.09947  -1055673.58246  24700652.5104   24700658.0434   24700650.323
        44.0004         39.0004
 -20094557.72449 -15610067.53948  21175657.9034   21175658.3044   21175657.784
        54.0004         50.0004
  -2977892.95447  -2057344.66746  24390349.3954   24390352.1834   24390349.809
        45.0004         40.0004
 -19826019.30749 -15407078.33948  21225796.9974   21225798.4174   21225797.645
        55.0004         50.0004
   2064633.61847   1643432.13746  24288411.9184   24288419.2484   24288411.894
        46.0004         41.0004
 -11383215.52648  -8829673.76547  23060057.2284   23060062.1824   23060056.753
        50.0004         45.0004
 -14473562.72348 -11238645.78448  22304655.9084   22304661.8084   22304655.895
        52.0004         48.0004
 17  9  1  0 38  0.0000000  0 10G31G03G16G06G23G07G22G01G09G26
  -7009270.73247  -5450916.11147  23978478.9104   23978480.0604   23978477.932
        46.0004         42.0004
 -25922873.45349 -20158354.51348  20547892.9794   20547897.5884   20547892.230
        57.0004         52.0004
 -13487441.01448 -10504207.07348  22283355.3254   22283358.2134   22283356.054
        52.0004         48.0004
  -1415748.54747  -1079893.66946  24694736.9184   24694743.1744   24694736.488
        44.0004         39.0004
 -20129663.05849 -15637422.34248  21168977.5714   21168978.1204   21168977.558
        54.0004         50.0004
  -3079542.47447  -2136552.01746  24371007.1864   24371009.3984   24371006.330
        45.0004         40.0004
 -19759935.94249 -15355584.82448  21238372.2144   21238373.6414   21238372.844
        55.0004         50.0004
   2160113.87447   1717832.26546  24306581.7084   24306587.3864   24306581.523
        46.0004         41.0004
 -11452380.61748  -8883568.63447  23046895.6154   23046900.3624   23046895.667
        50.0004         45.0004
 -14467348.30448 -11233803.37348  22305838.7694   22305844.5154   22305837.976
        52.0004         48.0004
 17  9  1  0 38 30.0000000  0 10G31G03G16G06G23G07G22G01G09G26
  -6915449.18847  -5377808.43347  23996332.8524   23996334.5564   23996333.025
        46.0004         42.0004
 -25913329.36849 -20150917.57248  20549709.1204   20549713.7734   20549708.144
        57.0004         52.0004
 -13540741.98448 -10545740.28547  22273212.7564   22273215.9764   22273212.732
        52.0004         47.0004
  -1446313.11247  -1103710.20146  24688920.1894   24688926.0664   24688919.983
        44.0004         39.0004
 -20164549.98849 -15664606.96248  21162338.6664   21162339.3194   21162338.778
        54.0004         50.0004
  -3181006.36547  -2215614.79246  24351697.9294   24351702.5534   24351697.487
        44.0004         40.0004
 -19693405.42849 -15303742.88648  21251032.6334   21251033.9454   21251033.249
        55.0004         50.0004
   2255607.52547   1792242.85947  24324753.6404   24324761.2394   24324753.205
        46.0004         42.0004
 -11521485.38648  -8937416.49047  23033745.0474   23033750.2134   23033745.672
        50.0004         45.0004
 -14460553.25548 -11228508.52448  22307131.6224   22307138.3134   22307131.406
        52.0004         48.0004
 17  9  1  0 39  0.0000000  0 10G31G03G16G06G23G07G22G01G09G26
  -6821561.70047  -5304649.39347  24014197.2034   24014201.0364   24014197.647
        46.0004         42.0004
 -25903229.75849 -20143047.75448  20551631.0964   20551635.5474   20551630.272
        57.0004         52.0004
 -13593592.12848 -10586922.19548  22263155.3714   22263158.4034   22263155.311
        52.0004         48.0004
  -1476359.20447  -1127122.74546  24683202.3624   24683209.2174   24683201.751
        44.0004         39.0004
 -20199217.77749 -15691620.82148  21155741.9114   21155742.3624   21155741.713
        54.0004         50.0004
  -3282283.21947  -2294531.75146  24332424.7744   24332429.9864   24332424.793
        44.0004         40.0004
 -19626429.60049 -15251553.94748  21263777.8624   21263779.2524   21263778.393
        55.0004         51.0004
   2351111.52147   1866661.48847  24342927.3094   24342935.2274   24342926.588
        46.0004         42.0004
 -11590529.43448  -8991217.03347  23020606.5834   23020611.4304   23020605.983
        50.0004         45.0004
 -14453177.63548 -11222761.28148  22308535.3444   22308541.4954   22308534.894
        52.0004         48.0004
 17  9  1  0 39 30.0000000  0 10G31G03G16G06G23G07G22G01G09G26
  -6727609.96947  -5231440.31847  24032077.2574   24032080.3714   24032076.600
        46.0004         42.0004
 -25892574.33249 -20134744.83248  20553658.7854   20553663.4684   20553657.966
        57.0004         52.0004
 -13645989.35948 -10627751.19948  22253184.7044   22253187.9964   22253185.195
        52.0004         48.0004
  -1505886.25447  -1150130.81846  24677582.3584   24677590.0094   24677582.349
        44.0004         39.0004
 -20233665.85349 -15718463.47948  21149186.3184   21149186.8984   21149186.516
        54.0004         50.0004
  -3383371.75847  -2373301.97446  24313189.1784   24313192.5514   24313188.186
        45.0004         40.0004
 -19559009.97549 -15199019.19548  21276607.1264   21276608.6934   21276607.867
        55.0004         51.0004
   2446622.84747   1941085.84547  24361103.3974   24361109.7134   24361101.879
        46.0004         42.0004
 -11659512.37648  -9044969.97047  23007479.7714   23007485.3124   23007479.339
        50.0004         45.0004
 -14445221.44448 -11216561.65248  22310049.0004   22310055.4324   22310048.428
        52.0004         48.0004
 17  9  1  0 40  0.0000000  0 10G31G03G16G06G23G07G22G01G09G26
  -6633595.83847  -5158182.56146  24049969.0074   24049968.9614   24049967.568
        46.0004         41.0004
 -25881362.68149 -20126008.49348  20555792.4324   20555797.0694   20555791.456
        57.0004         52.0004
 -13697931.04148 -10668225.21647  22243300.5614   22243303.5234   22243300.698
        52.0004         47.0004
  -1534893.66447  -1172733.98446  24672064.8724   24672069.2204   24672063.149
        44.0004         39.0004
 -20267893.66749 -15745134.50448  21142673.2384   21142673.9774   21142673.342
        54.0004         50.0004
  -3484270.69747  -2451924.45546  24293989.1504   24293992.8964   24293987.982
        45.0004         40.0004
 -19491148.12649 -15146139.85548  21289520.9614   21289522.5084   21289521.617
        55.0004         51.0004
   2542138.46747   2015513.53546  24379278.9874   24379285.2764   24379277.982
        46.0004         41.0004
 -11728433.69648  -9098674.88547  22994364.8514   22994370.0154   22994364.326
        50.0004         45.0004
 -14436684.67548 -11209909.62548  22311673.5884   22311680.1164   22311673.091
        52.0004         48.0004
 17  9  1  0 40 30.0000000  0 10G31G03G16G06G23G07G22G01G09G26
  -6539520.72047  -5084877.31846  24067868.5074   24067871.7314   24067868.599
        46.0004         41.0004
 -25869594.43449 -20116838.43948  20558031.5324   20558036.3144   20558030.923
        57.0004         52.0004
 -13749415.01348 -10708342.58148  22233503.5394   22233506.1254   22233503.667
        52.0004         48.0004
  -1563380.79547  -1194931.74646  24666644.7014   24666649.2124   24666643.246
        44.0004         39.0004
 -20301900.61249 -15771633.41948  21136201.6274   21136202.4554   21136201.911
        54.0004         50.0004
  -3584978.59347  -2530398.10246  24274823.6974   24274828.9324   24274823.941
        44.0004         40.0004
 -19422845.26049 -15092916.85948  21302518.3274   21302520.0684   21302519.179
        55.0004         51.0004
   2637655.44847   2089942.28946  24397454.4984   24397461.0784   24397454.634
        45.0004         41.0004
 -11797292.91848  -9152331.41047  22981260.7954   22981266.0814   22981260.414
        50.0004         45.0004
 -14427567.29448 -11202805.16948  22313408.5514   22313414.6734   22313408.343
        52.0004         48.0004
 17  9  1  0 41  0.0000000  0 10G31G03G16G06G23G07G22G01G09G26
  -6445386.54247  -5011526.03347  24085783.3304   24085785.5994   24085782.547
        46.0004         42.0004
 -25857269.37449 -20107234.50748  20560376.9444   20560381.7024   20560376.265
        57.0004         52.0004
 -13800439.42148 -10748101.83548  22223793.5864   22223797.0744   22223793.959
        52.0004         48.0004
  -1591347.18947  -1216723.73446  24661321.3184   24661326.6124   24661320.832
        44.0004         39.0004
 -20335686.18649 -15797959.83748  21129772.6854   21129772.9544   21129772.867
        54.0004         50.0004
  -3685494.23047  -2608721.91346  24255696.4834   24255700.0184   24255696.800
        45.0004         40.0004
 -19354103.69149 -15039352.02148  21315599.5724   21315601.2964   21315600.511
        55.0004         51.0004
   2733170.68747   2164369.68046  24415631.6344   24415638.9354   24415630.295
        45.0004         41.0004
 -11866089.66948  -9205939.25147  22968169.7274   22968174.2914   22968169.104
        49.0004         45.0004
 -14417869.48848 -11195248.43448  22315254.1424   22315259.8634   22315253.612
        52.0004         48.0004
 17  9  1  0 41 30.0000000  0 10G31G03G16G06G23G07G22G01G09G26
  -6351195.41647  -4938130.40846  24103706.0164   24103706.9544   24103707.250
        46.0004         41.0004
 -25844387.22749 -20097196.48148  20562828.2754   20562833.2144   20562827.667
        57.0004         52.0004
 -13851002.11248 -10787501.31648  22214171.6544   22214175.0294   22214171.991
        52.0004         48.0004
  -1618792.40147  -1238109.61346  24656098.0774   24656104.2934   24656097.264
        44.0004         39.0004
 -20369249.55049 -15824113.10848  21123385.8984   21123386.2324   21123385.633
        54.0004         50.0004
  -3785815.93447  -2686894.62746  24236606.9274   24236609.4364   24236606.049
        45.0004         40.0004
 -19284924.77849 -14985446.39548  21328764.0894   21328765.5564   21328764.445
        55.0004         50.0004
   2828681.16947   2238793.35546  24433807.4164   24433814.1344   24433806.368
        45.0004         41.0004
 -11934823.51448  -9259498.08047  22955089.4224   22955094.7534   22955089.167
        49.0004         45.0004
 -14407591.37348 -11187239.50948  22317210.0684   22317215.9594   22317210.170
        52.0004         48.0004
 17  9  1  0 42  0.0000000  0 10G31G03G16G06G23G07G22G01G09G26
  -6256948.63347  -4864691.39146  24121640.3024   24121644.3864   24121641.054
        46.0004         41.0004
 -25830947.72949 -20086724.15448  20565385.7704   20565390.5924   20565384.945
        57.0004         52.0004
 -13901100.76348 -10826539.21048  22204638.4244   22204641.6224   22204638.327
        52.0004         48.0004
  -1645715.92447  -1259088.96046  24650975.8114   24650980.6764   24650974.801
        43.0004         39.0004
 -20402590.56849 -15850093.11648  21117041.1034   21117041.6674   21117041.261
        54.0004         50.0004
  -3885942.47147  -2764915.25846  24217552.9544   24217556.8054   24217553.406
        45.0004         40.0004
 -19215310.10149 -14931201.21048  21342011.5284   21342012.7214   21342011.930
        55.0004         50.0004
   2924183.92047   2313211.01946  24451980.1154   24451987.6804   24451980.032
        46.0004         41.0004
 -12003493.96548  -9313007.50747  22942021.9304   22942026.4274   22942021.289
        49.0004         45.0004
 -14396733.07848 -11178778.49748  22319276.2904   22319282.3034   22319276.006
        52.0004         48.0004
 17  9  1  0 42 30.0000000  0 10G31G03G16G06G23G07G22G01G09G26
  -6162647.97547  -4791210.38446  24139586.1914   24139590.7304   24139584.940
        46.0004         41.0004
 -25816950.58449 -20075817.29848  20568049.5104   20568054.1394   20568048.688
        57.0004         52.0004
 -13950733.04848 -10865213.70548  22195193.8144   22195196.8024   22195193.656
        52.0004         48.0004
  -1672117.21747  -1279661.37946  24645951.6604   24645957.3294   24645949.458
        43.0004         38.0004
 -20435708.50549 -15875899.30248  21110738.9514   21110739.5754   21110738.758
        54.0004         50.0004
  -3985872.72547  -2842782.93646  24198537.9294   24198539.2874   24198536.871
        45.0004         40.0004
 -19145261.39349 -14876617.82348  21355341.1634   21355342.6274   21355341.585
        55.0004         50.0004
   3019675.98647   2387620.35946  24470151.1934   24470157.1334   24470150.946
        45.0004         40.0004
 -12072100.51948  -9366467.15247  22928966.4504   22928971.7764   22928966.465
        49.0004         45.0004
 -14385294.69248 -11169865.46948  22321453.1464   22321458.7314   22321452.801
        52.0004         48.0004
 17  9  1  0 43  0.0000000  0 10G31G03G16G06G23G07G22G01G09G26
  -6068295.14947  -4717688.76146  24157539.7514   24157541.6864   24157540.516
        46.0004         41.0004
 -25802395.70549 -20064475.84248  20570819.0324   20570823.8704   20570818.329
        57.0004         52.0004
 -13999897.15848 -10903523.38648  22185838.1994   22185841.2444   22185838.132
        52.0004         48.0004
  -1697995.93047  -1299826.61646  24641025.6424   24641031.5684   24641024.801
        43.0004         39.0004
 -20468602.57549 -15901531.04148  21104479.4154   21104480.1434   21104479.529
        54.0004         50.0004
  -4085605.30147  -2920496.58046  24179557.9934   24179560.5944   24179558.310
        45.0004         40.0004
 -19074780.50049 -14821697.66648  21368753.2134   21368754.5164   21368753.760
        55.0004         50.0004
   3115154.28847   2462018.97746  24488320.0554   24488326.8084   24488319.187
        45.0004         40.0004
 -12140642.77148  -9419876.68647  22915923.4564   22915928.6504   22915922.949
        49.0004         45.0004
 -14373276.48748 -11160500.63548  22323740.0134   22323745.7674   22323739.579
        52.0004         48.0004
 17  9  1  0 43 30.0000000  0 10G31G03G16G06G23G07G22G01G09G26
  -5973891.83547  -4644127.76746  24175505.2024   24175507.6684   24175504.433
        46.0004         41.0004
 -25787282.83849 -20052699.59148  20573694.8954   20573699.6134   20573694.258
        57.0004         52.0004
 -14048591.18448 -10941466.76248  22176571.7014   22176575.0864   22176572.159
        52.0004         48.0004
  -1723351.65447  -1319584.31546  24636202.7994   24636208.5754   24636201.514
        43.0004         38.0004
 -20501272.35349 -15926988.01048  21098262.5924   21098263.1804   21098262.459
        54.0004         50.0004
  -4185138.79547  -2998055.08946  24160617.4544   24160619.9044   24160617.560
        45.0004         40.0004
 -19003868.46549 -14766441.55548  21382247.0764   21382248.7054   21382247.812
        55.0004         50.0004
   3210615.87447   2536404.56446  24506486.9824   24506493.6494   24506485.597
        45.0004         40.0004
 -12209120.21548  -9473235.71747  22902891.8494   22902897.2104   22902892.299
        49.0004         45.0004
 -14360678.64448 -11150684.13348  22326137.2184   22326142.9884   22326137.038
        52.0004         48.0004
 17  9  1  0 44  0.0000000  0 10G31G03G16G06G23G07G22G01G09G26
  -5879439.60947  -4570528.67146  24193478.2384   24193481.4464   24193477.640
        46.0004         41.0004
 -25771611.76449 -20040488.36848  20576677.1094   20576681.7384   20576676.363
        57.0004         52.0004
 -14096812.51848 -10979041.81248  22167396.0934   22167398.9154   22167395.908
        53.0004         48.0004
  -1748183.88047  -1338934.11046  24631475.0774   24631482.3124   24631475.026
        43.0004         38.0004
 -20533717.46249 -15952269.91248  21092088.5304   21092089.2004   21092088.490
        54.0004         50.0004
  -4284471.52447  -3075457.16946  24141716.3424   24141719.7914   24141715.109
        45.0004         41.0004
 -18932527.22349 -14710850.99748  21395823.2304   21395824.6194   21395823.913
        55.0004         50.0004
   3306057.89347   2610774.90346  24524647.4914   24524654.4334   24524646.247
        44.0004         39.0004
 -12277532.27148  -9526543.80747  22889874.3464   22889879.8454   22889874.653
        49.0004         45.0004
 -14347501.28448 -11140416.05848  22328645.0304   22328650.3884   22328644.557
        52.0004         48.0004
 17  9  1  0 44 30.0000000  0 10G31G03G16G06G23G07G22G01G09G26
  -5784940.09647  -4496892.72246  24211460.5404   24211463.0174   24211459.896
        46.0004         41.0004
 -25755382.44249 -20027842.14748  20579765.4224   20579770.0384   20579764.708
        57.0004         52.0004
 -14144559.36848 -11016247.14148  22158309.9604   22158312.8084   22158310.156
        53.0004         48.0004
  -1772492.35447  -1357875.77146  24626851.1154   24626857.0614   24626849.361
        43.0004         38.0004
 -20565936.96749 -15977376.01948  21085957.2724   21085957.8834   21085957.234
        54.0004         50.0004
  -4383602.69047  -3152702.15946  24122851.4554   24122852.3564   24122851.074
        45.0004         40.0004
 -18860759.54449 -14654928.15348  21409479.8504   21409481.5344   21409480.676
        55.0004         50.0004
   3401477.24347   2685127.55546  24542806.4264   24542814.1904   24542805.653
        44.0004         40.0004
 -12345878.59148  -9579800.67247  22876867.7494   22876873.2624   22876868.633
        49.0004         45.0004
 -14333744.83248 -11129696.74448  22331262.8204   22331268.6554   22331262.278
        52.0004         48.0004
 17  9  1  0 45  0.0000000  0 10G31G03G16G06G23G07G22G01G09G26
  -5690395.32347  -4423221.51846  24229453.2824   24229457.2254   24229452.286
        46.0004         41.0004
 -25738594.71149 -20014760.80348  20582960.0404   20582964.9114   20582959.284
        57.0004         52.0004
 -14191829.78048 -11053081.20948  22149314.8384   22149317.8754   22149314.880
        53.0004         48.0004
  -1796276.70747  -1376409.02546  24622325.4194   24622330.9884   24622323.445
        43.0004         38.0004
 -20597930.50849 -16002306.04648  21079869.0094   21079869.8594   21079869.264
        54.0004         50.0004
  -4482531.06247  -3229789.15746  24104027.4444   24104029.1434   24104025.860
        45.0004         41.0004
 -18788566.43849 -14598673.80548  21423218.0044   21423219.2194   21423218.621
        55.0004         50.0004
   3496871.00247   2759460.28046  24560957.9034   24560964.1554   24560957.829
        44.0004         40.0004
 -12414158.63248  -9633005.88247  22863875.0534   22863880.5594   22863874.958
        49.0004         45.0004
 -14319409.48648 -11118526.33948  22333990.6524   22333996.7634   22333989.725
        52.0004         48.0004
 17  9  1  0 45 30.0000000  0 10G31G03G16G06G23G07G22G01G09G26
  -5595806.49847  -4349515.96946  24247452.1204   24247455.7244   24247451.969
        45.0004         41.0004
 -25721248.40049 -20001244.20048  20586260.8654   20586265.4974   20586260.284
        57.0004         52.0004
 -14238621.43948 -11089542.22748  22140410.3314   22140413.5284   22140410.548
        53.0004         48.0004
  -1819536.50647  -1394533.55046  24617898.3354   24617904.5764   24617897.421
        43.0004         38.0004
 -20629697.27049 -16027059.36548  21073824.6314   21073824.7014   21073823.922
        55.0004         50.0004
  -4581255.18847  -3306717.01946  24085237.6354   24085241.4864   24085238.311
        45.0004         40.0004
 -18715949.90649 -14542089.51248  21437036.2914   21437037.8574   21437037.033
        54.0004         50.0004
   3592236.35847   2833770.87746  24579104.3004   24579111.5584   24579106.071
        44.0004         39.0004
 -12482371.74948  -9686158.95447  22850894.2654   22850898.7574   22850894.199
        49.0004         45.0004
 -14304495.49448 -11106905.04947  22336828.6384   22336835.0164   22336828.374
        52.0004         47.0004
 17  9  1  0 46  0.0000000  0 10G31G03G16G06G23G07G22G01G09G26
  -5501175.63047  -4275777.69246  24265461.1824   24265462.9274   24265460.138
        45.0004         41.0004
 -25703343.56549 -19987292.38948  20589668.1614   20589672.8814   20589667.294
        57.0004         52.0004
 -14284932.73348 -11125628.94148  22131597.9754   22131600.4604   22131597.998
        53.0004         48.0004
  -1842271.63647  -1412249.23346  24613571.2734   24613578.6214   24613571.194
        43.0004         38.0004
 -20661236.65149 -16051635.50648  21067822.2634   21067823.0424   21067822.438
        55.0004         50.0004
  -4679774.29247  -3383485.08446  24066490.4124   24066494.1804   24066491.357
        45.0004         41.0004
 -18642911.43949 -14485176.44648  21450934.9254   21450936.2614   21450935.919
        54.0004         50.0004
   3687570.15047   2908056.87146  24597247.0724   24597256.8814   24597247.489
        43.0004         39.0004
 -12550517.62548  -9739259.61747  22837926.5284   22837931.5564   22837926.745
        49.0004         45.0004
 -14289003.30648 -11094833.20847  22339776.6294   22339782.6324   22339775.831
        52.0004         47.0004
 17  9  1  0 46 30.0000000  0 10G31G03G16G06G23G07G22G01G09G26
  -5406504.13547  -4202007.75946  24283477.1344   24283476.7544   24283475.613
        46.0004         41.0004
 -25684880.10449 -19972905.28348  20593181.6294   20593186.1554   20593180.822
        57.0004         52.0004
 -14330761.63948 -11161339.76048  22122876.6154   22122879.5184   22122876.785
        53.0004         48.0004
  -1864481.68447  -1429555.76346  24609346.7144   24609351.1874   24609344.312
        43.0004         38.0004
 -20692548.23949 -16076034.14148  21061864.0294   21061864.6454   21061864.024
        55.0004         50.0004
  -4778086.26347  -3460091.78446  24047784.3134   24047785.6404   24047782.862
        45.0004         41.0004
 -18569452.70849 -14427935.89248  21464913.6904   21464915.3784   21464914.411
        54.0004         50.0004
   3782869.57447   2982316.09946  24615384.5124   24615388.6364   24615383.632
        43.0004         38.0004
 -12618595.61948  -9792307.39547  22824973.0894   22824977.4044   22824971.566
        49.0004         45.0004
 -14272933.22248 -11082311.06747  22342834.4364   22342840.4794   22342834.337
        52.0004         47.0004
 17  9  1  0 47  0.0000000  0 10G31G03G16G06G23G07G22G01G09G26
  -5311793.67747  -4128207.42246  24301498.4824   24301500.9664   24301498.753
        46.0004         41.0004
 -25665857.99049 -19958082.86448  20596801.3054   20596806.0444   20596800.588
        57.0004         52.0004
 -14376106.12048 -11196673.11348  22114248.0404   22114250.9814   22114248.643
        53.0004         48.0004
  -1886166.45347  -1446452.97746  24605218.9174   24605224.0364   24605217.963
        43.0004         38.0004
 -20723631.20149 -16100254.62948  21055949.3454   21055949.9324   21055949.113
        55.0004         50.0004
  -4876190.26747  -3536536.41146  24029114.4964   24029117.6924   24029114.208
        45.0004         41.0004
 -18495575.63249 -14370369.36248  21478972.0574   21478973.6834   21478972.979
        54.0004         50.0004
   3878131.73747   3056546.29746  24633511.6494   24633516.8124   24633511.009
        43.0004         38.0004
 -12686605.25148  -9845301.90347  22812030.9144   22812035.1444   22812029.892
        49.0004         45.0004
 -14256285.62648 -11069338.90847  22346002.6724   22346008.3054   22346001.729
        52.0004         47.0004
 17  9  1  0 47 30.0000000  0 10G31G03G16G06G23G07G22G01G09G26
  -5217045.82447  -4054377.96046  24319527.9364   24319531.3504   24319528.918
        45.0004         40.0004
 -25646277.23749 -19942825.14748  20600527.4814   20600532.2994   20600526.776
        57.0004         52.0004
 -14420963.86248 -11231627.18148  22105711.8544   22105715.1074   22105712.011
        53.0004         48.0004
  -1907325.75247  -1462940.75046  24601191.3244   24601197.6984   24601191.074
        43.0004         39.0004
 -20754485.24149 -16124296.73848  21050077.7224   21050078.1734   21050077.850
        55.0004         50.0004
  -4974084.95447  -3612817.94846  24010485.4414   24010488.1864   24010485.888
        45.0004         41.0004
 -18421282.10849 -14312478.31848  21493109.7584   21493111.2074   21493110.448
        54.0004         50.0004
   3973353.53647   3130745.04946  24651629.3634   24651636.0314   24651629.581
        43.0004         39.0004
 -12754545.99248  -9898242.73247  22799100.9814   22799106.0924   22799101.085
        50.0004         45.0004
 -14239060.98648 -11055917.11547  22349280.2764   22349286.1554   22349279.563
        52.0004         47.0004
 17  9  1  0 48  0.0000000  0 10G31G03G16G06G23G07G22G01G09G26
  -5122262.16947  -3980520.63946  24337565.7064   24337567.6674   24337564.744
        45.0004         41.0004
 -25626137.84649 -19927132.12248  20604359.7154   20604364.6764   20604358.972
        57.0004         52.0004
 -14465333.08748 -11266200.59548  22097268.6104   22097271.6694   22097268.847
        53.0004         49.0004
  -1927959.30547  -1479018.84046  24597266.5914   24597271.5314   24597266.522
        43.0004         39.0004
 -20785109.53649 -16148159.82048  21044250.0654   21044250.5164   21044250.267
        55.0004         50.0004
  -5071769.13347  -3688935.44746  23991897.4624   23991899.8794   23991896.036
        45.0004         41.0004
 -18346573.73149 -14254264.02048  21507326.2654   21507327.9334   21507327.235
        54.0004         50.0004
   4068532.26647   3204910.17946  24669741.6044   24669750.1924   24669741.133
        43.0004         38.0004
 -12822417.26748  -9951129.43247  22786185.8974   22786191.2904   22786186.244
        50.0004         45.0004
 -14221259.66248 -11042045.95447  22352667.7114   22352673.8724   22352667.604
        52.0004         47.0004
 17  9  1  0 48 30.0000000  0 10G31G03G16G06G23G07G22G01G09G26
  -5027444.28747  -3906636.62646  24355609.3474   24355609.0724   24355608.237
        45.0004         40.0004
 -25605439.84849 -19911003.82348  20608298.7014   20608303.3234   20608297.868
        57.0004         52.0004
 -14509211.95448 -11300391.90948  22088918.9804   22088921.4994   22088919.384
        53.0004         49.0004
  -1948066.93747  -1494687.11246  24593438.1544   24593445.2434   24593438.291
        43.0004         39.0004
 -20815503.71849 -16171843.59748  21038466.4694   21038467.2864   21038466.436
        55.0004         50.0004
  -5169241.26547  -3764887.71846  23973349.3334   23973351.6214   23973347.494
        45.0004         41.0004
 -18271452.87349 -14195728.30248  21521621.6664   21521622.9704   21521622.199
        54.0004         50.0004
   4163664.93447   3279039.44146  24687844.4704   24687852.6954   24687845.637
        43.0004         38.0004
 -12890218.52548 -10003961.57247  22773284.5214   22773288.3794   22773284.013
        50.0004         45.0004
 -14202882.09948 -11027725.77147  22356165.2094   22356170.8634   22356164.069
        52.0004         47.0004
 17  9  1  0 49  0.0000000  0 10G31G03G16G06G23G07G22G01G09G26
  -4932593.90347  -3832727.26846  24373658.2614   24373660.2904   24373656.778
        45.0004         41.0004
 -25584183.22649 -19894440.23048  20612343.5194   20612348.5134   20612343.121
        57.0004         52.0004
 -14552598.54448 -11334199.62748  22080662.4984   22080665.7184   22080662.819
        53.0004         49.0004
  -1967648.41547  -1509945.40446  24589714.1584   24589719.9574   24589712.392
        43.0004         39.0004
 -20845666.55449 -16195347.10248  21032726.6534   21032727.2474   21032726.667
        55.0004         50.0004
  -5266500.34747  -3840673.94946  23954841.2334   23954842.5184   23954840.182
        45.0004         41.0004
 -18195921.24049 -14136872.50648  21535994.7424   21535996.3224   21535995.469
        54.0004         50.0004
   4258748.76547   3353130.61546  24705939.6174   24705948.2574   24705938.665
        43.0004         39.0004
 -12957949.16648 -10056738.69047  22760395.9464   22760399.2534   22760395.411
        50.0004         45.0004
 -14183928.74748 -11012956.92747  22359771.4994   22359777.8664   22359771.077
        52.0004         47.0004
 17  9  1  0 49 30.0000000  0 10G31G03G16G06G23G07G22G01G09G26
  -4837712.66447  -3758793.87746  24391713.4284   24391715.4044   24391712.764
        45.0004         41.0004
 -25562368.21749 -19877441.53148  20616494.6874   20616499.7624   20616493.984
        57.0004         52.0004
 -14595491.04948 -11367622.33948  22072500.4364   22072503.1654   22072500.540
        53.0004         48.0004
  -1986703.75147  -1524793.71646  24586086.5104   24586092.7984   24586087.465
        44.0004         39.0004
 -20875597.78849 -16218670.13948  21027030.5674   21027031.5594   21027030.795
        55.0004         50.0004
  -5363545.43947  -3916293.45746  23936373.2974   23936377.3034   23936372.995
        45.0004         41.0004
 -18119980.42249 -14077697.86348  21550445.7254   21550447.4644   21550446.658
        54.0004         50.0004
   4353780.64647   3427181.38746  24724024.2804   24724032.9344   24724023.462
        43.0004         39.0004
 -13025608.73048 -10109460.41047  22747519.7474   22747524.7874   22747519.919
        50.0004         45.0004
 -14164400.22648 -10997739.90747  22363487.7564   22363494.0174   22363487.251
        52.0004         47.0004
 17  9  1  0 50  0.0000000  0 10G31G03G16G06G23G07G22G01G09G26
  -4742801.92147  -3684837.47246  24409773.7464   24409775.7064   24409773.852
        45.0004         40.0004
 -25539994.90049 -19860007.78548  20620752.4114   20620757.2884   20620751.661
        57.0004         52.0004
 -14637887.74648 -11400658.70948  22064432.5384   22064435.2574   22064432.404
        53.0004         48.0004
  -2005232.78947  -1539231.91846  24582561.5314   24582567.9644   24582558.955
        44.0004         39.0004
 -20905296.51249 -16241811.99948  21021379.5414   21021380.0924   21021379.192
        55.0004         50.0004
  -5460374.74747  -3991744.82946  23917947.3484   23917951.0554   23917947.129
        45.0004         41.0004
 -18043632.32749 -14018205.86248  21564974.6734   21564976.3394   21564975.051
        54.0004         50.0004
   4448757.78347   3501189.45346  24742096.2394   24742102.2034   24742097.978
        43.0004         38.0004
 -13093196.65348 -10162126.31647  22734658.2524   22734663.1754   22734658.398
        50.0004         46.0004
 -14144297.08948 -10982075.12647  22367313.7414   22367319.1954   22367312.907
        52.0004         47.0004
 17  9  1  0 50 30.0000000  0 10G31G03G16G06G23G07G22G01G09G26
  -4647863.15747  -3610859.28546  24427839.8054   24427843.0574   24427840.026
        45.0004         40.0004
 -25517063.31749 -19842139.02648  20625116.2164   20625120.9264   20625115.531
        57.0004         52.0004
 -14679786.44448 -11433307.02548  22056459.4714   22056462.3584   22056459.843
        53.0004         48.0004
  -2023235.43047  -1553259.93946  24579135.3394   24579140.9184   24579135.342
        44.0004         39.0004
 -20934762.64649 -16264772.62348  21015772.1954   21015772.7994   21015772.139
        55.0004         50.0004
  -5556987.18647  -4067027.20646  23899562.5394   23899566.0914   23899562.311
        45.0004         41.0004
 -17966878.75949 -13958397.91148  21579580.0294   21579581.8044   21579580.795
        54.0004         50.0004
   4543677.44047   3575152.74046  24760160.5324   24760167.1354   24760159.291
        42.0004         37.0004
 -13160712.24048 -10214735.85547  22721810.6514   22721815.8534   22721810.558
        50.0004         46.0004
 -14123619.73748 -10965962.90747  22371248.2084   22371253.8234   22371247.592
        52.0004         47.0004
 17  9  1  0 51  0.0000000  0 10G31G03G16G06G23G07G22G01G09G26
  -4552897.93547  -3536860.42946  24445911.2034   24445914.0934   24445912.202
        45.0004         40.0004
 -25493573.71549 -19823835.44648  20629586.0194   20629590.8064   20629585.083
        57.0004         52.0004
 -14721185.68748 -11465566.15548  22048581.5924   22048584.2494   22048581.627
        53.0004         48.0004
  -2040711.58347  -1566877.71946  24575809.5924   24575815.1224   24575809.126
        44.0004         39.0004
 -20963995.35849 -16287551.35648  21010209.2684   21010210.2214   21010209.483
        55.0004         50.0004
  -5653381.70947  -4142139.78046  23881218.8234   23881223.0644   23881220.091
        45.0004         41.0004
 -17889721.69749 -13898275.54648  21594262.8324   21594264.2254   21594263.171
        54.0004         50.0004
   4638536.66846   3649068.97346  24778210.8684   24778218.5804   24778210.744
        41.0004         36.0004
 -13228155.01748 -10267288.65347  22708977.0204   22708981.7444   22708976.502
        50.0004         46.0004
 -14102368.89648 -10949403.81447  22375292.0974   22375297.8114   22375291.568
        52.0004         47.0004
 17  9  1  0 51 30.0000000  0 10G31G03G16G06G23G07G22G01G09G26
  -4457907.90147  -3462842.31846  24463987.9184   24463988.8644   24463987.666
        45.0004         41.0004
 -25469526.18049 -19805097.11048  20634162.0014   20634166.9034   20634161.408
        57.0004         52.0004
 -14762083.30948 -11497434.41348  22040798.8814   22040801.5804   22040798.480
        53.0004         48.0004
  -2057661.16547  -1580085.19546  24572584.9264   24572590.5664   24572583.361
        44.0004         39.0004
 -20992993.77549 -16310147.52548  21004691.1194   21004691.7514   21004691.102
        55.0004         50.0004
  -5749557.25447  -4217081.70046  23862917.6944   23862921.3704   23862916.662
        46.0004         41.0004
 -17812163.41449 -13837840.54348  21609021.6484   21609023.1884   21609021.708
        54.0004         50.0004
   4733332.60646   3722935.86746  24796249.8944   24796260.9274   24796249.437
        41.0004         37.0004
 -13295524.30548 -10319784.19047  22696157.1084   22696162.2374   22696156.673
        50.0004         46.0004
 -14080545.01948 -10932398.19547  22379444.3804   22379450.8584   22379444.336
        52.0004         47.0004
 17  9  1  0 52  0.0000000  0 10G31G03G16G06G23G07G22G01G09G26
  -4362894.75847  -3388806.09346  24482067.3954   24482071.3334   24482067.533
        45.0004         41.0004
 -25444920.97649 -19785924.23048  20638844.3194   20638849.1634   20638843.564
        57.0004         52.0004
 -14802477.47548 -11528910.36748  22033111.9334   22033115.1784   22033112.145
        53.0004         48.0004
  -2074084.17847  -1592882.33746  24569458.9474   24569465.5164   24569457.858
        44.0004         39.0004
 -21021757.45049 -16332560.77248  20999217.7234   20999218.2304   20999217.948
        55.0004         50.0004
  -5845512.49247  -4291851.99246  23844658.6204   23844661.2574   23844657.705
        46.0004         41.0004
 -17734205.46449 -13777094.11448  21623856.3954   21623857.9844   21623857.170
        54.0004         50.0004
   4828062.50346   3796751.29146  24814274.2314   24814283.9134   24814274.854
        41.0004         36.0004
 -13362819.50348 -10372222.00047  22683350.1754   22683355.7344   22683350.807
        50.0004         46.0004
 -14058148.79848 -10914946.59347  22383706.6264   22383712.7664   22383706.107
        52.0004         47.0004
 17  9  1  0 52 30.0000000  0 10G31G03G16G06G23G07G22G01G09G26
  -4267860.13047  -3314753.21846  24500153.8814   24500155.6544   24500151.852
        45.0004         41.0004
 -25419758.34549 -19766316.99348  20643632.7914   20643637.5944   20643631.784
        57.0004         52.0004
 -14842366.87248 -11559992.99548  22025521.1544   22025523.8794   22025521.405
        53.0004         48.0004
  -2089980.70447  -1605269.24546  24566434.6154   24566440.2374   24566432.281
        44.0004         39.0004
 -21050285.46249 -16354790.39248  20993788.9844   20993789.4464   20993788.944
        55.0004         50.0004
  -5941246.09947  -4366449.54446  23826440.0034   23826444.2474   23826439.907
        46.0004         41.0004
 -17655849.88849 -13716037.84548  21638766.7594   21638768.5454   21638767.419
        54.0004         50.0004
   4922723.42046   3870512.98946  24832290.7334   24832299.1844   24832289.287
        41.0004         36.0004
 -13430040.13348 -10424601.69147  22670559.7344   22670564.1864   22670558.953
        50.0004         46.0004
 -14035180.95348 -10897049.57047  22388077.3954   22388083.1504   22388076.567
        51.0004         47.0004
 17  9  1  0 53  0.0000000  0 10G31G03G16G06G23G07G22G01G09G26
  -4172805.29747  -3240684.52446  24518239.6354   24518244.4214   24518239.861
        45.0004         40.0004
 -25394038.55149 -19746275.60448  20648527.1674   20648531.7374   20648526.234
        57.0004         52.0004
 -14881749.84548 -11590681.01448  22018026.9604   22018030.0724   22018027.204
        53.0004         49.0004
  -2105350.72647  -1617245.88346  24563510.5984   24563515.2504   24563509.003
        44.0004         39.0004
 -21078577.44549 -16376836.08848  20988405.1314   20988405.5304   20988405.182
        55.0004         50.0004
  -6036756.92747  -4440873.50746  23808265.5214   23808268.9454   23808264.651
        46.0004         41.0004
 -17577098.69649 -13654673.30948  21653753.0894   21653754.3234   21653753.649
        54.0004         50.0004
   5017312.52446   3944218.67146  24850290.9814   24850299.0034   24850287.612
        41.0004         36.0004
 -13497185.48648 -10476922.73447  22657782.2724   22657786.6924   22657781.809
        51.0004         46.0004
 -14011642.15248 -10878707.64847  22392556.2844   22392562.5574   22392556.255
        51.0004         47.0004
 17  9  1  0 53 30.0000000  0 10G31G03G16G06G23G07G22G01G09G26
  -4077731.62047  -3166601.23846  24536333.9844   24536333.4184   24536333.625
        45.0004         40.0004
 -25367761.84849 -19725800.26348  20653527.4324   20653531.8874   20653526.674
        57.0004         52.0004
 -14920624.13848 -11620972.65248  22010629.8074   22010632.4134   22010629.912
        53.0004         49.0004
  -2120194.32147  -1628812.32546  24560683.4754   24560690.2804   24560683.301
        44.0004         39.0004
 -21106632.71249 -16398697.33448  20983066.6114   20983067.1324   20983066.205
        55.0004         50.0004
  -6132044.09147  -4515123.21346  23790132.2324   23790137.7764   23790132.894
        46.0004         41.0004
 -17497953.91449 -13593002.07548  21668813.9364   21668815.1934   21668814.367
        54.0004         50.0004
   5111826.93646   4017866.21946  24868276.1164   24868284.4324   24868276.712
        41.0004         36.0004
 -13564254.99948 -10529184.68347  22645019.3804   22645024.0524   22645019.188
        51.0004         46.0004
 -13987533.06648 -10859921.35147  22397144.4024   22397150.5364   22397143.673
        51.0004         47.0004
 17  9  1  0 54  0.0000000  0 10G31G03G16G06G23G07G22G01G09G26
  -3982640.69547  -3092504.42546  24554429.6474   24554431.6884   24554427.243
        44.0004         39.0004
 -25340928.42749 -19704891.11448  20658633.6974   20658638.2884   20658633.001
        57.0004         52.0004
 -14958988.20148 -11650866.71148  22003329.2944   22003331.9814   22003329.278
        53.0004         49.0004
  -2134511.39847  -1639968.50046  24557959.9394   24557966.6874   24557958.150
        44.0004         39.0004
 -21134450.36949 -16420373.42848  20977773.1994   20977773.1844   20977772.859
        55.0004         50.0004
  -6227106.11147  -4589197.46546  23772043.5934   23772045.1744   23772042.242
        46.0004         41.0004
 -17418417.42949 -13531025.61948  21683949.0834   21683950.9094   21683949.529
        54.0004         50.0004
   5206263.98546   4091453.48145  24886247.0314   24886253.8434   24886245.432
        40.0004         35.0004
 -13631247.92548 -10581386.94347  22632270.7154   22632275.5954   22632270.707
        51.0004         46.0004
 -13962854.31448 -10840691.16047  22401840.6384   22401846.5084   22401840.251
        51.0004         47.0004
 17  9  1  0 54 30.0000000  0 10G31G03G16G06G23G07G22G01G09G26
  -3887534.08147  -3018395.41746  24572526.2574   24572530.0124   24572524.777
        44.0004         40.0004
 -25313538.70749 -19683548.48048  20663845.5054   20663850.3514   20663844.863
        57.0004         52.0004
 -14996840.58448 -11680362.06048  21996126.1434   21996129.0604   21996126.230
        53.0004         49.0004
  -2148302.23847  -1650714.60946  24555336.8304   24555342.9794   24555335.727
        44.0004         39.0004
 -21162029.88449 -16441863.95648  20972524.5724   20972525.0344   20972524.705
        55.0004         50.0004
  -6321941.80547  -4663095.37546  23753996.9994   23753999.8724   23753996.256
        46.0004         41.0004
 -17338491.19749 -13468745.46448  21699158.3744   21699159.8914   21699159.311
        54.0004         50.0004
   5300620.82646   4164978.26345  24904204.5124   24904211.0444   24904202.036
        39.0004         35.0004
 -13698163.68848 -10633529.08547  22619537.0784   22619541.3124   22619536.685
        51.0004         46.0004
 -13937606.77748 -10821017.76047  22406644.7944   22406651.2684   22406644.973
        51.0004         47.0004
 17  9  1  0 55  0.0000000  0 10G31G03G16G06G23G07G22G01G09G26
  -3792413.08047  -2944275.22746  24590627.2494   24590629.0164   24590627.968
        44.0004         40.0004
 -25285593.03949 -19661772.64548  20669163.5154   20669168.2614   20669162.815
        57.0004         52.0004
 -15034179.46948 -11709457.28248  21989020.8794   21989023.7114   21989020.974
        53.0004         49.0004
  -2161566.98047  -1661050.78146  24552810.8084   24552817.6814   24552811.766
        44.0004         39.0004
 -21189370.70849 -16463168.49048  20967321.9334   20967322.1774   20967321.924
        55.0004         50.0004
  -6416550.35647  -4736816.28146  23735993.2084   23735995.5054   23735992.686
        46.0004         41.0004
 -17258176.98649 -13406162.98548  21714441.8374   21714443.3994   21714442.378
        54.0004         50.0004
   5394894.73256   4238438.40155  24922144.7125   24922151.0775   24922143.320
        39.0004         34.0004
 -13765001.71848 -10685610.65747  22606818.2664   22606823.3734   22606818.052
        51.0004         46.0004
 -13911791.20448 -10800901.73247  22411557.7764   22411563.4954   22411557.375
        51.0004         47.0004
 17  9  1  0 55 30.0000000  0  9G31G03G16G06G23G07G22G09G26
  -3697279.36847  -2870145.12546  24608731.5714   24608734.0344   24608732.056
        44.0004         39.0004
 -25257091.66549 -19639563.78948  20674587.2284   20674591.7614   20674586.571
        57.0004         52.0004
 -15071002.96648 -11738150.91048  21982013.4474   21982015.6664   21982013.725
        53.0004         49.0004
  -2174305.58247  -1670976.98746  24550388.2874   24550395.3674   24550387.042
        44.0004         39.0004
 -21216472.04149 -16484286.41148  20962164.7144   20962164.8314   20962164.754
        55.0004         50.0004
  -6510930.37747  -4810359.11846  23718033.0224   23718036.4064   23718032.457
        46.0004         41.0004
 -17177477.10849 -13343279.98648  21729798.4764   21729799.9884   21729799.492
        54.0004         50.0004
 -13831761.28048 -10737631.07647  22594114.5924   22594119.5174   22594113.884
        51.0004         46.0004
 -13885408.31148 -10780343.64247  22416578.3814   22416584.4064   22416577.865
        51.0004         47.0004
 17  9  1  0 56  0.0000000  0  9G31G03G16G06G23G07G22G09G26
  -3602134.34247  -2796006.15946  24626835.8044   24626838.2564   24626834.645
        44.0004         39.0004
 -25228035.00849 -19616922.24448  20680116.5374   20680121.2754   20680115.752
        57.0004         52.0004
 -15107309.78648 -11766441.92748  21975104.5204   21975106.9594   21975104.751
        53.0004         49.0004
  -2186518.26547  -1680493.36346  24548064.0684   24548070.4304   24548064.348
        44.0004         39.0004
 -21243333.19749 -16505217.17948  20957053.2554   20957053.5504   20957053.234
        55.0004         50.0004
  -6605080.77447  -4883723.02146  23700117.1644   23700119.6754   23700116.192
        46.0004         41.0004
 -17096393.64649 -13280098.08948  21745228.0554   21745229.5334   21745228.763
        54.0004         49.0004
 -13898441.67348 -10789589.81647  22581425.4324   22581430.1284   22581425.080
        51.0004         46.0004
 -13858458.92448 -10759344.12547  22421706.2294   22421712.6494   22421706.114
        51.0004         47.0004
 17  9  1  0 56 30.0000000  0  9G31G03G16G06G23G07G22G09G26
  -3506979.64847  -2721859.71146  24644944.6644   24644947.1154   24644943.673
        44.0004         40.0004
 -25198423.75749 -19593848.57448  20685751.8614   20685756.0094   20685751.012
        57.0004         52.0004
 -15143098.45548 -11794329.20848  21968294.3474   21968296.3984   21968294.514
        53.0004         49.0004
  -2198205.55747  -1689600.36746  24545840.6284   24545846.3964   24545839.153
        44.0004         39.0004
 -21269953.74849 -16525960.48548  20951987.6664   20951987.4654   20951987.745
        55.0004         50.0004
  -6699000.77547  -4956907.42146  23682245.3174   23682245.5104   23682244.237
        46.0004         41.0004
 -17014928.81349 -13216619.04148  21760730.7764   21760731.5434   21760731.380
        54.0004         49.0004
 -13965042.55548 -10841486.61947  22568751.8984   22568756.4294   22568751.536
        51.0004         46.0004
 -13830944.16848 -10737904.07647  22426942.3484   22426948.4974   22426942.451
        51.0004         47.0004
 17  9  1  0 57  0.0000000  0  9G31G03G16G06G23G07G22G09G26
  -3411816.19647  -2647706.44446  24663053.8224   24663055.0054   24663051.139
        44.0004         39.0004
 -25168257.95749 -19570342.74948  20691491.7064   20691496.5364   20691490.805
        57.0004         52.0004
 -15178367.14148 -11821811.27048  21961583.0254   21961585.3834   21961582.514
        53.0004         49.0004
  -2209367.21147  -1698297.75546  24543715.7314   24543721.5644   24543715.668
        44.0004         39.0004
 -21296332.65649 -16546515.46048  20946967.9044   20946968.2574   20946967.803
        55.0004         50.0004
  -6792688.63547  -5029910.88046  23664415.7424   23664419.7184   23664415.785
        46.0004         41.0004
 -16933084.11349 -13152843.95348  21776305.2354   21776306.4274   21776305.558
        54.0004         49.0004
 -14031562.87148 -10893320.60147  22556093.7694   22556097.8284   22556092.903
        51.0004         46.0004
 -13802864.52748 -10716023.81847  22432285.7124   22432291.7674   22432285.490
        51.0004         47.0004
 17  9  1  0 57 30.0000000  0  9G31G03G16G06G23G07G22G09G26
  -3316645.73847  -2573547.67746  24681161.6074   24681166.5634   24681162.506
        44.0004         39.0004
 -25137538.15649 -19546405.25348  20697337.2544   20697342.2364   20697336.743
        57.0004         52.0004
 -15213114.10048 -11848886.80848  21954970.2464   21954972.9004   21954970.578
        53.0004         49.0004
  -2220003.61747  -1706585.86046  24541691.2694   24541697.1964   24541691.646
        44.0004         40.0004
 -21322469.37149 -16566881.72948  20941993.7844   20941994.3654   20941993.972
        55.0004         50.0004
  -6886143.31347  -5102732.67946  23646632.1604   23646635.8294   23646631.988
        46.0004         41.0004
 -16850861.71749 -13088774.56748  21791951.3274   21791952.8334   21791952.287
        54.0004         49.0004
 -14098001.98448 -10945091.32847  22543450.2444   22543454.5834   22543450.434
        51.0004         46.0004
 -13774220.97648 -10693704.17347  22437736.3004   22437742.5684   22437736.433
        51.0004         47.0004
 17  9  1  0 58  0.0000000  0  9G31G03G16G06G23G07G22G09G26
  -3221469.58547  -2499384.51546  24699274.8144   24699277.8124   24699273.792
        44.0004         39.0004
 -25106264.98949 -19522036.56748  20703288.5944   20703293.4194   20703287.905
        57.0004         52.0004
 -15247338.29048 -11875554.99948  21948457.6414   21948460.6254   21948458.019
        53.0004         49.0004
  -2230115.14747  -1714464.98746  24539768.3634   24539773.9344   24539768.513
        44.0004         40.0004
 -21348363.10249 -16587058.65948  20937066.7314   20937067.1744   20937066.667
        55.0004         50.0004
  -6979363.86547  -5175372.01846  23628892.2534   23628897.0674   23628892.867
        46.0004         41.0004
 -16768263.91749 -13024412.67148  21807669.1214   21807670.9224   21807669.812
        54.0004         49.0004
 -14164359.45648 -10996798.43747  22530822.5084   22530827.7814   22530822.402
        51.0004         46.0004
 -13745014.59348 -10670945.96347  22443294.3614   22443300.9004   22443293.950
        51.0004         47.0004
 17  9  1  0 58 30.0000000  0  9G31G03G16G06G23G07G22G09G26
  -3126289.03547  -2425217.90946  24717386.4654   24717387.9904   24717387.353
        43.0004         38.0004
 -25074438.77749 -19497236.93648  20709344.9304   20709349.7434   20709344.280
        57.0004         52.0004
 -15281037.84748 -11901814.38148  21942044.9014   21942047.4724   21942044.950
        53.0004         49.0004
  -2239701.93547  -1721935.20246  24537942.8464   24537949.6964   24537942.019
        44.0004         40.0004
 -21374013.32249 -16607045.84248  20932185.6044   20932185.8674   20932185.403
        55.0004         50.0004
  -7072349.42047  -5247828.23846  23611198.0974   23611201.0494   23611197.050
        46.0004         41.0004
 -16685292.83649 -12959759.89948  21823458.2144   21823459.1674   21823458.777
        54.0004         49.0004
 -14230634.35348 -11048441.20247  22518210.5144   22518216.5224   22518210.430
        51.0004         46.0004
 -13715246.13548 -10647749.76647  22448959.1944   22448965.4054   22448958.431
        51.0004         47.0004
 17  9  1  0 59  0.0000000  0  9G31G03G16G06G23G07G22G09G26
  -3031106.03447  -2351049.33446  24735499.6514   24735504.0804   24735500.235
        43.0004         39.0004
 -25042060.21649 -19472006.90248  20715506.2744   20715511.2924   20715505.523
        57.0004         52.0004
 -15314211.40248 -11927663.89248  21935731.9144   21935735.0244   21935732.341
        53.0004         49.0004
  -2248764.44247  -1728996.88846  24536219.0444   24536224.9164   24536218.331
        44.0004         39.0004
 -21399419.44849 -16626842.81948  20927351.0244   20927351.3924   20927351.062
        55.0004         50.0004
  -7165098.75647  -5320100.41646  23593549.6544   23593552.2744   23593547.181
        46.0004         41.0004
 -16601950.38249 -12894817.74948  21839317.9254   21839318.9704   21839318.316
        54.0004         49.0004
 -14296826.14948 -11100019.22247  22505614.9054   22505619.7994   22505614.923
        51.0004         46.0004
 -13684916.73548 -10624116.47147  22454730.4114   22454736.7754   22454730.002
        51.0004         47.0004
 17  9  1  0 59 30.0000000  0  9G31G03G16G06G23G07G22G09G26
  -2935921.50047  -2276879.62946  24753611.4584   24753615.3364   24753611.805
        43.0004         38.0004
 -25009129.65249 -19446346.73648  20721772.8654   20721777.7834   20721772.104
        57.0004         52.0004
 -15346857.35448 -11953102.28648  21929520.2964   21929522.6164   21929520.234
        53.0004         49.0004
  -2257302.86347  -1735650.20146  24534593.5894   24534599.7944   24534592.428
        44.0004         39.0004
 -21424580.50849 -16646448.83648  20922562.9034   20922563.5144   20922562.832
        55.0004         50.0004
  -7257610.83147  -5392187.70046  23575943.6524   23575948.5014   23575944.318
        46.0004         41.0004
 -16518238.50748 -12829587.74448  21855247.5384   21855249.0604   21855248.170
        53.0004         49.0004
 -14362933.99448 -11151531.80947  22493035.1184   22493039.9374   22493034.688
        51.0004         46.0004
 -13654027.17048 -10600046.68447  22460608.4584   22460614.2374   22460608.153
        51.0004         47.0004
 17  9  1  1  0  0.0000000  0  9G31G03G16G06G23G07G22G09G26
  -2840736.95047  -2202709.93246  24771726.2694   24771727.9484   24771726.202
        43.0004         38.0004
 -24975647.78349 -19420256.97948  20728144.3874   20728149.1334   20728143.440
        57.0004         52.0004
 -15378974.39748 -11978128.53948  21923408.2844   21923410.9994   21923408.388
        53.0004         49.0004
  -2265317.64647  -1741895.49046  24533069.2014   24533074.3744   24533068.591
        44.0004         39.0004
 -21449495.95049 -16665863.46948  20917821.8294   20917822.1284   20917821.553
        55.0004         50.0004
  -7349884.39147  -5464089.13246  23558384.8214   23558386.9994   23558384.545
        46.0004         41.0004
 -16434159.48248 -12764071.64348  21871247.2404   21871249.2194   21871247.810
        53.0004         49.0004
 -14428957.24048 -11202978.49347  22480471.6694   22480476.3684   22480471.302
        51.0004         47.0004
 -13622578.57948 -10575541.29447  22466592.9064   22466599.2594   22466592.659
        51.0004         47.0004
 17  9  1  1  0 30.0000000  0  9G31G03G16G06G23G07G22G09G26
  -2745554.00947  -2128541.42446  24789838.7954   24789840.8624   24789839.635
        42.0004         37.0004
 -24941615.20849 -19393738.09848  20734620.4424   20734625.2174   20734619.714
        57.0004         52.0004
 -15410561.26648 -12002741.66648  21917397.8954   21917400.5204   21917397.419
        53.0004         49.0004
  -2272809.16747  -1747733.03046  24531642.7704   24531649.4354   24531641.642
        44.0004         39.0004
 -21474164.96149 -16685086.07448  20913127.3294   20913127.5314   20913127.338
        55.0004         50.0004
  -7441918.60647  -5535804.05546  23540871.1644   23540875.0784   23540871.422
        46.0004         41.0004
 -16349715.62048 -12698271.25648  21887316.1964   21887318.3254   21887316.906
        53.0004         49.0004
 -14494895.23548 -11254358.74247  22467924.1394   22467929.0134   22467923.745
        51.0004         46.0004
 -13590572.00648 -10550601.11447  22472683.7674   22472689.6764   22472682.885
        51.0004         47.0004
 17  9  1  1  1  0.0000000  0  9G31G03G16G06G23G07G22G09G26
  -2650373.56647  -2054374.89846  24807950.6624   24807954.7854   24807951.376
        43.0004         38.0004
 -24907032.42849 -19366790.48148  20741201.3534   20741206.2484   20741200.565
        57.0004         52.0004
 -15441616.15949 -12026940.26248  21911488.1654   21911490.6914   21911488.158
        54.0004         49.0004
  -2279777.74747  -1753163.11346  24530316.8634   24530321.8634   24530316.659
        44.0004         39.0004
 -21498586.83249 -16704116.09948  20908479.9544   20908480.4414   20908480.050
        55.0004         50.0004
  -7533712.15147  -5607331.44946  23523402.7174   23523407.4804   23523402.883
        46.0004         41.0004
 -16264908.69348 -12632187.96048  21903454.5234   21903456.2304   21903455.145
        53.0004         49.0004
 -14560747.10948 -11305671.87347  22455392.7734   22455398.0274   22455392.671
        51.0004         46.0004
 -13558008.37448 -10525226.85947  22478880.6234   22478886.0644   22478879.734
        51.0004         47.0004
 17  9  1  1  1 30.0000000  0  9G31G03G16G06G23G07G22G09G26
  -2555197.29547  -1980211.64846  24826063.1684   24826067.1494   24826062.015
        43.0004         38.0004
 -24871900.17449 -19339414.70648  20747886.7964   20747891.6124   20747885.886
        57.0004         52.0004
 -15472137.88049 -12050723.40348  21905679.6674   21905682.7394   21905679.806
        54.0004         49.0004
  -2286223.87947  -1758186.06646  24529090.5784   24529096.4084   24529089.964
        44.0004         39.0004
 -21522761.12149 -16722953.20548  20903879.8434   20903880.3334   20903879.606
        55.0004         50.0004
  -7625264.18747  -5678670.64846  23505982.5174   23505984.8674   23505980.921
        46.0004         41.0004
 -16179741.12348 -12565823.64548  21919661.5354   21919663.2554   21919662.106
        53.0004         49.0004
 -14626512.19848 -11356917.38147  22442878.2254   22442882.7424   22442877.701
        51.0004         47.0004
 -13524888.84048 -10499419.43247  22485183.3284   22485188.8434   22485182.467
        51.0004         47.0004
 17  9  1  1  2  0.0000000  0  9G31G03G16G06G23G07G22G09G26
  -2460026.34246  -1906052.52346  24844172.1244   24844176.6824   24844173.161
        41.0004         36.0004
 -24836219.09349 -19311611.27748  20754676.5174   20754681.4544   20754675.914
        57.0004         52.0004
 -15502125.17649 -12074090.10848  21899973.4434   21899975.9834   21899973.271
        54.0004         49.0004
  -2292147.96747  -1762802.25746  24527965.6644   24527968.8734   24527964.462
        44.0004         39.0004
 -21546686.97449 -16741596.71848  20899326.8944   20899327.3024   20899326.660
        55.0004         50.0004
  -7716573.42047  -5749820.66646  23488606.3614   23488609.4934   23488605.699
        46.0004         41.0004
 -16094214.95948 -12499179.91248  21935936.6334   21935938.7694   21935937.130
        53.0004         49.0004
 -14692189.75448 -11408094.68747  22430380.3934   22430384.7914   22430379.833
        51.0004         47.0004
 -13491214.44648 -10473179.64447  22491590.5254   22491596.9674   22491590.436
        51.0004         47.0004
 17  9  1  1  2 30.0000000  0  9G31G03G16G06G23G07G22G09G26
  -2364862.23547  -1831898.70746  24862281.7094   24862285.4144   24862281.299
        42.0004         38.0004
 -24799989.86749 -19283380.72448  20761570.6964   20761575.7544   20761570.210
        57.0004         52.0004
 -15531576.60749 -12097039.26048  21894368.5484   21894371.9224   21894369.000
        54.0004         49.0004
  -2297550.56547  -1767012.07746  24526935.6954   24526942.1954   24526935.583
        44.0004         40.0004
 -21570363.72149 -16760046.13248  20894821.3994   20894821.8874   20894821.198
        55.0004         50.0004
  -7807639.06947  -5820780.85946  23471277.3334   23471280.8854   23471276.562
        46.0004         41.0004
 -16008332.41748 -12432258.47648  21952279.5524   21952281.1534   21952280.265
        53.0004         49.0004
 -14757779.06148 -11459203.22647  22417898.8504   22417903.8264   22417898.682
        51.0004         47.0004
 -13456986.41448 -10446508.46347  22498104.8414   22498110.1804   22498103.770
        52.0004         47.0004
 17  9  1  1  3  0.0000000  0  9G31G03G16G06G23G07G22G09G26
  -2269705.93546  -1757751.01145  24880389.1694   24880388.3464   24880389.656
        41.0004         35.0004
 -24763213.16349 -19254723.56148  20768569.2624   20768574.0814   20768568.359
        57.0004         52.0004
 -15560490.95249 -12119569.90748  21888866.6424   21888869.7084   21888866.840
        54.0004         49.0004
  -2302432.10447  -1770815.87046  24526005.7564   24526011.3664   24526005.168
        44.0004         40.0004
 -21593790.43749 -16778300.71148  20890363.2124   20890363.5904   20890363.432
        55.0004         50.0004
  -7898460.01947  -5891550.39946  23453992.5514   23453996.5474   23453993.771
        46.0004         41.0004
 -15922095.43148 -12365060.85348  21968689.6414   21968691.7804   21968690.374
        53.0004         49.0004
 -14823279.28848 -11510242.34647  22405433.7784   22405439.4264   22405434.433
        51.0004         46.0004
 -13422205.75848 -10419406.65547  22504723.0904   22504728.3914   22504722.536
        52.0004         47.0004
 17  9  1  1  3 30.0000000  0  9G31G03G16G06G23G07G22G09G26
  -2174559.17146  -1683610.67146  24898496.3744   24898499.3994   24898493.310
        41.0004         37.0004
 -24725889.77749 -19225640.41048  20775671.7004   20775676.4854   20775670.852
        57.0004         52.0004
 -15588866.70449 -12141680.87048  21883467.2264   21883469.8844   21883466.763
        54.0004         49.0004
  -2306793.10547  -1774214.05346  24525175.7224   24525182.6274   24525175.244
        44.0004         40.0004
 -21616966.48949 -16796359.97148  20885953.1954   20885953.3894   20885953.052
        55.0004         50.0004
  -7989035.23247  -5962128.45447  23436759.1624   23436762.3964   23436758.675
        46.0004         42.0004
 -15835506.21148 -12297588.76748  21985167.5564   21985168.7204   21985167.839
        53.0004         49.0004
 -14888689.76048 -11561211.53247  22392987.6014   22392992.4214   22392986.450
        51.0004         47.0004
 -13386873.72148 -10391875.20647  22511446.3464   22511452.0204   22511446.508
        52.0004         47.0004
 17  9  1  1  4  0.0000000  0  9G31G03G16G06G23G07G22G09G26
  -2079423.07446  -1609478.78046  24916599.3584   24916603.0654   24916600.158
        41.0004         36.0004
 -24688020.41449 -19196131.83348  20782878.1974   20782882.6694   20782877.208
        56.0004         52.0004
 -15616702.84849 -12163371.36648  21878169.9714   21878172.3704   21878170.193
        54.0004         49.0004
  -2310634.22347  -1777207.13646  24524445.4534   24524450.9144   24524444.900
        45.0004         40.0004
 -21639891.34449 -16814223.49948  20881590.8844   20881590.8954   20881590.713
        55.0004         50.0004
  -8079363.81847  -6032514.33747  23419569.8624   23419572.0654   23419569.055
        46.0004         42.0004
 -15748567.19848 -12229844.11348  22001711.3274   22001713.0314   22001711.826
        53.0004         49.0004
 -14954009.67048 -11612110.15647  22380557.6804   22380562.1024   22380556.912
        51.0004         47.0004
 -13350991.48748 -10363915.03447  22518274.3374   22518280.4844   22518274.214
        52.0004         47.0004
 17  9  1  1  4 30.0000000  0  9G31G03G16G06G23G07G22G09G26
  -1984298.87246  -1535356.02946  24934700.9224   24934704.3344   24934700.712
        41.0004         36.0004
 -24649605.71849 -19166198.30648  20790188.0764   20790192.7654   20790187.492
        56.0004         52.0004
 -15643997.68449 -12184640.05348  21872975.8464   21872978.9034   21872976.130
        54.0004         49.0004
  -2313955.70247  -1779795.32446  24523814.2604   24523819.4844   24523813.018
        45.0004         40.0004
 -21662563.91149 -16831890.42648  20877276.1494   20877276.7884   20877276.413
        55.0004         50.0004
  -8169444.88447  -6102707.32247  23402426.6504   23402429.7934   23402426.918
        46.0004         42.0004
 -15661280.50848 -12161828.53548  22018321.7084   22018322.9614   22018322.359
        53.0004         49.0004
 -15019238.09048 -11662937.48047  22368145.0944   22368149.4744   22368144.967
        51.0004         47.0004
 -13314560.06448 -10335526.91547  22525207.2064   22525212.8904   22525207.357
        52.0004         47.0004
 17  9  1  1  5  0.0000000  0  9G31G03G16G06G23G07G22G09G26
  -1889188.10946  -1461243.77746  24952798.4974   24952803.9324   24952799.201
        41.0004         37.0004
 -24610646.76449 -19135840.69548  20797601.8714   20797606.4164   20797601.128
        56.0004         52.0004
 -15670750.54349 -12205486.43448  21867885.2914   21867887.4724   21867885.330
        54.0004         49.0004
  -2316758.54047  -1781979.34346  24523281.6944   24523287.3354   24523280.619
        45.0004         40.0004
 -21684983.84949 -16849360.51348  20873010.0344   20873010.4264   20873009.933
        55.0004         50.0004
  -8259277.22447  -6172706.52147  23385333.6354   23385336.2624   23385333.060
        46.0004         42.0004
 -15573648.33348 -12093543.76148  22034997.3374   22034999.0154   22034998.030
        53.0004         49.0004
 -15084374.49248 -11713693.10847  22355749.8064   22355754.6954   22355749.389
        51.0004         47.0004
 -13277580.99648 -10306712.06747  22532244.5614   22532249.8504   22532244.450
        52.0004         47.0004
 17  9  1  1  5 30.0000000  0  8G03G16G06G23G07G22G09G26
 -24571144.09549 -19105059.39648  20805118.9514   20805123.6224   20805118.131
        56.0004         52.0004
 -15696959.93649 -12225909.31848  21862897.5254   21862900.2754   21862897.782
        54.0004         49.0004
  -2319043.15147  -1783759.55546  24522844.5994   24522851.1904   24522844.809
        45.0004         40.0004
 -21707150.17149 -16866632.96248  20868791.7094   20868791.9814   20868791.746
        55.0004         50.0004
  -8348859.63447  -6242510.94747  23368287.1454   23368287.3614   23368285.694
        47.0004         42.0004
 -15485672.68648 -12024991.32948  22051738.6664   22051740.4014   22051739.096
        53.0004         49.0004
 -15149417.83348 -11764376.21447  22343372.7304   22343377.1234   22343372.109
        51.0004         47.0004
 -13240055.24548 -10277471.22547  22539384.8784   22539391.0364   22539384.444
        52.0004         47.0004
 17  9  1  1  6  0.0000000  0  8G03G16G06G23G07G22G09G26
 -24531098.68049 -19073855.18948  20812739.3764   20812744.1734   20812738.412
        56.0004         52.0004
 -15722624.72049 -12245907.84248  21858013.6624   21858016.2254   21858013.762
        54.0004         49.0004
  -2320810.09847  -1785136.42546  24522508.6954   24522514.3524   24522508.212
        45.0004         40.0004
 -21729062.43549 -16883707.45548  20864621.9944   20864622.2284   20864622.074
        55.0004         51.0004
  -8438191.52447  -6312120.17447  23351286.3304   23351289.8224   23351285.906
        47.0004         42.0004
 -15397356.06248 -11956173.21348  22068544.4274   22068546.1354   22068544.997
        53.0004         48.0004
 -15214367.44348 -11814986.29647  22331013.0014   22331017.9554   22331011.943
        51.0004         47.0004
 -13201984.21548 -10247805.50547  22546629.5304   22546635.4764   22546629.536
        52.0004         47.0004
 17  9  1  1  6 30.0000000  0  9G31G03G16G06G23G07G22G09G26
    161680.89148    114661.98745  25007077.2744   25007078.9694   25007078.440
        48.0004         34.0004
 -24490511.40749 -19042228.75048  20820462.6474   20820467.7434   20820461.941
        56.0004         52.0004
 -15747743.65349 -12265481.02148  21853233.6304   21853236.1974   21853233.938
        54.0004         49.0004
  -2322060.29347  -1786110.60346  24522271.1164   24522277.2544   24522270.723
        45.0004         41.0004
 -21750719.48849 -16900583.07548  20860500.6044   20860501.0354   20860500.803
        55.0004         51.0004
  -8527271.86647  -6381533.40347  23334335.8664   23334338.6334   23334335.205
        47.0004         42.0004
 -15308700.67048 -11887091.11748  22085414.7164   22085416.9884   22085415.695
        53.0004         48.0004
 -15279222.53748 -11865522.71547  22318670.9684   22318675.9534   22318670.507
        52.0004         47.0004
 -13163369.20148 -10217715.88847  22553977.5374   22553983.6234   22553977.198
        52.0004         47.0004
 17  9  1  1  7  0.0000000  0  9G31G03G16G06G23G07G22G09G26
    256725.82147    188723.03245  25025167.2254   25025171.0424   25025167.219
        43.0004         34.0004
 -24449383.04149 -19010180.68048  20828289.2424   20828294.2134   20828288.423
        56.0004         52.0004
 -15772315.53749 -12284627.92648  21848557.7714   21848560.7714   21848557.958
        54.0004         49.0004
  -2322794.14947  -1786682.43046  24522131.6374   24522138.2644   24522130.388
        45.0004         41.0004
 -21772121.02549 -16917259.59548  20856428.2304   20856428.6164   20856427.963
        55.0004         51.0004
  -8616099.51047  -6450749.71347  23317431.4674   23317435.1774   23317431.836
        47.0004         42.0004
 -15219708.52348 -11817746.61448  22102350.1804   22102351.4754   22102350.234
        53.0004         48.0004
 -15343982.18348 -11915984.76847  22306348.3844   22306353.0254   22306347.388
        52.0004         47.0004
 -13124211.40948 -10187203.32647  22561429.0984   22561435.0894   22561429.101
        52.0004         47.0004
 17  9  1  1  7 30.0000000  0  8G03G16G06G23G07G22G09G26
 -24407714.59849 -18977711.77448  20836218.4904   20836223.4034   20836217.612
        56.0004         52.0004
 -15796339.41449 -12303347.81448  21843986.2444   21843989.0194   21843986.366
        54.0004         49.0004
  -2323012.50347  -1786852.58746  24522089.6494   24522095.5854   24522088.819
        45.0004         41.0004
 -21793266.04349 -16933736.23548  20852404.4104   20852405.0164   20852404.437
        55.0004         51.0004
  -8704673.68847  -6519768.50047  23300577.4314   23300580.1434   23300576.170
        47.0004         42.0004
 -15130381.98648 -11748141.55048  22119347.9914   22119349.8224   22119348.833
        53.0004         48.0004
 -15408645.61848 -11966371.85147  22294042.7404   22294048.0824   22294042.407
        52.0004         47.0004
 -13084512.26448 -10156268.93647  22568983.5144   22568989.8964   22568983.364
        52.0004         47.0004
 17  9  1  1  8  0.0000000  0  9G31G03G16G06G23G07G22G09G26
                     55358.83745                  25061332.4824   25061326.872
                        34.0004
 -24365506.98949 -18944822.74048  20844250.3114   20844255.2474   20844249.526
        56.0004         52.0004
 -15819814.17449 -12321639.82848  21839518.9524   21839521.6914   21839518.844
        54.0004         49.0004
  -2322716.05347  -1786621.59346  24522147.3344   24522153.2014   24522145.185
        45.0004         41.0004
 -21814153.95949 -16950012.53348  20848429.5994   20848430.0624   20848429.715
        55.0004         51.0004
  -8792993.35347  -6588588.99747  23283769.8684   23283773.6224   23283770.103
        47.0004         43.0004
 -15040723.26548 -11678277.63948  22136409.6304   22136411.4284   22136410.201
        53.0004         48.0004
 -15473212.07048 -12016683.36247  22281756.1134   22281761.0354   22281756.098
        52.0004         47.0004
 -13044273.11348 -10124913.77047  22576641.3254   22576646.8414   22576641.039
        52.0004         47.0004
 17  9  1  1  8 30.0000000  0  8G03G16G06G23G07G22G09G26
 -24322761.11149 -18911514.27148  20852384.4854   20852389.5084   20852383.824
        56.0004         52.0004
 -15842739.23849 -12339503.50248  21835156.4684   21835158.9764   21835156.921
        54.0004         49.0004
  -2321905.56347  -1785990.04546  24522301.1574   24522306.6354   24522300.757
        45.0004         41.0004
 -21834783.84249 -16966087.76248  20844503.7544   20844504.2364   20844503.816
        55.0004         51.0004
  -8881057.63547  -6657210.47647  23267011.4154   23267015.5124   23267011.409
        47.0004         43.0004
 -14950734.75048 -11608156.74148  22153533.8954   22153535.5704   22153534.498
        53.0004         48.0004
 -15537680.61048 -12066918.57747  22269488.1324   22269493.4194   22269487.963
        52.0004         47.0004
 -13003495.28548 -10093138.83947  22584400.5854   22584406.8184   22584400.517
        52.0004         47.0004
 17  9  1  1  9  0.0000000  0  8G03G16G06G23G07G22G09G26
 -24279478.03849 -18877787.21448  20860620.9244   20860626.1234   20860620.218
        56.0004         52.0004
 -15865112.93648 -12356937.54448  21830898.6454   21830901.7654   21830898.772
        53.0004         49.0004
  -2320581.90347  -1784958.63246  24522552.7394   24522558.3074   24522552.093
        45.0004         41.0004
 -21855155.17449 -16981961.52648  20840627.1164   20840627.7024   20840627.098
        55.0004         51.0004
  -8968865.84347  -6725632.42547  23250302.3754   23250304.9444   23250302.138
        47.0004         43.0004
 -14860418.75048 -11537780.66348  22170720.0414   22170722.4214   22170720.910
        53.0004         48.0004
 -15602050.49048 -12117076.92248  22257238.9784   22257244.6764   22257239.216
        52.0004         48.0004
 -12962180.23048 -10060945.30147  22592263.0384   22592268.9004   22592262.536
        52.0004         47.0004
 17  9  1  1  9 30.0000000  0  9G31G03G16G06G23G07G22G09G26
    111629.56448     70116.00345  25115537.9514   25115538.5734   25115536.913
        52.0004         33.0004
 -24235658.44949 -18843642.09148  20868959.4454   20868964.5694   20868958.981
        56.0004         52.0004
 -15886934.20048 -12373941.11848  21826746.4204   21826748.7714   21826746.599
        53.0004         49.0004
  -2318745.52547  -1783527.69546  24522902.5044   24522907.6914   24522901.482
        45.0004         41.0004
 -21875266.85549 -16997632.96348  20836800.0314   20836800.5894   20836800.056
        55.0004         51.0004
  -9056416.53548  -6793853.71447  23233642.1874   23233645.1404   23233642.169
        48.0004         43.0004
 -14769777.04448 -11467150.78648  22187968.9934   22187970.8984   22187969.824
        53.0004         48.0004
 -15666320.55148 -12167157.47948  22245008.7134   22245014.0094   22245008.261
        52.0004         48.0004
 -12920329.08548 -10028334.01847  22600226.7514   22600232.9364   22600226.328
        52.0004         47.0004
 17  9  1  1 10  0.0000000  0  8G03G16G06G23G07G22G09G26
 -24191303.72749 -18809079.97948  20877399.9024   20877404.9804   20877399.275
        56.0004         52.0004
 -15908202.34448 -12390513.68948  21822699.5574   21822702.0084   21822699.560
        53.0004         49.0004
  -2316397.65747  -1781698.19446  24523349.0824   24523354.4524   24523348.989
        45.0004         41.0004
 -21895118.36749 -17013101.66948  20833022.4454   20833023.1654   20833022.496
        55.0004         51.0004
  -9143709.18348  -6861873.92247  23217031.6694   23217034.3524   23217030.813
        48.0004         43.0004
 -14678812.28248 -11396269.17648  22205278.8864   22205280.9354   22205279.652
        52.0004         48.0004
 -15730490.32648 -12217159.89148  22232797.6664   22232803.0444   22232797.416
        52.0004         48.0004
 -12877943.65148  -9995306.41347  22608292.1944   22608298.7154   22608292.179
        52.0004         47.0004
 17  9  1  1 10 30.0000000  0  8G03G16G06G23G07G22G09G26
 -24146414.77649 -18774101.58948  20885942.1704   20885947.1704   20885941.386
        56.0004         52.0004
 -15928916.22948 -12406654.36848  21818757.4674   21818760.0294   21818757.683
        53.0004         49.0004
  -2313538.94347  -1779470.63646  24523891.6514   24523898.1354   24523890.920
        45.0004         40.0004
 -21914709.07549 -17028367.15448  20829294.4734   20829295.3004   20829294.388
        55.0004         51.0004
  -9230742.71748  -6929692.22547  23200470.2324   23200472.0064   23200469.207
        48.0004         43.0004
 -14587527.02048 -11325137.83148  22222649.9644   22222651.5974   22222650.729
        52.0004         48.0004
 -15794558.75448 -12267083.33048  22220606.0494   22220611.0734   22220605.893
        52.0004         48.0004
 -12835025.20948  -9961863.47847  22616459.9854   22616465.7494   22616459.410
        52.0004         47.0004
 17  9  1  1 11  0.0000000  0  8G03G16G06G23G07G22G09G26
 -24100992.67149 -18738707.75448  20894585.7454   20894590.5174   20894584.929
        56.0004         52.0004
 -15949075.02849 -12422362.51248  21814921.5224   21814924.3344   21814921.549
        54.0004         49.0004
  -2310170.38447  -1776845.77846  24524532.7394   24524540.7684   24524530.863
        45.0004         40.0004
 -21934038.07949 -17043428.71648  20825616.2744   20825616.6644   20825616.369
        55.0004         51.0004
  -9317516.50948  -6997308.12947  23183956.9244   23183960.0764   23183956.089
        48.0004         43.0004
 -14495923.51048 -11253758.49347  22240081.8264   22240083.4704   22240082.381
        52.0004         47.0004
 -15858525.00848 -12316927.15848  22208433.5184   22208438.2954   22208433.398
        52.0004         48.0004
 -12791575.28848  -9928006.40847  22624728.0944   22624734.2674   22624727.706
        51.0004         47.0004
 17  9  1  1 11 30.0000000  0  8G03G16G06G23G07G22G09G26
 -24055038.41249 -18702899.25348  20903330.6634   20903335.4924   20903330.009
        56.0004         52.0004
 -15968677.80549 -12437637.39248  21811191.2114   21811193.8774   21811191.381
        54.0004         49.0004
  -2306292.69847  -1773824.20646  24525270.9344   24525277.5934   24525270.050
        45.0004         40.0004
 -21953104.67349 -17058285.79948  20821988.0834   20821988.5864   20821988.264
        55.0004         51.0004
  -9404029.42448  -7064720.75847  23167492.5254   23167496.3944   23167493.631
        48.0004         44.0004
 -14404003.57248 -11182132.58947  22257573.5834   22257575.1044   22257574.292
        52.0004         47.0004
 -15922388.10348 -12366690.59848  22196281.2114   22196285.6534   22196280.799
        52.0004         48.0004
 -12747595.25548  -9893736.25347  22633096.9424   22633103.0364   22633096.530
        51.0004         47.0004
 17  9  1  1 12  0.0000000  0  8G03G16G06G23G07G22G09G26
 -24008553.17149 -18666676.99948  20912176.6014   20912181.2174   20912175.702
        56.0004         52.0004
 -15987723.69749 -12452478.34148  21807566.8284   21807569.1864   21807567.289
        54.0004         49.0004
  -2301906.86147  -1770406.68346  24526105.9404   24526111.7914   24526105.113
        45.0004         40.0004
 -21971908.16249 -17072937.86848  20818409.7274   20818410.3594   20818409.741
        55.0004         51.0004
  -9490280.51848  -7131929.36247  23151081.0324   23151083.5124   23151080.328
        48.0004         44.0004
 -14311769.85948 -11110262.18647  22275124.8974   22275126.8404   22275125.832
        52.0004         47.0004
 -15986147.23348 -12416373.03048  22184148.5364   22184152.3164   22184147.999
        52.0004         48.0004
 -12703086.73148  -9859054.29547  22641567.0014   22641572.5794   22641566.288
        51.0004         47.0004
 17  9  1  1 12 30.0000000  0  8G03G16G06G23G07G22G09G26
 -23961537.95449 -18630041.77848  20921123.1654   20921128.0604   20921122.407
        56.0004         52.0004
 -16006211.57649 -12466884.47448  21804048.8014   21804051.3114   21804049.092
        54.0004         49.0004
  -2297013.71447  -1766593.84346  24527037.9414   24527043.2854   24527037.376
        45.0004         40.0004
 -21990447.51149 -17087384.11748  20814882.0884   20814882.4874   20814881.946
        55.0004         51.0004
  -9576268.89948  -7198933.26547  23134717.6904   23134720.6584   23134717.141
        48.0004         44.0004
 -14219224.76748 -11038149.15147  22292735.7424   22292737.5184   22292736.333
        52.0004         47.0004
 -16049801.39848 -12465973.66848  22172034.9134   22172039.7004   22172034.433
        53.0004         48.0004
 -12658051.11848  -9823961.62347  22650137.0094   22650142.3934   22650136.099
        51.0004         47.0004
 17  9  1  1 13  0.0000000  0  8G03G16G06G23G07G22G09G26
 -23913994.13849 -18592994.66348  20930170.5164   20930175.3704   20930169.689
        56.0004         52.0004
 -16024140.82149 -12480855.30548  21800636.6654   21800639.8774   21800636.677
        54.0004         49.0004
  -2291614.45247  -1762386.64146  24528064.9014   24528071.6044   24528064.880
        45.0004         40.0004
 -22008722.36549 -17101624.26448  20811404.6294   20811405.0134   20811404.475
        55.0004         51.0004
  -9661994.19248  -7265732.18247  23118403.8884   23118407.3164   23118404.755
        48.0004         44.0004
 -14126370.49848 -10965795.20447  22310405.8454   22310406.8604   22310405.960
        52.0004         47.0004
 -16113349.88148 -12515491.95648  22159942.1474   22159946.8974   22159941.754
        53.0004         48.0004
 -12612490.17848  -9788459.60047  22658806.7904   22658813.2274   22658806.571
        51.0004         47.0004
 17  9  1  1 13 30.0000000  0  8G03G16G06G23G07G22G09G26
 -23865922.67549 -18555536.39548  20939318.2204   20939323.1324   20939317.466
        56.0004         52.0004
 -16041510.60549 -12494390.19548  21797331.6284   21797334.2994   21797331.424
        54.0004         49.0004
  -2285709.85947  -1757785.65646  24529189.7474   24529195.8614   24529188.992
        45.0004         40.0004
 -22026731.54449 -17115657.39048  20807977.3164   20807977.8474   20807977.481
        55.0004         51.0004
  -9747455.09048  -7332325.05647  23102141.6394   23102145.5484   23102141.912
        49.0004         44.0004
 -14033209.26048 -10893202.05347  22328133.5444   22328135.1954   22328134.080
        52.0004         47.0004
 -16176791.58948 -12564927.04148  22147869.4714   22147874.4724   22147868.816
        53.0004         48.0004
 -12566405.26348  -9752549.29747  22667576.4014   22667582.2994   22667576.014
        51.0004         47.0004
 17  9  1  1 14  0.0000000  0  8G03G16G06G23G07G22G09G26
 -23817324.73749 -18517667.88648  20948565.9984   20948571.0694   20948565.254
        56.0004         52.0004
 -16058320.16149 -12507488.54448  21794132.4934   21794135.4374   21794133.097
        54.0004         49.0004
  -2279300.94247  -1752791.70346  24530408.3474   24530414.1454   24530407.907
        45.0004         40.0004
 -22044474.31049 -17129482.92048  20804601.0804   20804601.3344   20804600.803
        55.0004         51.0004
  -9832650.87048  -7398711.34647  23085929.8174   23085932.2194   23085929.157
        49.0004         44.0004
 -13939743.57648 -10820371.66547  22345918.7654   22345920.9064   22345919.940
        52.0004         47.0004
 -16240125.61048 -12614278.21648  22135817.4994   22135822.2274   22135816.980
        53.0004         48.0004
 -12519798.00048  -9716231.95547  22676445.4204   22676451.8724   22676445.020
        51.0004         46.0004
 17  9  1  1 14 30.0000000  0  8G03G16G06G23G07G22G09G26
 -23768201.70749 -18479390.21248  20957913.9094   20957918.6944   20957913.098
        56.0004         52.0004
 -16074568.67349 -12520149.71748  21791040.6134   21791043.4724   21791040.604
        54.0004         49.0004
  -2272388.88447  -1747405.68846  24531723.3994   24531730.4754   24531723.107
        45.0004         40.0004
 -22061950.35449 -17143100.61548  20801275.4084   20801275.8604   20801275.389
        55.0004         51.0004
  -9917580.78148  -7464890.46147  23069768.7324   23069771.4214   23069768.124
        49.0004         44.0004
 -13845975.60148 -10747305.73747  22363763.0784   22363764.3104   22363763.267
        52.0004         47.0004
 -16303351.14848 -12663544.85548  22123785.7174   22123790.7934   22123785.732
        53.0004         48.0004
 -12472670.13248  -9679508.95347  22685413.2974   22685419.7044   22685413.092
        51.0004         47.0004
 17  9  1  1 15  0.0000000  0  8G03G16G06G23G07G22G09G26
 -23718554.66549 -18440704.21848  20967361.3964   20967366.4464   20967360.579
        56.0004         52.0004
 -16090255.28749 -12532373.05048  21788056.0054   21788058.4884   21788055.984
        54.0004         49.0004
  -2264974.56147  -1741628.32046  24533133.4924   24533140.0644   24533133.904
        45.0004         40.0004
 -22079158.60649 -17156509.64148  20798000.8684   20798001.3264   20798000.872
        55.0004         51.0004
 -10002243.95748  -7530861.73647  23053657.0804   23053659.7734   23053657.393
        49.0004         44.0004
 -13751908.06048 -10674006.37747  22381663.6824   22381665.3984   22381663.994
        52.0004         47.0004
 -16366467.12948 -12712726.13448  22111775.7624   22111780.4044   22111775.409
        53.0004         48.0004
 -12425023.14248  -9642381.43847  22694480.7154   22694486.3714   22694479.956
        51.0004         46.0004
 17  9  1  1 15 30.0000000  0  8G03G16G06G23G07G22G09G26
 -23668384.87049 -18401610.88048  20976908.4034   20976913.3294   20976907.599
        56.0004         52.0004
 -16105379.17649 -12544157.89548  21785177.7434   21785180.7884   21785177.963
        54.0004         49.0004
  -2257059.08447  -1735460.42146  24534638.9524   24534646.8564   24534638.734
        45.0004         40.0004
 -22096098.47149 -17169709.53848  20794777.2824   20794777.5974   20794777.152
        55.0004         51.0004
 -10086639.75048  -7596624.67047  23037597.2424   23037600.5164   23037596.238
        49.0004         44.0004
 -13657543.05348 -10600475.23547  22399620.6074   22399622.3984   22399621.085
        52.0004         47.0004
 -16429472.61548 -12761821.30748  22099785.9464   22099790.9954   22099785.626
        53.0004         48.0004
 -12376858.66748  -9604850.68747  22703645.4844   22703651.6444   22703645.311
        51.0004         46.0004
 17  9  1  1 16  0.0000000  0  8G03G16G06G23G07G22G09G26
 -23617693.59649 -18362111.19548  20986554.5374   20986559.5014   20986553.788
        56.0004         52.0004
 -16119939.63249 -12555503.69248  21782406.8554   21782409.8844   21782406.871
        54.0004         50.0004
  -2248643.54147  -1728902.86046  24536241.5594   24536248.3194   24536241.684
        45.0004         40.0004
 -22112768.92349 -17182699.50148  20791604.9604   20791605.4904   20791605.252
        55.0004         51.0004
 -10170767.11448  -7662178.42647  23021588.7624   23021591.5464   23021587.839
        49.0004         44.0004
 -13562883.09948 -10526714.25747  22417633.8764   22417635.7294   22417634.500
        52.0004         47.0004
 -16492366.68348 -12810829.66148  22087817.5494   22087822.3714   22087817.333
        53.0004         48.0004
 -12328178.37948  -9566918.00947  22712909.4634   22712915.3734   22712909.121
        51.0004         46.0004
 17  9  1  1 16 30.0000000  0  8G03G16G06G23G07G22G09G26
 -23566482.19449 -18322206.21948  20996299.8564   20996304.8164   20996298.828
        56.0004         52.0004
 -16133936.29049 -12566410.17648  21779743.4534   21779746.4454   21779743.629
        54.0004         50.0004
  -2239729.06047  -1721956.54446  24537940.7664   24537945.2754   24537940.767
        45.0004         40.0004
 -22129169.07249 -17195478.83848  20788484.2134   20788484.5094   20788484.196
        55.0004         51.0004
 -10254625.29148  -7727522.42447  23005630.3824   23005632.8814   23005630.311
        49.0004         44.0004
 -13467930.59648 -10452725.32447  22435702.0844   22435704.3044   22435703.088
        52.0004         47.0004
 -16555148.41648 -12859750.48348  22075870.4104   22075875.4434   22075870.370
        53.0004         48.0004
 -12278983.96848  -9528584.71947  22722271.3624   22722277.1974   22722270.122
        51.0004         46.0004
 17  9  1  1 17  0.0000000  0  8G03G16G06G23G07G22G09G26
 -23514751.93549 -18281896.94148  21006143.4694   21006148.7004   21006143.004
        56.0004         52.0004
 -16147368.31349 -12576876.68248  21777187.2344   21777190.4234   21777187.643
        54.0004         50.0004
  -2230316.78847  -1714622.29846  24539729.8794   24539735.6534   24539728.680
        44.0004         39.0004
 -22145298.38649 -17208047.14048  20785414.5484   20785415.4224   20785414.841
        55.0004         51.0004
 -10338213.37448  -7792655.93747  22989723.8744   22989726.8124   22989723.359
        49.0004         44.0004
 -13372687.55648 -10378510.00347  22453826.9304   22453828.7374   22453827.119
        52.0004         47.0004
 -16617816.79448 -12908582.97748  22063945.1354   22063949.9434   22063945.118
        53.0004         48.0004
 -12229277.16848  -9489852.15347  22731729.6504   22731736.0234   22731729.207
        51.0004         46.0004
 17  9  1  1 17 30.0000000  0  8G03G16G06G23G07G22G09G26
 -23462504.11549 -18241184.36748  21016086.1794   21016091.0474   21016085.377
        56.0004         52.0004
 -16160234.99549 -12586902.66048  21774738.8424   21774741.7674   21774739.144
        54.0004         50.0004
  -2220407.82647  -1706901.04946  24541615.3794   24541620.2214   24541614.713
        44.0004         39.0004
 -22161156.23149 -17220403.91048  20782397.2064   20782397.9004   20782397.195
        55.0004         51.0004
 -10421530.82748  -7857578.60047  22973869.2694   22973871.7144   22973868.702
        49.0004         44.0004
 -13277156.66648 -10304070.37647  22472005.6324   22472007.5804   22472006.115
        52.0004         47.0004
 -16680370.84948 -12957326.39048  22052041.7594   22052046.5104   22052041.047
        53.0004         48.0004
 -12179059.68448  -9450721.65547  22741286.2304   22741291.8084   22741285.676
        51.0004         46.0004
 17  9  1  1 18  0.0000000  0  8G03G16G06G23G07G22G09G26
 -23409740.12249 -18200069.57748  21026126.6834   21026131.7834   21026125.874
        56.0004         52.0004
 -16172535.54649 -12596487.49948  21772398.4374   21772401.2824   21772398.644
        54.0004         50.0004
  -2210003.38947  -1698793.70546  24543596.4314   24543602.1784   24543595.841
        44.0004         39.0004
 -22176741.62349 -17232548.36848  20779431.2034   20779431.6804   20779431.375
        55.0004         51.0004
 -10504576.87248  -7922289.76347  22958065.6114   22958069.5484   22958065.448
        49.0004         44.0004
 -13181340.36448 -10229408.34747  22490238.7554   22490240.9674   22490239.308
        52.0004         47.0004
 -16742809.55248 -13005979.91748  22040159.6424   22040164.7904   22040159.525
        53.0004         48.0004
 -12128333.19748  -9411194.53347  22750939.1354   22750944.9214   22750938.745
        51.0004         46.0004
 17  9  1  1 18 30.0000000  0  8G03G16G06G23G07G22G09G26
 -23356461.27449 -18158553.60048  21036265.6934   21036270.5354   21036264.757
        56.0004         52.0004
 -16184269.89349 -12605631.14048  21770165.2594   21770167.9204   21770165.419
        54.0004         49.0004
  -2199104.72147  -1690301.23146  24545668.7004   24545674.7734   24545667.629
        44.0004         39.0004
 -22192053.61049 -17244479.78448  20776517.6714   20776518.2504   20776517.493
        55.0004         51.0004
 -10587350.44448  -7986788.62347  22942315.5464   22942317.9404   22942314.956
        49.0004         44.0004
 -13085240.78748 -10154525.58347  22508526.0174   22508528.5174   22508526.785
        52.0004         47.0004
 -16805131.96848 -13054542.82748  22028300.3234   22028305.1784   22028299.879
        53.0004         48.0004
 -12077099.43948  -9371272.13447  22760688.4964   22760694.8944   22760687.325
        51.0004         46.0004
 17  9  1  1 19  0.0000000  0  8G03G16G06G23G07G22G09G26
 -23302669.01149 -18116637.56348  21046501.6084   21046506.6884   21046500.972
        56.0004         52.0004
 -16195437.48449 -12614333.15148  21768040.1874   21768042.9144   21768040.477
        54.0004         49.0004
  -2187712.93747  -1681424.54846  24547836.5814   24547844.2014   24547833.954
        43.0004         39.0004
 -22207092.02049 -17256198.02948  20773655.8474   20773656.2404   20773656.088
        55.0004         51.0004
 -10669851.14448  -8051074.85447  22926614.7654   22926619.4374   22926615.023
        49.0004         44.0004
 -12988860.65748 -10079424.21447  22526866.4994   22526868.3294   22526867.404
        52.0004         47.0004
 -16867337.04548 -13103014.30948  22016462.9124   22016467.9654   22016462.537
        53.0004         48.0004
 -12025360.21248  -9330955.86947  22770534.3394   22770539.9964   22770533.318
        51.0004         46.0004
 17  9  1  1 19 30.0000000  0  8G03G16G06G23G07G22G09G26
 -23248364.72749 -18074322.54748  21056835.3554   21056840.5744   21056834.690
        56.0004         52.0004
 -16206037.35549 -12622592.78248  21766022.9294   21766026.1124   21766023.149
        54.0004         49.0004
  -2175829.37347  -1672164.62946  24550097.1534   24550103.1394   24550096.589
        43.0004         39.0004
 -22221855.52249 -17267702.05948  20770846.6054   20770847.2464   20770846.459
        55.0004         51.0004
 -10752078.04548  -8115147.74647  22910967.6324   22910970.7754   22910968.048
        49.0004         44.0004
 -12892202.02348 -10004105.82247  22545260.3484   22545262.3454   22545260.435
        52.0004         47.0004
 -16929423.82948 -13151393.61048  22004648.1964   22004653.0804   22004647.653
        53.0004         48.0004
 -11973117.28248  -9290247.10047  22780474.9724   22780481.4954   22780474.789
        51.0004         46.0004
 17  9  1  1 20  0.0000000  0  8G03G16G06G23G07G22G09G26
 -23193549.88149 -18031609.69348  21067266.3554   21067271.4464   21067265.748
        56.0004         52.0004
 -16216069.25649 -12630409.84248  21764114.0614   21764116.9434   21764114.167
        54.0004         49.0004
  -2163455.24747  -1662522.46046  24552452.1774   24552458.5424   24552452.071
        43.0004         39.0004
 -22236343.51349 -17278991.40048  20768089.3214   20768090.0464   20768089.573
        55.0004         51.0004
 -10834030.54648  -8179006.83147  22895373.9574   22895375.8254   22895372.981
        49.0004         44.0004
 -12795267.69148  -9928572.59447  22563705.9764   22563708.3374   22563706.687
        52.0004         47.0004
 -16991391.33648 -13199679.97048  21992856.3414   21992861.3744   21992855.658
        53.0004         48.0004
 -11920372.47848  -9249147.26847  22790512.3854   22790518.1274   22790511.883
        50.0004         46.0004
 17  9  1  1 20 30.0000000  0  8G03G16G06G23G07G22G09G26
 -23138225.88949 -17988500.09448  21077794.2024   21077799.4154   21077793.529
        56.0004         51.0004
 -16225532.55849 -12637783.83948  21762313.0844   21762315.7694   21762313.338
        54.0004         49.0004
  -2150591.86447  -1652499.04546  24554899.4514   24554905.5604   24554898.036
        43.0004         39.0004
 -22250555.22149 -17290065.45748  20765385.0264   20765385.4864   20765384.960
        55.0004         51.0004
 -10915707.80348  -8242651.41647  22879829.9844   22879833.9424   22879830.149
        49.0004         44.0004
 -12698059.95248  -9852826.33047  22582204.4464   22582206.0754   22582204.778
        52.0004         47.0004
 -17053238.45748 -13247872.52348  21981086.8084   21981091.9674   21981086.652
        53.0004         48.0004
 -11867127.59148  -9207657.74747  22800644.4084   22800650.6714   22800644.534
        50.0004         46.0004
 17  9  1  1 21  0.0000000  0  8G03G16G06G23G07G22G09G26
 -23082394.19149 -17944994.88448  21088418.6574   21088423.5994   21088417.997
        56.0004         52.0004
 -16234426.74249 -12644714.36348  21760620.4464   21760623.5544   21760620.726
        54.0004         49.0004
  -2137240.48147  -1642095.40346  24557441.8284   24557447.2984   24557440.682
        43.0004         39.0004
 -22264489.80249 -17300923.57448  20762733.5154   20762734.0334   20762733.640
        55.0004         51.0004
 -10997109.06548  -8306080.94647  22864339.5184   22864343.4114   22864339.410
        49.0004         44.0004
 -12600581.01248  -9776868.74247  22600753.5314   22600755.8424   22600754.264
        51.0004         47.0004
 -17114964.20348 -13295970.49848  21969341.0334   21969346.1074   21969340.552
        53.0004         48.0004
 -11813384.42048  -9165779.96347  22810871.0204   22810877.7134   22810870.687
        50.0004         46.0004
 17  9  1  1 21 30.0000000  0  8G03G16G06G23G07G22G09G26
 -23026056.27449 -17901095.21848  21099139.4894   21099144.4224   21099138.774
        56.0004         51.0004
 -16242751.48149 -12651201.16248  21759036.5164   21759039.3084   21759036.732
        54.0004         49.0004
  -2123402.44747  -1631312.53346  24560074.5934   24560079.3344   24560073.301
        43.0004         39.0004
 -22278146.64349 -17311565.27148  20760134.6484   20760135.1474   20760134.499
        55.0004         51.0004
 -11078233.73848  -8369294.94447  22848903.1924   22848905.9994   22848901.784
        49.0004         44.0004
 -12502833.58448  -9700701.93547  22619354.2104   22619356.2434   22619354.887
        51.0004         47.0004
 -17176567.48848 -13343973.04848  21957618.2734   21957623.2544   21957618.165
        53.0004         49.0004
 -11759144.78748  -9123515.32847  22821193.2514   22821199.0944   22821192.658
        50.0004         46.0004
 17  9  1  1 22  0.0000000  0  8G03G16G06G23G07G22G09G26
 -22969213.72949 -17856802.33948  21109956.4084   21109961.4374   21109955.410
        56.0004         51.0004
 -16250506.45149 -12657243.99448  21757560.9254   21757563.7714   21757560.906
        54.0004         49.0004
  -2109079.16947  -1620151.52046  24562801.0624   24562806.4094   24562800.192
        44.0004         39.0004
 -22291524.88649 -17321989.87948  20757588.8584   20757589.1904   20757588.939
        55.0004         51.0004
 -11159081.16248  -8432292.89947  22833517.2144   22833521.3294   22833517.672
        49.0004         44.0004
 -12404819.85848  -9624327.64147  22638005.7274   22638008.4194   22638006.613
        51.0004         46.0004
 -17238047.37948 -13391879.45148  21945919.0824   21945924.2574   21945918.679
        53.0004         48.0004
 -11704410.65248  -9080865.36547  22831608.3734   22831614.1394   22831608.573
        50.0004         46.0004
 17  9  1  1 22 30.0000000  0  8G03G16G06G23G07G22G09G26
 -22911867.91649 -17812117.30148  21120868.6194   21120873.7434   21120868.085
        56.0004         51.0004
 -16257691.09649 -12662842.40948  21756193.6104   21756196.2114   21756193.766
        54.0004         49.0004
  -2094271.84447  -1608613.36946  24565617.5384   24565625.5034   24565616.828
        44.0004         39.0004
 -22304623.57149 -17332196.64548  20755096.0364   20755096.7724   20755096.405
        55.0004         51.0004
 -11239650.29748  -8495074.02747  22818186.2414   22818189.3804   22818185.796
        49.0004         44.0004
 -12306542.29248  -9547747.74647  22656707.2844   22656709.6264   22656707.849
        51.0004         46.0004
 -17299402.64748 -13439688.74948  21934243.5724   21934248.3964   21934243.308
        53.0004         49.0004
 -11649183.73148  -9037831.41947  22842118.2724   22842123.2734   22842117.635
        50.0004         46.0004
 17  9  1  1 23  0.0000000  0  8G03G16G06G23G07G22G09G26
 -22854020.70449 -17767041.56648  21131876.8284   21131882.2174   21131876.194
        56.0004         51.0004
 -16264305.41449 -12667996.41948  21754934.6724   21754937.5524   21754935.084
        54.0004         49.0004
  -2078982.19947  -1596699.36646  24568527.3114   24568533.0054   24568526.825
        44.0004         39.0004
 -22317442.25249 -17342185.22948  20752657.1294   20752657.5024   20752656.970
        55.0004         51.0004
 -11319940.94248  -8557638.12447  22802908.1154   22802909.5854   22802907.261
        49.0004         44.0004
 -12208003.67548  -9470964.43447  22675458.8514   22675460.4714   22675459.565
        51.0004         46.0004
 -17360632.53248 -13487400.34448  21922591.8604   21922596.8314   21922591.512
        53.0004         49.0004
 -11593466.22948  -8994415.18547  22852721.0844   22852726.4354   22852720.166
        50.0004         45.0004
 17  9  1  1 23 30.0000000  0  8G03G16G06G23G07G22G09G26
 -22795673.32349 -17721576.08848  21142980.1174   21142984.9904   21142979.123
        56.0004         51.0004
 -16270348.58649 -12672705.37748  21753784.9724   21753787.8094   21753785.068
        54.0004         49.0004
  -2063211.27647  -1584410.35346  24571527.5804   24571534.1374   24571526.863
        44.0004         39.0004
 -22329979.69649 -17351954.66548  20750271.1234   20750271.6534   20750271.138
        55.0004         51.0004
 -11399952.12948  -8619984.47347  22787681.1144   22787684.3004   22787680.593
        49.0004         44.0004
 -12109206.16048  -9393979.38947  22694259.3684   22694261.0124   22694260.000
        51.0004         46.0004
 -17421735.64748 -13535013.15448  21910964.4624   21910969.3744   21910963.844
        53.0004         49.0004
 -11537259.71948  -8950617.92247  22863416.3454   22863422.4954   22863415.965
        50.0004         45.0004
 17  9  1  1 24  0.0000000  0  8G03G16G06G23G07G22G09G26
 -22736827.48749 -17675722.20848  21154177.9174   21154183.0854   21154177.315
        56.0004         51.0004
 -16275820.37149 -12676969.09648  21752743.9604   21752746.1634   21752743.948
        54.0004         49.0004
  -2046960.66647  -1571747.53846  24574620.0394   24574626.7774   24574618.557
        44.0004         39.0004
 -22342235.45049 -17361504.60348  20747938.9934   20747939.5194   20747938.976
        55.0004         51.0004
 -11479683.26248  -8682112.59847  22772509.7424   22772512.2714   22772508.893
        49.0004         45.0004
 -12010152.39948  -9316794.67447  22713108.8224   22713110.4564   22713109.553
        50.0004         46.0004
 -17482711.04248 -13582526.44248  21899361.3084   21899366.4824   21899360.821
        53.0004         49.0004
 -11480566.27848  -8906441.22947  22874204.3724   22874210.8354   22874204.398
        50.0004         45.0004
 17  9  1  1 24 30.0000000  0  8G03G16G06G23G07G22G09G26
 -22677484.78949 -17629481.15748  21165470.4704   21165475.5054   21165469.845
        56.0004         51.0004
 -16280720.57849 -12680787.42848  21751811.1964   21751813.5784   21751811.232
        54.0004         49.0004
  -2030231.84547  -1558712.09946  24577804.6944   24577810.0724   24577803.810
        44.0004         39.0004
 -22354208.82949 -17370834.50948  20745660.4804   20745661.1554   20745660.404
        55.0004         51.0004
 -11559133.72448  -8744022.02647  22757390.7274   22757393.0044   22757390.436
        49.0004         45.0004
 -11910844.81348  -9239412.17347  22732006.8434   22732008.6214   22732006.751
        50.0004         46.0004
 -17543557.63148 -13629939.37348  21887782.5474   21887787.0884   21887782.059
        53.0004         49.0004
 -11423387.84448  -8861886.61847  22885085.2044   22885091.5424   22885084.634
        50.0004         45.0004
 17  9  1  1 25  0.0000000  0  8G03G16G06G23G07G22G09G26
 -22617646.85849 -17582854.21548  21176857.4164   21176862.5064   21176856.447
        56.0004         51.0004
 -16285049.29849 -12684160.45148  21750987.4944   21750990.1524   21750987.814
        54.0004         49.0004
  -2013026.15547  -1545305.09146  24581078.3724   24581085.9494   24581076.487
        44.0004         39.0004
 -22365898.67949 -17379943.48548  20743436.1144   20743436.4894   20743435.859
        56.0004         51.0004
 -11638302.90548  -8805712.28247  22742324.5074   22742327.3794   22742324.254
        49.0004         45.0004
 -11811285.65048  -9161833.63447  22750951.3094   22750953.3774   22750951.863
        50.0004         45.0004
 -17604274.35049 -13677251.09848  21876228.3464   21876233.4304   21876228.305
        54.0004         49.0004
 -11365726.33548  -8816955.59147  22896057.8044   22896063.7854   22896057.345
        50.0004         45.0004
 17  9  1  1 25 30.0000000  0  8G03G16G06G23G07G22G09G26
 -22557315.35149 -17535842.66748  21188337.7424   21188343.1104   21188337.115
        56.0004         51.0004
 -16288805.85649 -12687087.63148  21750272.6194   21750275.2834   21750272.916
        54.0004         49.0004
  -1995345.25747  -1531527.79846  24584442.1884   24584448.9604   24584441.855
        43.0004         39.0004
 -22377304.23649 -17388830.93148  20741265.4054   20741265.9994   20741265.780
        56.0004         51.0004
 -11717190.01548  -8867182.71747  22727313.2964   22727315.4724   22727312.837
        49.0004         45.0004
 -11711477.36348  -9084060.96247  22769944.6474   22769946.3834   22769945.779
        50.0004         46.0004
 -17664860.11249 -13724460.77648  21864699.2044   21864704.1414   21864699.124
        54.0004         49.0004
 -11307583.65248  -8771649.60847  22907122.3944   22907128.1674   22907122.266
        50.0004         45.0004
 17  9  1  1 26  0.0000000  0  8G03G16G06G23G07G22G09G26
 -22496491.86349 -17488447.75448  21199912.5884   21199917.5574   21199911.563
        56.0004         51.0004
 -16291990.13849 -12689568.88448  21749666.6264   21749669.5664   21749666.551
        54.0004         49.0004
  -1977190.59047  -1517381.30446  24587896.8344   24587904.6324   24587895.784
        43.0004         39.0004
 -22388424.99049 -17397496.45848  20739149.3674   20739149.9524   20739149.211
        56.0004         51.0004
 -11795794.52548  -8928432.94847  22712354.8674   22712357.5574   22712354.913
        49.0004         45.0004
 -11611422.32248  -9006096.03047  22788984.7304   22788985.9264   22788985.074
        50.0004         46.0004
 -17725313.75249 -13771567.50248  21853195.3544   21853200.1844   21853194.893
        54.0004         49.0004
 -11248961.94248  -8725970.36547  22918278.1544   22918283.5664   22918277.075
        50.0004         45.0004
 17  9  1  1 26 30.0000000  0  8G03G16G06G23G07G22G09G26
 -22435178.04549 -17440670.76648  21211579.9474   21211585.0594   21211579.173
        56.0004         51.0004
 -16294601.83549 -12691603.96748  21749169.9634   21749172.1924   21749169.938
        54.0004         49.0004
  -1958563.59247  -1502866.78046  24591441.8454   24591449.8334   24591440.281
        44.0004         39.0004
 -22399259.90249 -17405939.24848  20737087.5644   20737088.0204   20737087.515
        56.0004         51.0004
 -11874115.59948  -8989462.33147  22697450.5704   22697453.8684   22697450.322
        49.0004         45.0004
 -11511123.46548  -8927941.09947  22808070.7614   22808073.0854   22808071.607
        50.0004         45.0004
 -17785634.11549 -13818570.37548  21841716.8554   21841721.7504   21841716.319
        54.0004         49.0004
 -11189863.08048  -8679919.32347  22929523.2214   22929529.6784   22929523.147
        50.0004         45.0004
 17  9  1  1 27  0.0000000  0  8G03G16G06G23G07G22G09G26
 -22373375.84649 -17392513.22148  21223340.4124   21223345.6914   21223339.868
        56.0004         51.0004
 -16296640.91549 -12693192.85848  21748781.7814   21748784.4084   21748781.817
        54.0004         49.0004
  -1939466.05747  -1487985.60146  24595077.0084   24595083.3284   24595076.425
        44.0004         39.0004
 -22409808.23849 -17414158.73548  20735080.3984   20735080.6914   20735080.374
        56.0004         51.0004
 -11952153.09648  -9050270.74147  22682601.0394   22682603.8504   22682600.771
        50.0004         45.0004
 -11410583.37248  -8849598.19047  22827203.6944   22827204.9744   22827203.737
        50.0004         45.0004
 -17845820.33749 -13865468.72548  21830263.4894   21830268.5974   21830263.211
        54.0004         49.0004
 -11130289.33348  -8633498.24247  22940860.4864   22940866.0874   22940860.212
        50.0004         45.0004
 17  9  1  1 27 30.0000000  0  8G03G16G06G23G07G22G09G26
 -22311086.65649 -17343976.20748  21235194.0854   21235198.9754   21235193.089
        56.0004         51.0004
 -16298107.06749 -12694335.31048  21748502.8134   21748505.4614   21748502.694
        54.0004         49.0004
  -1919899.29847  -1472738.80646  24598799.4894   24598806.2594   24598799.231
        43.0004         39.0004
 -22420069.30549 -17422154.36948  20733127.7604   20733128.2194   20733127.717
        56.0004         51.0004
 -12029906.08248  -9110857.46247  22667805.5714   22667808.1994   22667804.583
        50.0004         45.0004
 -11309804.09048  -8771068.89247  22846380.3134   22846382.6754   22846381.047
        50.0004         45.0004
 -17905870.95949 -13912261.41248  21818836.3914   21818841.3254   21818836.106
        54.0004         49.0004
 -11070242.37848  -8586708.41147  22952286.5074   22952292.8534   22952285.794
        50.0004         45.0004
 17  9  1  1 28  0.0000000  0  8G03G16G06G23G07G22G09G26
 -22248312.32349 -17295061.15548  21247139.3364   21247144.5184   21247138.483
        56.0004         51.0004
 -16299000.40749 -12695031.41448  21748332.6624   21748335.2504   21748332.983
        54.0004         49.0004
  -1899864.96947  -1457127.67746  24602612.5354   24602616.9964   24602613.087
        43.0004         39.0004
 -22430042.29149 -17429925.52648  20731229.9704   20731230.3214   20731230.051
        56.0004         51.0004
 -12107373.84248  -9171221.92547  22653063.9814   22653067.0624   22653063.663
        50.0004         45.0004
 -11208788.08548  -8692355.14547  22865603.2984   22865605.2364   22865604.482
        50.0004         46.0004
 -17965785.00049 -13958947.67448  21807435.1554   21807439.8624   21807434.664
        54.0004         49.0004
 -11009724.38648  -8539551.54447  22963802.7014   22963809.1444   22963802.750
        49.0004         45.0004
 17  9  1  1 28 30.0000000  0  8G03G16G06G23G07G22G09G26
 -22185054.73849 -17245769.54548  21259177.1024   21259181.9564   21259176.367
        56.0004         51.0004
 -16299321.08849 -12695281.29248  21748271.6384   21748274.4384   21748271.751
        54.0004         49.0004
  -1879364.84547  -1441153.56046  24606513.8934   24606519.8724   24606512.760
        43.0004         39.0004
 -22439726.55749 -17437471.71048  20729387.0344   20729387.4524   20729387.036
        56.0004         51.0004
 -12184556.08948  -9231363.91247  22638376.2684   22638379.1444   22638375.671
        50.0004         45.0004
 -11107538.03448  -8613459.03147  22884870.4444   22884872.7304   22884871.161
        50.0004         45.0004
 -18025561.46549 -14005526.73248  21796060.3004   21796065.4004   21796059.809
        54.0004         49.0004
 -10948737.54748  -8492029.35547  22975408.6364   22975414.0424   22975407.884
        49.0004         45.0004
 17  9  1  1 29  0.0000000  0  8G03G16G06G23G07G22G09G26
 -22121315.36649 -17196102.51048  21271305.9804   21271311.3044   21271305.250
        56.0004         51.0004
 -16299068.55649 -12695084.51248  21748319.6674   21748322.2134   21748319.792
        54.0004         49.0004
  -1858400.29147  -1424817.56846  24610502.6584   24610509.2114   24610502.653
        43.0004         39.0004
 -22449120.98349 -17444792.04248  20727599.2684   20727599.9134   20727599.377
        56.0004         51.0004
 -12261452.02648  -9291282.79847  22623742.7804   22623746.2164   22623742.901
        50.0004         46.0004
 -11006056.31948  -8534382.39247  22904182.0414   22904183.9834   22904182.889
        50.0004         46.0004
 -18085198.86649 -14051997.42648  21784711.4804   21784716.1514   21784711.079
        54.0004         49.0004
 -10887283.64748  -8444143.21647  22987102.4534   22987109.0364   22987102.070
        49.0004         45.0004
 17  9  1  1 29 30.0000000  0  8G03G16G06G23G07G22G09G26
 -22057096.29149 -17146061.68748  21283526.4544   21283531.6624   21283525.893
        55.0004         51.0004
 -16298243.14049 -12694441.32648  21748476.7694   21748479.4334   21748476.974
        54.0004         49.0004
  -1836973.21147  -1408121.17446  24614578.7854   24614585.6554   24614578.298
        43.0004         38.0004
 -22458225.16649 -17451886.20848  20725866.9334   20725867.3814   20725866.911
        56.0004         51.0004
 -12338061.50748  -9350978.47847  22609165.2314   22609168.5334   22609164.643
        50.0004         46.0004
 -10904345.73148  -8455127.41547  22923536.6074   22923538.9784   22923537.458
        50.0004         46.0004
 -18144696.36449 -14098359.10748  21773389.1904   21773394.4154   21773388.947
        54.0004         49.0004
 -10825365.03448  -8395894.96547  22998885.8924   22998892.0834   22998884.910
        49.0004         45.0004
 17  9  1  1 30  0.0000000  0  8G03G16G06G23G07G22G09G26
 -21992399.17449 -17095648.36748  21295837.9494   21295843.1874   21295837.442
        55.0004         51.0004
 -16296844.74449 -12693351.66148  21748742.9774   21748745.5154   21748743.042
        54.0004         49.0004
  -1815085.15047  -1391065.56646  24618745.3604   24618752.6984   24618744.188
        43.0004         39.0004
 -22467038.04349 -17458753.38648  20724189.8884   20724190.3374   20724189.861
        56.0004         51.0004
 -12414383.55248  -9410450.18247  22594641.7924   22594644.4574   22594640.816
        50.0004         46.0004
 -10802408.37948  -8375695.73347  22942935.0414   22942936.7444   22942935.550
        50.0004         46.0004
 -18204052.66749 -14144610.76848  21762094.4114   21762099.3164   21762093.672
        54.0004         49.0004
 -10762983.72948  -8347286.17347  23010755.9824   23010762.3114   23010756.019
        49.0004         45.0004
 17  9  1  1 30 30.0000000  0  8G03G16G06G23G07G22G09G26
 -21927225.83549 -17044863.95948  21308240.2094   21308245.5914   21308239.343
        55.0004         51.0004
 -16294873.19349 -12691815.37948  21749118.1764   21749120.8284   21749118.036
        54.0004         49.0004
  -1792737.76147  -1373652.03646  24622997.9904   24623005.8984   24622996.674
        43.0004         39.0004
 -22475558.92249 -17465393.03048  20722568.3514   20722568.9284   20722568.267
        56.0004         51.0004
 -12490417.78348  -9469697.61147  22580172.6774   22580175.8214   22580172.110
        50.0004         46.0004
 -10700246.92948  -8296089.44547  22962375.9724   22962377.4594   22962376.367
        50.0004         46.0004
 -18263266.61649 -14190751.50148  21750826.3624   21750831.1944   21750826.000
        54.0004         49.0004
 -10700141.79148  -8298318.43547  23022714.0994   23022720.7874   23022713.621
        49.0004         45.0004
 17  9  1  1 31  0.0000000  0  8G03G16G06G23G07G22G09G26
 -21861578.06749 -16993709.86748  21320732.4334   21320737.9074   21320731.780
        55.0004         51.0004
 -16292328.26549 -12689832.31048  21749602.2824   21749605.0384   21749602.446
        54.0004         49.0004
  -1769932.75247  -1355881.94546  24627337.7194   24627344.6704   24627336.454
        44.0004         39.0004
 -22483786.89249 -17471804.43448  20721002.4904   20721003.1884   20721002.582
        56.0004         51.0004
 -12566163.39948  -9528720.14847  22565758.5644   22565762.0724   22565758.405
        50.0004         46.0004
 -10597864.09948  -8216310.63547  22981858.9084   22981861.0494   22981859.068
        50.0004         46.0004
 -18322336.96549 -14236780.33848  21739585.6504   21739590.5924   21739585.076
        54.0004         49.0004
 -10636841.32148  -8248993.41447  23034760.0714   23034766.6084   23034760.178
        49.0004         45.0004
 17  9  1  1 31 30.0000000  0  8G03G16G06G23G07G22G09G26
 -21795457.85949 -16942187.64048  21333314.6264   21333319.9604   21333314.052
        55.0004         51.0004
 -16289210.56249 -12687402.92848  21750195.2394   21750198.2824   21750195.594
        54.0004         49.0004
  -1746671.92747  -1337756.69446  24631764.9204   24631769.4304   24631765.035
        44.0004         39.0004
 -22491721.41749 -17477987.18448  20719492.7344   20719493.2924   20719492.731
        56.0004         51.0004
 -12641620.18848  -9587517.62447  22551399.8964   22551402.7944   22551399.742
        50.0004         46.0004
 -10495262.16348  -8136361.11047  23001383.5614   23001385.3314   23001383.694
        50.0004         45.0004
 -18381262.67049 -14282696.46648  21728372.4034   21728377.1404   21728372.226
        54.0004         50.0004
 -10573084.54948  -8199312.82647  23046892.7774   23046899.2364   23046892.507
        49.0004         45.0004
 17  9  1  1 32  0.0000000  0  8G03G16G06G23G07G22G09G26
 -21728867.03049 -16890298.70448  21345986.6224   21345991.8834   21345985.854
        55.0004         51.0004
 -16285519.91449 -12684527.10048  21750897.9104   21750900.2214   21750897.962
        54.0004         49.0004
  -1722957.07347  -1319277.55246  24636278.3274   24636284.6674   24636277.325
        44.0004         40.0004
 -22499361.42649 -17483940.44048  20718039.0374   20718039.4004   20718038.856
        56.0004         51.0004
 -12716787.55648  -9646089.58447  22537095.5674   22537098.8004   22537095.548
        50.0004         46.0004
 -10392443.40348  -8056242.62047  23020949.3354   23020951.1984   23020949.162
        50.0004         45.0004
 -18440042.48249 -14328498.90948  21717186.8644   21717191.8074   21717186.639
        54.0004         50.0004
 -10508873.61248  -8149278.34147  23059112.1764   23059118.2704   23059111.889
        49.0004         45.0004
 17  9  1  1 32 30.0000000  0  8G03G16G06G23G07G22G09G26
 -21661807.35749 -16838044.42748  21358747.8324   21358752.6304   21358746.864
        55.0004         51.0004
 -16281256.62249 -12681205.05148  21751709.0534   21751711.9184   21751709.393
        54.0004         49.0004
  -1698789.71247  -1300445.87046  24640872.4644   24640885.6594   24640871.331
        44.0004         40.0004
 -22506706.20149 -17489663.64348  20716641.2824   20716641.8384   20716641.116
        56.0004         51.0004
 -12791664.66448  -9704435.36447  22522847.0494   22522849.6524   22522846.973
        50.0004         46.0004
 -10289410.45748  -7975957.24347  23040556.0014   23040558.0784   23040556.492
        50.0004         45.0004
 -18498675.12749 -14374186.67448  21706029.4174   21706034.4574   21706028.691
        54.0004         50.0004
 -10444210.53248  -8098891.54647  23071417.3764   23071423.3124   23071416.320
        49.0004         45.0004
 17  9  1  1 33  0.0000000  0  8G03G16G06G23G07G22G09G26
 -21594280.85649 -16785426.39448  21371597.6534   21371602.8124   21371596.779
        55.0004         51.0004
 -16276420.51349 -12677436.64948  21752629.3794   21752632.0814   21752629.433
        54.0004         49.0004
  -1674171.89947  -1281263.26046  24645562.0224   24645567.6354   24645562.290
        44.0004         40.0004
 -22513755.06449 -17495156.26348  20715299.5964   20715300.3804   20715299.853
        56.0004         51.0004
 -12866251.34848  -9762554.83347  22508653.3904   22508656.1824   22508653.471
        50.0004         46.0004
 -10186166.21948  -7895507.21447  23060201.9614   23060204.9264   23060202.704
        50.0004         45.0004
 -18557159.49149 -14419758.90348  21694900.2054   21694905.1354   21694899.751
        54.0004         50.0004
 -10379097.63848  -8048154.23947  23083807.2234   23083813.4534   23083805.986
        49.0004         45.0004
 17  9  1  1 33 30.0000000  0  8G03G16G06G23G07G22G09G26
 -21526289.48749 -16732446.12348  21384536.1374   21384541.2234   21384535.137
        55.0004         51.0004
 -16271011.83049 -12673222.08548  21753658.6894   21753661.4034   21753658.796
        54.0004         49.0004
  -1649105.37547  -1261730.86546  24650331.7404   24650336.5344   24650330.775
        45.0004         40.0004
 -22520507.54649 -17500417.94048  20714015.0484   20714015.3964   20714014.958
        56.0004         51.0004
 -12940547.15848  -9820447.63147  22494515.2864   22494518.4324   22494515.188
        50.0004         46.0004
 -10082713.03248  -7814894.37547  23079889.2434   23079890.8674   23079888.896
        50.0004         45.0004
 -18615494.38049 -14465214.65348  21683799.6244   21683804.4764   21683799.205
        54.0004         50.0004
 -10313537.08748  -7997068.10947  23096283.4524   23096289.1074   23096282.838
        49.0004         45.0004
 17  9  1  1 34  0.0000000  0  8G03G16G06G23G07G22G09G26
 -21457835.10749 -16679105.06548  21397562.5174   21397567.6654   21397561.534
        55.0004         51.0004
 -16265031.02949 -12668561.71948  21754796.9104   21754799.4414   21754796.971
        54.0004         49.0004
  -1623591.89147  -1241850.23046  24655183.2234   24655192.7444   24655182.859
        44.0004         39.0004
 -22526962.12849 -17505447.48848  20712786.8224   20712787.2764   20712786.762
        56.0004         51.0004
 -13014551.51748  -9878113.33647  22480433.8444   22480436.1024   22480432.982
        50.0004         46.0004
  -9979053.33048  -7734120.61147  23099614.5374   23099616.5474   23099615.089
        50.0004         45.0004
 -18673678.54049 -14510552.95048  21672727.4684   21672732.4294   21672726.931
        54.0004         50.0004
 -10247531.05148  -7945634.84547  23108843.2234   23108849.7934   23108843.705
        49.0004         45.0004
 17  9  1  1 34 30.0000000  0  8G03G16G06G23G07G22G09G26
 -21388919.63049 -16625404.71148  21410676.6114   21410681.6184   21410675.894
        55.0004         51.0004
 -16258477.95949 -12663455.42748  21756043.8134   21756046.3504   21756043.895
        54.0004         49.0004
  -1597633.23347  -1221622.75646  24660125.8344   24660134.5464   24660123.996
        45.0004         40.0004
 -22533118.41449 -17510244.59448  20711615.0114   20711615.5454   20711615.229
        56.0004         51.0004
 -13088263.84048  -9935551.47847  22466406.3614   22466408.9554   22466406.225
        50.0004         46.0004
  -9875189.77948  -7653187.99647  23119379.0574   23119381.0054   23119379.574
        50.0004         45.0004
 -18731710.68449 -14555772.79648  21661684.3644   21661689.1594   21661683.973
        54.0004         50.0004
 -10181081.68648  -7893856.14247  23121488.5214   23121494.3734   23121488.670
        49.0004         45.0004
 17  9  1  1 35  0.0000000  0  8G03G16G06G23G07G22G09G26
 -21319545.02649 -16571346.59348  21423878.0394   21423883.1174   21423877.355
        55.0004         51.0004
 -16251352.97949 -12657903.49648  21757399.7084   21757402.2334   21757399.609
        54.0004         49.0004
  -1571231.30347  -1201049.85246  24665149.7754   24665156.5034   24665150.410
        45.0004         41.0004
 -22538975.71849 -17514808.72848  20710500.5744   20710500.7774   20710500.383
        56.0004         51.0004
 -13161683.36248  -9992761.46447  22452435.1114   22452437.7134   22452434.874
        50.0004         46.0004
  -9771124.72748  -7572098.38147  23139181.9874   23139183.7784   23139182.056
        50.0004         45.0004
 -18789589.59049 -14600873.23848  21650670.4664   21650675.0834   21650670.076
        54.0004         50.0004
 -10114191.21848  -7841733.71347  23134217.0984   23134223.3354   23134216.568
        49.0004         45.0004
 17  9  1  1 35 30.0000000  0  8G03G16G06G23G07G22G09G26
 -21249713.42249 -16516932.37048  21437166.5634   21437171.8254   21437165.967
        55.0004         51.0004
 -16243656.41849 -12651906.17748  21758864.1894   21758866.8314   21758864.243
        54.0004         49.0004
  -1544388.06047  -1180133.03646  24670256.5794   24670263.6024   24670255.379
        45.0004         40.0004
 -22544533.14049 -17519139.19148  20709443.0924   20709443.4454   20709442.920
        56.0004         51.0004
 -13234810.55048 -10049743.66247  22438519.0324   22438521.1264   22438518.703
        50.0004         46.0004
  -9666860.83048  -7490853.82247  23159022.9514   23159025.3014   23159023.779
        49.0004         45.0004
 -18847314.13849 -14645853.39948  21639685.7234   21639690.8154   21639685.326
        54.0004         50.0004
 -10046861.98948  -7789269.39047  23147030.5364   23147035.9944   23147028.993
        49.0004         45.0004
 17  9  1  1 36  0.0000000  0  8G03G16G06G23G07G22G09G26
 -21179426.68349 -16462163.50048  21450541.7094   21450547.0674   21450540.765
        55.0004         50.0004
 -16235388.43049 -12645463.58948  21760437.7694   21760440.1634   21760437.798
        54.0004         49.0004
  -1517105.35647  -1158873.77846  24675447.7114   24675456.8734   24675446.524
        44.0004         40.0004
 -22549789.88749 -17523235.35648  20708442.6864   20708443.2274   20708442.781
        56.0004         51.0004
 -13307644.38748 -10106497.27647  22424658.7504   22424662.0804   22424658.496
        50.0004         46.0004
  -9562400.33548  -7409456.05547  23178900.5154   23178903.9154   23178900.948
        49.0004         45.0004
 -18904882.98349 -14690712.23148  21628730.6154   21628735.4784   21628730.456
        54.0004         50.0004
  -9979096.13948  -7736464.84347  23159924.5154   23159931.1374   23159925.037
        49.0004         45.0004
 17  9  1  1 36 30.0000000  0  8G03G16G06G23G07G22G09G26
 -21108686.86349 -16407041.58048  21464002.9544   21464008.3964   21464002.317
        55.0004         50.0004
 -16226549.41049 -12638576.03948  21762119.5264   21762122.2954   21762119.653
        54.0004         49.0004
  -1489385.02847  -1137273.54546  24680723.6484   24680731.9444   24680722.654
        45.0004         40.0004
 -22554745.10749 -17527096.57248  20707499.8394   20707500.4344   20707499.701
        56.0004         51.0004
 -13380184.33148 -10163021.89347  22410855.0464   22410858.7024   22410854.805
        50.0004         46.0004
  -9457746.08848  -7327907.32947  23198816.0944   23198819.0354   23198816.299
        49.0004         45.0004
 -18962294.88149 -14735448.77048  21617805.8684   21617810.5644   21617805.441
        54.0004         50.0004
  -9910895.95048  -7683321.85347  23172903.2074   23172909.5684   23172902.395
        49.0004         44.0004
 17  9  1  1 37  0.0000000  0  8G03G16G06G23G07G22G09G26
 -21037496.05849 -16351568.24548  21477550.1434   21477555.5864   21477549.486
        55.0004         50.0004
 -16217139.61749 -12631243.73048  21763910.3724   21763913.0604   21763910.585
        54.0004         49.0004
  -1461229.08047  -1115333.90546  24686083.8144   24686087.1774   24686084.578
        44.0004         40.0004
 -22559398.18349 -17530722.35148  20706614.1154   20706614.7244   20706614.125
        56.0004         51.0004
 -13452430.30648 -10219317.44147  22397107.3974   22397110.1734   22397107.011
        50.0004         46.0004
  -9352900.53048  -7246209.52247  23218768.2644   23218769.3204   23218767.627
        49.0004         45.0004
 -19019548.62249 -14780062.06848  21606910.4844   21606915.3734   21606910.318
        55.0004         50.0004
  -9842263.72448  -7629842.21247  23185963.3824   23185969.7214   23185963.276
        49.0004         44.0004
 17  9  1  1 37 30.0000000  0  8G03G16G06G23G07G22G09G26
 -20965856.15249 -16295744.96448  21491182.9734   21491187.8914   21491182.035
        55.0004         50.0004
 -16207159.48849 -12623467.00448  21765809.5924   21765812.2774   21765809.373
        54.0004         49.0004
  -1432639.34547  -1093056.19846  24691525.8314   24691530.2024   24691523.547
        44.0004         40.0004
 -22563748.36549 -17534112.10948  20705786.3494   20705787.0164   20705786.552
        56.0004         51.0004
 -13524381.40048 -10275383.21947  22383415.4714   22383418.2504   22383415.188
        50.0004         46.0004
  -9247866.02248  -7164364.49047  23238754.8674   23238757.7124   23238755.398
        49.0004         45.0004
 -19076642.84649 -14824551.06848  21596045.9534   21596050.7924   21596045.766
        55.0004         50.0004
  -9773201.68848  -7576027.64647  23199105.7474   23199112.2134   23199105.134
        49.0004         44.0004
 17  9  1  1 38  0.0000000  0  8G03G16G06G23G07G22G09G26
 -20893769.33049 -16239573.43448  21504900.6144   21504905.8254   21504899.729
        55.0004         50.0004
 -16196609.24449 -12615246.03248  21767816.9674   21767819.7984   21767817.108
        54.0004         49.0004
  -1403617.94247  -1070442.09446  24697042.3484   24697049.9534   24697042.432
        44.0004         40.0004
 -22567794.80649 -17537265.17848  20705016.5244   20705016.8164   20705016.291
        56.0004         51.0004
 -13596037.23548 -10331218.92447  22369779.5414   22369783.2224   22369779.529
        51.0004         46.0004
  -9142645.34048  -7082374.38347  23258777.6084   23258780.0724   23258778.292
        49.0004         45.0004
 -19133576.32949 -14868914.81648  21585211.9134   21585216.5344   21585211.472
        55.0004         50.0004
  -9703712.07348  -7521879.91647  23212329.4474   23212335.0104   23212328.949
        49.0004         44.0004
 17  9  1  1 38 30.0000000  0  9G03G16G06G23G07G22G30G09G26
 -20821237.73049 -16183055.32848  21518702.6564   21518708.0864   21518702.318
        55.0004         50.0004
 -16185489.50849 -12606581.30248  21769932.7914   21769935.4664   21769933.364
        54.0004         49.0004
  -1374166.72047  -1047493.17946  24702651.4924   24702655.2074   24702652.911
        44.0004         40.0004
 -22571536.75449 -17540180.98748  20704304.3164   20704304.8804   20704304.220
        56.0004         51.0004
 -13667397.76548 -10386824.50547  22356201.1004   22356203.1624   22356200.141
        51.0004         46.0004
  -9037241.07148  -7000241.21947  23278835.2944   23278837.6184   23278836.418
        49.0004         44.0004
   -411961.68257   -277410.94356  25505241.2575   25505248.2585   25505242.413
        43.0004         37.0004
 -19190347.85749 -14913152.36748  21574408.4964   21574413.3164   21574408.116
        55.0004         50.0004
  -9633797.29848  -7467400.89147  23225632.9964   23225640.5384   23225632.927
        49.0004         44.0004
 17  9  1  1 39  0.0000000  0  9G03G16G06G23G07G22G30G09G26
 -20748263.33949 -16126192.18948  21532589.4894   21532594.6714   21532588.766
        55.0004         50.0004
 -16173800.70649 -12597473.13848  21772157.0274   21772160.0334   21772157.447
        54.0004         49.0004
  -1344287.73147  -1024210.81946  24708333.7644   24708342.9214   24708331.094
        44.0004         39.0004
 -22574973.28349 -17542858.80348  20703650.6474   20703650.9504   20703650.391
        56.0004         51.0004
 -13738462.61448 -10442199.70047  22342678.0164   22342679.9944   22342677.113
        51.0004         46.0004
  -8931655.76648  -6917966.99747  23298928.4164   23298929.6994   23298928.756
        49.0004         45.0004
   -502687.63646   -348106.40246  25487977.0244   25487983.6304   25487977.328
        41.0004         36.0004
 -19246956.05949 -14957262.64848  21563636.4694   21563641.1514   21563636.032
        55.0004         50.0004
  -9563459.61348  -7412592.30947  23239018.0244   23239024.0424   23239017.068
        49.0004         44.0004
 17  9  1  1 39 30.0000000  0  9G03G16G06G23G07G22G30G09G26
 -20674848.26749 -16068985.66448  21546560.1574   21546565.2154   21546559.400
        55.0004         50.0004
 -16161542.91749 -12587921.61448  21774489.8584   21774492.7114   21774489.889
        54.0004         49.0004
  -1313983.00447  -1000596.73746  24714103.3494   24714109.2394   24714103.563
        45.0004         40.0004
 -22578103.65749 -17545298.06048  20703054.9214   20703055.2624   20703054.846
        56.0004         51.0004
 -13809231.12248 -10497343.98347  22329210.6774   22329212.9434   22329210.077
        51.0004         46.0004
  -8825891.61348  -6835553.41247  23319054.0114   23319056.6084   23319054.184
        49.0004         44.0004
   -593290.51946   -418706.09145  25470738.9054   25470743.1784   25470737.796
        40.0004         35.0004
 -19303399.64549 -15001244.66348  21552895.5074   21552900.3024   21552895.053
        55.0004         50.0004
  -9492701.28948  -7357455.98147  23252483.2404   23252489.3204   23252482.728
        49.0004         44.0004
 17  9  1  1 40  0.0000000  0  9G03G16G06G23G07G22G30G09G26
 -20600994.63849 -16011437.40448  21560613.9284   21560618.8694   21560613.255
        55.0004         50.0004
 -16148716.96949 -12577927.36648  21776930.3654   21776933.1464   21776930.824
        54.0004         49.0004
  -1283254.46047   -976652.46946  24719947.8874   24719956.4184   24719947.695
        45.0004         40.0004
 -22580927.38049 -17547498.36648  20702517.1704   20702517.8584   20702517.487
        56.0004         51.0004
 -13879702.81748 -10552256.96547  22315800.1434   22315802.7224   22315799.517
        51.0004         46.0004
  -8719951.67648  -6753002.83947  23339214.2904   23339216.9674   23339214.619
        49.0004         45.0004
   -683769.66246   -489209.25446  25453520.0004   25453527.0754   25453520.663
        41.0004         36.0004
 -19359677.32549 -15045097.39248  21542186.2234   21542190.9574   21542185.708
        55.0004         50.0004
  -9421524.68448  -7301993.70147  23266027.6894   23266034.2824   23266027.436
        49.0004         44.0004
 17  9  1  1 40 30.0000000  0  8G03G16G06G23G07G22G09G26
 -20526704.72749 -15953549.18448  21574750.6024   21574756.0324   21574749.889
        55.0004         50.0004
 -16135323.42449 -12567490.83248  21779479.2344   21779481.9494   21779479.499
        54.0004         49.0004
  -1252104.33447   -952379.68446  24725876.6894   24725883.8764   24725875.165
        44.0004         39.0004
 -22583443.25349 -17549458.79048  20702038.6224   20702039.1984   20702038.733
        56.0004         51.0004
 -13949877.81448 -10606938.76047  22302446.3604   22302448.8994   22302445.510
        51.0004         46.0004
  -8613838.15148  -6670317.02747  23359407.3714   23359408.9244   23359407.310
        49.0004         44.0004
 -19415787.89049 -15088819.90748  21531508.5724   21531513.6804   21531508.285
        55.0004         50.0004
  -9349932.23048  -7246207.39047  23279652.0564   23279657.6274   23279651.058
        49.0004         44.0004
 17  9  1  1 41  0.0000000  0  8G03G16G06G23G07G22G09G26
 -20451980.44549 -15895322.49148  21588970.2134   21588975.5934   21588969.522
        55.0004         50.0004
 -16121362.47349 -12556612.16348  21782135.7084   21782138.4674   21782135.870
        54.0004         49.0004
  -1220534.41947   -927779.79846  24731885.4674   24731892.4054   24731885.416
        44.0004         40.0004
 -22585650.67549 -17551178.86048  20701618.6474   20701619.2274   20701618.560
        56.0004         51.0004
 -14019755.14548 -10661388.61647  22289149.4814   22289151.6234   22289148.914
        51.0004         47.0004
  -8507553.44348  -6587497.80447  23379631.6634   23379634.5684   23379632.336
        49.0004         44.0004
 -19471729.84349 -15132411.03648  21520863.2714   21520867.9924   21520863.143
        55.0004         50.0004
  -9277926.06248  -7190098.71147  23293353.7794   23293359.6224   23293352.563
        49.0004         44.0004
 17  9  1  1 41 30.0000000  0  8G03G16G06G23G07G22G09G26
 -20376824.17049 -15836759.18248  21603272.2194   21603276.9984   21603271.662
        55.0004         50.0004
 -16106834.79549 -12545291.89148  21784900.7874   21784903.3204   21784900.725
        54.0004         49.0004
  -1188547.08847   -902854.62846  24737972.9794   24737978.1764   24737972.454
        45.0004         40.0004
 -22587549.17149 -17552658.20748  20701257.3214   20701258.1434   20701257.354
        56.0004         51.0004
 -14089335.16748 -10715606.80247  22275908.2074   22275911.3674   22275907.844
        51.0004         47.0004
  -8401100.38848  -6504547.40747  23399888.3184   23399891.6214   23399888.958
        49.0004         44.0004
 -19527502.05549 -15175869.90248  21510250.2934   21510255.0754   21510250.206
        55.0004         50.0004
  -9205508.75648  -7133669.65147  23307133.9414   23307139.5424   23307133.572
        49.0004         44.0004
 17  9  1  1 42  0.0000000  0  9G03G16G06G23G07G22G04G09G26
 -20301237.90149 -15777860.80948  21617655.8294   21617660.7464   21617654.915
        55.0004         50.0004
 -16091740.81949 -12533530.35148  21787772.7914   21787775.4934   21787773.229
        54.0004         49.0004
  -1156144.23647   -877605.63546  24744139.0454   24744145.1054   24744139.648
        44.0004         40.0004
 -22589137.56249 -17553895.91748  20700955.1214   20700955.6644   20700955.099
        56.0004         51.0004
 -14158616.94848 -10769592.58947  22262724.8974   22262726.9704   22262724.213
        51.0004         47.0004
  -8294481.37548  -6421467.71847  23420178.3304   23420179.8954   23420178.719
        49.0004         44.0004
    -48641.76849    -33242.81946  24967760.2654   24967765.7164   24967760.489
        55.0004         39.0004
 -19583103.00549 -15219195.31048  21499669.7674   21499674.5554   21499669.632
        55.0004         50.0004
  -9132682.45448  -7076921.90147  23320993.0774   23320999.2034   23320992.697
        49.0004         44.0004
 17  9  1  1 42 30.0000000  0  9G03G16G06G23G07G22G04G09G26
 -20225223.98849 -15718629.21148  21632120.8814   21632125.8954   21632119.990
        55.0004         50.0004
 -16076081.34249 -12521328.15748  21790752.5534   21790755.1604   21790752.814
        54.0004         49.0004
  -1123328.06047   -852034.60546  24750383.4154   24750388.8634   24750382.513
        44.0004         40.0004
 -22590415.56049 -17554891.76248  20700712.1234   20700712.2964   20700711.882
        56.0004         51.0004
 -14227600.13848 -10823345.69947  22249597.7844   22249600.2154   22249597.336
        51.0004         47.0004
  -8187699.03248  -6338260.72047  23440498.4624   23440500.2224   23440498.806
        49.0004         44.0004
   -105511.60348    -77557.05346  24956938.9294   24956943.3054   24956938.723
        49.0004         39.0004
 -19638531.53049 -15262386.36348  21489122.0574   21489126.8014   21489121.408
        55.0004         50.0004
  -9059449.70848  -7019857.44247  23334928.5184   23334934.8424   23334927.703
        49.0004         44.0004
 17  9  1  1 43  0.0000000  0  9G03G16G06G23G07G22G04G09G26
 -20148784.54249 -15659066.02748  21646666.7544   21646671.9604   21646666.070
        55.0004         50.0004
 -16059856.99549 -12508685.80648  21793840.0644   21793842.7344   21793840.263
        54.0004         49.0004
  -1090100.58047   -826143.12146  24756706.3284   24756710.8694   24756705.696
        44.0004         39.0004
 -22591382.04649 -17555644.86648  20700528.0284   20700528.5724   20700527.946
        56.0004         51.0004
 -14296284.72848 -10876866.12047  22236527.5024   22236530.1724   22236526.685
        51.0004         47.0004
  -8080755.87648  -6254928.43147  23460849.8984   23460851.1674   23460849.709
        49.0004         44.0004
   -162176.55247   -121711.49946  24946156.2944   24946160.6224   24946155.894
        46.0004         40.0004
 -19693786.19949 -15305441.94948  21478607.5494   21478612.2024   21478606.970
        55.0004         50.0004
  -8985812.78248  -6962478.03447  23348940.6034   23348946.5744   23348940.486
        49.0004         44.0004
 17  9  1  1 43 30.0000000  0  9G03G16G06G23G07G22G04G09G26
 -20071921.80849 -15599173.01048  21661293.1464   21661298.7464   21661292.780
        55.0004         50.0004
 -16043068.45149 -12495603.81748  21797034.7374   21797037.6294   21797034.691
        54.0004         49.0004
  -1056464.05847   -799932.84446  24763107.0104   24763113.6814   24763107.086
        44.0004         40.0004
 -22592036.36949 -17556154.73048  20700403.4534   20700403.9174   20700403.523
        56.0004         51.0004
 -14364669.92048 -10930153.26547  22223513.7634   22223516.6504   22223513.751
        52.0004         47.0004
  -7973654.55048  -6171472.89747  23481229.7614   23481232.7644   23481229.822
        49.0004         44.0004
   -218633.84347   -165704.19246  24935413.0754   24935417.8344   24935412.891
        46.0004         41.0004
 -19748865.73349 -15348361.05848  21468125.9754   21468130.7814   21468125.463
        55.0004         50.0004
  -8911774.16148  -6904785.61647  23363029.5954   23363036.0934   23363028.909
        49.0004         44.0004
 17  9  1  1 44  0.0000000  0  9G03G16G06G23G07G22G04G09G26
 -19994638.07049 -15538951.94148  21675999.9654   21676005.1734   21675998.936
        54.0004         50.0004
 -16025716.00249 -12482082.42648  21800336.5724   21800339.5684   21800336.921
        54.0004         49.0004
  -1022420.64347   -773405.55446  24769586.6324   24769591.1034   24769586.645
        44.0004         39.0004
 -22592377.97349 -17556420.91848  20700338.4234   20700339.0594   20700338.195
        56.0004         51.0004
 -14432755.77548 -10983207.16547  22210557.8024   22210560.6644   22210557.422
        52.0004         47.0004
  -7866397.63848  -6087896.13047  23501639.4504   23501641.7414   23501640.404
        48.0004         43.0004
   -274880.75247   -209532.92246  24924709.2354   24924713.2784   24924708.523
        45.0004         39.0004
 -19803768.74849 -15391142.62548  21457678.3304   21457683.2504   21457678.144
        55.0004         51.0004
  -8837336.20048  -6846782.03947  23377195.1964   23377201.7674   23377193.957
        48.0004         44.0004
 17  9  1  1 44 30.0000000  0  9G03G16G06G23G07G22G04G09G26
 -19916935.50949 -15478404.51648  21690786.2864   21690791.4864   21690785.247
        54.0004         50.0004
 -16007800.61849 -12468122.39448  21803746.1084   21803748.7984   21803746.014
        54.0004         49.0004
   -987972.41347   -746562.78646  24776141.7554   24776147.2894   24776139.892
        44.0004         39.0004
 -22592405.70549 -17556442.52948  20700333.4294   20700333.6114   20700333.367
        56.0004         51.0004
 -14500541.92848 -11036027.52347  22197658.2074   22197660.7184   22197658.209
        52.0004         47.0004
  -7758987.61048  -6004200.04147  23522080.1974   23522081.6064   23522080.610
        48.0004         44.0004
   -330914.86747   -253195.78646  24914046.0074   24914049.8354   24914045.560
        43.0004         37.0004
 -19858493.86349 -15433785.56848  21447264.8154   21447269.4224   21447264.229
        55.0004         51.0004
  -8762501.28448  -6788469.14747  23391435.9354   23391442.4324   23391434.707
        48.0004         44.0004
 17  9  1  1 45  0.0000000  0  9G03G16G06G23G07G22G04G09G26
 -19838816.41149 -15417532.51548  21705651.6494   21705657.1534   21705650.941
        54.0004         50.0004
 -15989323.12749 -12453724.34848  21807262.2294   21807265.1364   21807262.346
        54.0004         49.0004
   -953121.58947   -719406.31646  24782771.8754   24782779.3644   24782772.144
        44.0004         39.0004
 -22592118.64749 -17556218.84948  20700387.8524   20700388.4954   20700387.773
        56.0004         51.0004
 -14568028.26248 -11088614.25147  22184816.1294   22184819.1154   22184815.502
        52.0004         47.0004
  -7651426.82548  -5920386.47747  23542547.4234   23542549.6994   23542548.022
        48.0004         44.0004
   -386733.28147   -296690.65346  24903423.6444   24903426.1574   24903423.157
        43.0004         38.0004
 -19913039.73549 -15476288.84048  21436885.2774   21436889.7944   21436884.554
        55.0004         51.0004
  -8687271.85248  -6729848.82147  23405751.4984   23405757.3624   23405751.218
        48.0004         44.0004
 17  9  1  1 45 30.0000000  0  9G03G16G06G23G07G22G04G09G26
 -19760282.94849 -15356337.63248  21720595.9694   21720601.4014   21720595.267
        54.0004         50.0004
 -15970283.88549 -12438888.57648  21810885.4964   21810887.9574   21810885.291
        54.0004         49.0004
   -917870.29647   -691937.83646  24789479.3624   24789487.0644   24789478.060
        44.0004         39.0004
 -22591516.56149 -17555749.69148  20700502.5884   20700502.8344   20700502.454
        56.0004         51.0004
 -14635214.31048 -11140967.00447  22172030.5834   22172033.7764   22172030.498
        52.0004         47.0004
  -7543717.86948  -5836457.46447  23563043.7784   23563046.3114   23563044.412
        48.0004         43.0004
   -442333.27847   -340015.34546  24892843.1054   24892848.6074   24892843.432
        44.0004         39.0004
 -19967404.91549 -15518651.31248  21426539.5754   21426543.9664   21426539.052
        55.0004         51.0004
  -8611650.19148  -6670922.86947  23420141.2334   23420148.2534   23420141.613
        48.0004         44.0004
 17  9  1  1 46  0.0000000  0  9G03G16G06G23G07G22G04G09G26
 -19681337.60249 -15294821.80048  21735618.8464   21735624.4104   21735618.245
        54.0004         50.0004
 -15950683.88149 -12423615.84648  21814614.8804   21814618.0044   21814615.156
        54.0004         49.0004
   -882220.98047   -664159.17046  24796263.6424   24796270.3664   24796263.428
        43.0004         39.0004
 -22590598.76449 -17555034.53048  20700677.0774   20700677.5784   20700677.083
        56.0004         51.0004
 -14702099.73348 -11193085.50447  22159303.0424   22159305.5814   22159302.704
        52.0004         47.0004
  -7435863.61348  -5752415.21447  23583567.6254   23583571.4724   23583568.183
        48.0004         43.0004
   -497712.39447   -383167.85546  24882305.2704   24882309.0994   24882305.097
        44.0004         39.0004
 -20021588.19649 -15560872.04848  21416228.9114   21416233.2294   21416228.469
        55.0004         51.0004
  -8535638.92248  -6611693.33947  23434606.8044   23434612.5954   23434605.458
        48.0004         44.0004
 17  9  1  1 46 30.0000000  0  9G03G16G06G23G07G22G04G09G26
 -19601982.52349 -15232986.70548  21750719.7794   21750725.2914   21750718.946
        54.0004         49.0004
 -15930523.89449 -12407906.76848  21818451.0774   21818453.8574   21818451.716
        54.0004         49.0004
   -846175.63647   -636071.94146  24803122.6394   24803130.1394   24803122.717
        44.0004         39.0004
 -22589364.25849 -17554072.58248  20700911.8964   20700912.5714   20700911.997
        56.0004         51.0004
 -14768684.35248 -11244969.60847  22146632.1234   22146635.3244   22146631.793
        52.0004         47.0004
  -7327866.32548  -5668261.54847  23604118.4144   23604121.7984   23604119.018
        48.0004         43.0004
   -552867.85347   -426146.16846  24871810.1124   24871814.6034   24871809.930
        44.0004         39.0004
 -20075588.04249 -15602949.84648  21405952.8294   21405957.7224   21405952.586
        55.0004         51.0004
  -8459240.33448  -6552161.99747  23449144.7934   23449151.3694   23449143.690
        48.0004         44.0004
 17  9  1  1 47  0.0000000  0  9G03G16G06G23G07G22G04G09G26
 -19522220.08649 -15170834.17748  21765897.9314   21765903.1134   21765897.434
        54.0004         49.0004
 -15909804.78249 -12391762.00448  21822394.2224   21822396.3764   21822393.986
        54.0004         49.0004
   -809736.67447   -607677.97546  24810057.0734   24810065.2514   24810056.176
        44.0004         39.0004
 -22587812.46349 -17552863.38848  20701207.0804   20701207.8904   20701207.274
        56.0004         51.0004
 -14834968.03248 -11296619.21447  22134018.6814   22134021.7244   22134018.776
        52.0004         47.0004
  -7219728.64447  -5583998.44747  23624697.3174   23624700.4794   23624698.555
        47.0004         43.0004
   -607797.07647   -468948.14846  24861356.4704   24861361.7824   24861356.298
        45.0004         40.0004
 -20129403.17749 -15644883.71248  21395712.3294   21395716.8464   21395711.980
        55.0004         51.0004
  -8382456.98048  -6492330.83247  23463755.4544   23463761.6604   23463754.882
        48.0004         43.0004
 17  9  1  1 47 30.0000000  0  9G03G16G06G23G07G22G04G09G26
 -19442052.65949 -15108366.07948  21781153.3144   21781158.8744   21781152.970
        54.0004         49.0004
 -15888527.07149 -12375181.97848  21826443.1834   21826445.7314   21826442.963
        54.0004         49.0004
   -772906.29347   -578979.04346  24817067.3834   24817073.2154   24817067.015
        44.0004         39.0004
 -22585942.41249 -17551406.21148  20701563.2394   20701563.8024   20701563.162
        56.0004         51.0004
 -14900950.29548 -11348033.96347  22121463.2014   22121465.9684   22121462.839
        52.0004         47.0004
  -7111453.34647  -5499628.11247  23645300.1664   23645303.3264   23645300.905
        47.0004         43.0004
   -662497.45247   -511571.75146  24850947.0694   24850952.6894   24850946.599
        44.0004         40.0004
 -20183032.18049 -15686672.54348  21385506.9904   21385511.6974   21385506.485
        55.0004         51.0004
  -8305291.32048  -6432201.76347  23478440.0124   23478447.0964   23478439.966
        48.0004         43.0004
 17  9  1  1 48  0.0000000  0  9G03G16G06G23G07G22G04G09G26
 -19361482.41349 -15045584.09348  21796485.3644   21796490.5934   21796484.773
        54.0004         49.0004
 -15866691.69949 -12358167.40848  21830598.3344   21830601.1764   21830598.256
        54.0004         49.0004
   -735686.63147   -549976.75046  24824147.9964   24824155.6584   24824148.116
        44.0004         39.0004
 -22583753.39549 -17549700.48648  20701979.6974   20701980.2184   20701979.697
        56.0004         51.0004
 -14966630.97948 -11399213.70447  22108964.4154   22108966.9924   22108963.803
        52.0004         47.0004
  -7003042.72247  -5415152.37747  23665930.8384   23665933.5374   23665931.721
        47.0004         43.0004
   -716966.26747   -554014.87946  24840582.2514   24840588.5274   24840581.559
        45.0004         40.0004
 -20236473.54649 -15728315.16348  21375337.2904   21375342.0624   21375337.086
        55.0004         51.0004
  -8227745.66548  -6371776.60847  23493196.5504   23493202.6744   23493196.338
        48.0004         43.0004
 17  9  1  1 48 30.0000000  0  9G03G16G06G23G07G22G04G09G26
 -19280511.89849 -14982490.20648  21811893.5684   21811898.7924   21811892.807
        54.0004         49.0004
 -15844299.76449 -12340719.15448  21834859.1034   21834862.0684   21834859.439
        54.0004         49.0004
   -698080.21847   -520673.09646  24831305.2334   24831313.2024   24831302.876
        44.0004         39.0004
 -22581244.80249 -17547745.74848  20702457.1044   20702457.7164   20702456.839
        56.0004         51.0004
 -15032009.77548 -11450158.20447  22096523.7154   22096525.5504   22096523.176
        52.0004         47.0004
  -6894499.11647  -5330572.98947  23686586.1324   23686588.2004   23686586.959
        47.0004         42.0004
   -771200.94847   -596275.63546  24830262.5194   24830266.1134   24830262.950
        45.0004         40.0004
 -20289726.05349 -15769810.62148  21365203.7294   21365208.2664   21365203.460
        55.0004         51.0004
  -8149822.67548  -6311057.41847  23508024.5344   23508031.2174   23508024.147
        48.0004         44.0004
 17  9  1  1 49  0.0000000  0  9G03G16G06G23G07G22G04G09G26
 -19199143.34449 -14919086.15948  21827377.6644   21827382.9944   21827376.958
        54.0004         49.0004
 -15821352.00549 -12322837.78748  21839226.0964   21839228.4454   21839226.286
        54.0004         49.0004
   -660089.21647   -491069.78146  24838535.3404   24838541.9934   24838534.272
        44.0004         39.0004
 -22578415.77649 -17545541.31448  20702995.2814   20702995.9274   20702995.500
        56.0004         51.0004
 -15097086.47848 -11500867.30347  22084139.4644   22084142.3514   22084139.231
        52.0004         47.0004
  -6785825.38047  -5245892.19047  23707265.8034   23707269.1344   23707266.519
        47.0004         42.0004
   -825198.89847   -638351.93646  24819985.7064   24819990.7934   24819986.040
        45.0004         40.0004
 -20342788.13449 -15811157.69548  21355106.3644   21355110.8484   21355106.241
        55.0004         51.0004
  -8071524.62548  -6250045.98447  23522924.5274   23522930.7424   23522924.391
        48.0004         44.0004
 17  9  1  1 49 30.0000000  0 10G03G16G06G23G07G22G30G04G09G26
 -19117379.14449 -14855373.81648  21842936.8864   21842941.9154   21842936.147
        54.0004         49.0004
 -15797849.55749 -12304524.19348  21843698.5094   21843701.2544   21843698.803
        54.0004         49.0004
   -621715.92847   -461168.57346  24845837.2024   24845844.7504   24845837.144
        44.0004         39.0004
 -22575265.85849 -17543086.83648  20703594.9584   20703595.5044   20703594.880
        56.0004         51.0004
 -15161861.14048 -11551341.05447  22071813.4494   22071815.8054   22071813.282
        52.0004         47.0004
  -6677024.09747  -5161112.01447  23727970.7154   23727973.3234   23727970.755
        47.0004         43.0004
                                                                  25131029.281

   -878957.38247   -680241.63946  24809757.6584   24809761.9854   24809757.516
        46.0004         41.0004
 -20395658.45449 -15852355.34348  21345045.4484   21345050.2974   21345045.216
        55.0004         51.0004
  -7992854.10148  -6188744.29847  23537895.6124   23537901.6194   23537893.904
        48.0004         44.0004
 17  9  1  1 50  0.0000000  0 10G03G16G06G23G07G22G30G04G09G26
 -19035221.71449 -14791355.06148  21858571.0094   21858576.0604   21858570.225
        54.0004         49.0004
 -15773792.84149 -12285778.70748  21848276.5964   21848278.9194   21848276.546
        54.0004         49.0004
   -582962.71747   -430971.30046  24853211.1334   24853218.3544   24853210.634
        44.0004         39.0004
 -22571794.08049 -17540381.56348  20704255.4784   20704255.8644   20704255.572
        56.0004         51.0004
 -15226333.25348 -11601579.04947  22059544.8224   22059547.0294   22059544.593
        52.0004         47.0004
  -6568097.43147  -5076234.15347  23748697.8374   23748700.9284   23748699.407
        47.0004         42.0004
                                                                  25114307.325

   -932473.90947   -721942.82146  24799572.6694   24799577.7294   24799572.432
        45.0004         40.0004
 -20448335.55749 -15893402.43548  21335021.2494   21335026.0514   21335020.953
        55.0004         51.0004
  -7913813.56948  -6127154.30447  23552935.9704   23552942.2484   23552935.708
        48.0004         43.0004
 17  9  1  1 50 30.0000000  0 10G03G16G06G23G07G22G30G04G09G26
 -18952673.47949 -14727031.78248  21874279.5054   21874284.5554   21874278.536
        54.0004         49.0004
 -15749183.15449 -12266602.32348  21852958.9494   21852962.3514   21852959.413
        54.0004         49.0004
   -543831.95747   -400479.84446  24860658.0374   24860664.7744   24860656.905
        44.0004         39.0004
 -22567999.74249 -17537424.94048  20704977.6534   20704978.1224   20704977.380
        56.0004         51.0004
 -15290502.48448 -11651581.02447  22047333.3564   22047336.0584   22047333.130
        52.0004         47.0004
  -6459048.41947  -4991260.94547  23769449.3294   23769452.4644   23769449.573
        46.0004         42.0004
   -203239.46057   -145126.88456  25097613.3585   25097619.6995   25097615.067
        47.0004         37.0004
   -985746.04847   -763453.55846  24789434.7114   24789440.0764   24789434.669
        44.0004         39.0004
 -20500818.08149 -15934297.90648  21325034.2114   21325038.9874   21325034.004
        55.0004         51.0004
  -7834405.54948  -6065277.94947  23568047.2164   23568053.6214   23568046.664
        48.0004         43.0004
 17  9  1  1 51  0.0000000  0 10G03G16G06G23G07G22G30G04G09G26
 -18869736.70848 -14662405.73948  21890061.5334   21890066.7794   21890060.941
        53.0004         49.0004
 -15724021.54749 -12246995.87848  21857747.4774   21857750.2424   21857747.537
        54.0004         49.0004
   -504325.93947   -369695.96146  24868174.3914   24868181.8264   24868174.786
        43.0004         39.0004
 -22563882.08449 -17534216.37848  20705761.0064   20705761.7734   20705761.023
        56.0004         51.0004
 -15354368.76248 -11701346.94247  22035180.2624   22035182.6784   22035180.144
        52.0004         47.0004
  -6349879.53147  -4906194.31547  23790224.0654   23790227.6204   23790224.899
        47.0004         42.0004
   -290828.85547   -213378.29546  25080945.1644   25080952.5774   25080946.810
        43.0004         37.0004
  -1038770.85147   -804771.51046  24779345.0264   24779350.0564   24779345.300
        44.0004         40.0004
 -20553104.47849 -15975040.55148  21315084.4414   21315089.1784   21315084.339
        55.0004         51.0004
  -7754632.42248  -6003117.08847  23583227.2834   23583233.6204   23583227.023
        48.0004         43.0004
 17  9  1  1 51 30.0000000  0 10G03G16G06G23G07G22G30G04G09G26
 -18786413.98248 -14597478.96048  21905917.3164   21905922.6414   21905916.766
        53.0004         49.0004
 -15698308.70248 -12226959.90248  21862640.4054   21862643.2014   21862640.482
        53.0004         49.0004
   -464447.08647   -338621.62546  24875764.6714   24875771.1264   24875764.760
        44.0004         39.0004
 -22559440.62149 -17530755.49948  20706606.1544   20706606.7674   20706606.330
        56.0004         51.0004
 -15417932.02648 -11750876.74147  22023084.7004   22023086.8844   22023084.482
        52.0004         47.0004
  -6240593.26947  -4821036.26547  23811020.9024   23811023.1644   23811021.550
        47.0004         42.0004
   -378279.85947   -281521.86446  25064303.2834   25064312.1044   25064304.302
        42.0004         37.0004
  -1091546.00347   -845894.94046  24769301.1964   24769307.2314   24769300.689
        45.0004         40.0004
 -20605193.40449 -16015629.32448  21305172.4174   21305176.9264   21305171.950
        56.0004         51.0004
  -7674496.83948  -5940673.80547  23598476.6064   23598482.8324   23598475.719
        48.0004         43.0004
 17  9  1  1 52  0.0000000  0 10G03G16G06G23G07G22G30G04G09G26
 -18702707.66748 -14532253.28048  21921846.2154   21921851.1334   21921845.413
        53.0004         49.0004
 -15672045.73048 -12206495.24748  21867637.8644   21867641.0204   21867638.314
        53.0004         49.0004
   -424197.75747   -307258.52046  24883423.6794   24883431.3884   24883421.919
        44.0004         39.0004
 -22554674.70649 -17527041.80148  20707513.2094   20707513.8184   20707513.130
        56.0004         51.0004
 -15481192.27748 -11800170.42447  22011046.6684   22011049.4384   22011046.358
        52.0004         47.0004
  -6131192.03247  -4735788.56947  23831839.1464   23831841.0174   23831839.441
        47.0004         42.0004
   -465591.86646   -349557.10046  25047689.2344   25047695.2584   25047690.260
        41.0004         37.0004
  -1144068.79347   -886821.72246  24759307.2324   24759312.2094   24759307.321
        45.0004         40.0004
 -20657083.40649 -16056063.08748  21295297.8364   21295302.6164   21295297.533
        56.0004         51.0004
  -7594001.24948  -5877949.98547  23613793.2734   23613799.8484   23613793.411
        48.0004         43.0004
 17  9  1  1 52 30.0000000  0 10G03G16G06G23G07G22G30G04G09G26
 -18618620.13148 -14466730.54548  21937847.7534   21937853.1074   21937846.668
        53.0004         49.0004
 -15645233.76848 -12185602.81248  21872740.2244   21872743.1634   21872740.272
        53.0004         49.0004
   -383580.30947   -275608.59646  24891152.6464   24891160.5104   24891153.108
        44.0004         39.0004
 -22549583.21849 -17523074.41248  20708482.2884   20708482.4664   20708482.192
        56.0004         51.0004
 -15544149.00948 -11849227.60347  21999065.9904   21999069.2394   21999065.282
        52.0004         47.0004
  -6021678.33947  -4650453.24447  23852678.9014   23852681.8134   23852679.660
        47.0004         42.0004
   -552764.19746   -417483.55146  25031100.4214   25031107.4034   25031101.202
        41.0004         36.0004
  -1196336.57447   -927549.87646  24749361.9714   24749365.1984   24749362.016
        46.0004         41.0004
 -20708772.94549 -16096340.64748  21285461.9394   21285466.2524   21285461.286
        56.0004         51.0004
  -7513148.04148  -5814947.51747  23629180.7094   23629186.2704   23629180.343
        48.0004         44.0004
 17  9  1  1 53  0.0000000  0 10G03G16G06G23G07G22G30G04G09G26
 -18534153.93848 -14400912.75048  21953921.2444   21953926.5614   21953920.054
        53.0004         49.0004
 -15617873.90548 -12164283.43548  21877946.8084   21877949.2144   21877946.952
        53.0004         49.0004
   -342597.27447   -243673.83346  24898951.8224   24898959.1824   24898950.447
        44.0004         39.0004
 -22544165.80849 -17518853.05148  20709512.9924   20709513.6494   20709513.006
        56.0004         51.0004
 -15606802.19548 -11898048.25547  21987143.7554   21987146.4624   21987143.213
        52.0004         47.0004
  -5912054.64347  -4565032.25647  23873539.1244   23873541.9354   23873540.274
        47.0004         42.0004
   -639796.43146   -485300.85846  25014540.7494   25014546.7514   25014540.157
        41.0004         36.0004
  -1248346.87247   -968077.38046  24739464.2644   24739470.2334   24739464.178
        45.0004         40.0004
 -20760260.67449 -16136460.94748  21275663.8694   21275668.7014   21275663.480
        56.0004         51.0004
  -7431939.90348  -5751668.47547  23644633.9254   23644639.3094   23644633.099
        48.0004         43.0004
 17  9  1  1 53 30.0000000  0 10G03G16G06G23G07G22G30G04G09G26
 -18449311.44248 -14334801.74348  21970065.6584   21970071.2234   21970065.053
        53.0004         48.0004
 -15589967.19948 -12142537.95048  21883257.1204   21883260.0534   21883257.180
        53.0004         49.0004
   -301250.92347   -211455.93246  24906819.2934   24906825.7694   24906817.691
        44.0004         39.0004
 -22538421.66249 -17514377.09948  20710606.1034   20710606.6304   20710606.022
        56.0004         51.0004
 -15669151.54248 -11946632.13947  21975278.8904   21975281.9894   21975278.561
        52.0004         47.0004
  -5802323.86447  -4479527.81647  23894421.3634   23894423.6904   23894421.467
        47.0004         42.0004
   -726687.82446   -553008.39146  24998004.4524   24998010.4794   24998005.523
        41.0004         37.0004
  -1300097.09147  -1008402.16646  24729615.7414   24729621.2114   24729615.943
        45.0004         40.0004
 -20811545.04849 -16176422.79648  21265904.7504   21265909.4204   21265904.567
        56.0004         51.0004
  -7350379.22048  -5688114.71347  23660153.7834   23660161.1494   23660153.021
        48.0004         43.0004
 17  9  1  1 54  0.0000000  0 10G03G16G06G23G07G22G30G04G09G26
 -18364095.24248 -14268399.53048  21986282.0144   21986287.5244   21986281.474
        53.0004         48.0004
 -15561514.78348 -12120367.23848  21888671.3274   21888674.0464   21888671.637
        53.0004         49.0004
   -259543.86247   -178956.92446  24914753.8984   24914763.5844   24914754.959
        43.0004         39.0004
 -22532350.14549 -17509646.05348  20711761.3164   20711762.0174   20711761.441
        56.0004         51.0004
 -15731197.16048 -11994979.35247  21963472.0104   21963474.8964   21963471.397
        52.0004         47.0004
  -5692488.43547  -4393941.79247  23915321.8894   23915324.1934   23915322.236
        46.0004         42.0004
   -813438.05247   -620605.96046  24981498.0964   24981503.0504   24981497.296
        42.0004         37.0004
  -1351584.87747  -1048522.52846  24719816.2284   24719822.8064   24719816.763
        44.0004         39.0004
 -20862624.74449 -16216225.15348  21256184.7604   21256189.3534   21256184.451
        56.0004         51.0004
  -7268468.69048  -5624288.35547  23675741.2214   23675747.6414   23675741.724
        48.0004         43.0004
 17  9  1  1 54 30.0000000  0 10G03G16G06G23G07G22G30G04G09G26
 -18278507.67648 -14201707.95248  22002569.0414   22002574.1974   22002568.049
        53.0004         48.0004
 -15532517.48848 -12097771.94748  21894189.6694   21894192.2344   21894189.741
        53.0004         49.0004
   -217478.35547   -146178.69546  24922761.4824   24922767.7614   24922761.201
        44.0004         39.0004
 -22525950.37649 -17504659.22648  20712979.4084   20712979.8024   20712979.299
        56.0004         51.0004
 -15792938.79248 -12043089.70447  21951722.9624   21951725.2974   21951722.717
        52.0004         47.0004
  -5582550.70647  -4308276.07947  23936242.5964   23936244.7534   23936242.672
        46.0004         42.0004
   -900046.39347   -688092.93146  24965015.4474   24965022.7434   24965015.985
        42.0004         38.0004
  -1402807.37047  -1088436.09546  24710070.7424   24710075.4904   24710070.528
        44.0004         40.0004
 -20913498.07049 -16255866.70448  21246503.9054   21246508.5764   21246503.433
        56.0004         51.0004
  -7186210.60848  -5560191.16047  23691395.1394   23691400.7744   23691393.517
        48.0004         43.0004
 17  9  1  1 55  0.0000000  0 11G03G16G06G23G27G07G22G30G04G09G26
 -18192551.36848 -14134729.04148  22018925.5734   22018931.2934   22018925.058
        53.0004         48.0004
 -15502976.84648 -12074753.26548  21899810.6414   21899813.6804   21899810.849
        53.0004         49.0004
   -175056.94947   -113123.05146  24930833.0434   24930841.7484   24930831.510
        43.0004         39.0004
 -22519221.78549 -17499416.17448  20714259.4264   20714260.0524   20714259.618
        56.0004         51.0004
                                                                  24890770.888

 -15854376.02748 -12090962.85347  21940031.8044   21940034.6144   21940031.626
        52.0004         47.0004
  -5472513.54047  -4222532.90947  23957181.5674   23957184.0114   23957182.251
        47.0004         42.0004
   -986512.43547   -755469.00246  24948562.8064   24948569.2944   24948561.698
        43.0004         38.0004
  -1453762.19347  -1128141.10846  24700373.9804   24700381.9504   24700374.897
        45.0004         40.0004
 -20964163.73649 -16295346.43948  21236862.4084   21236867.2444   21236862.045
        56.0004         51.0004
  -7103607.71848  -5495825.29947  23707113.1924   23707119.0604   23707112.993
        48.0004         43.0004
 17  9  1  1 55 30.0000000  0 11G03G16G06G23G27G07G22G30G04G09G26
 -18106228.72148 -14067464.66948  22035352.3614   22035357.7364   22035351.804
        53.0004         48.0004
 -15472893.91848 -12051312.02648  21905535.3704   21905538.4984   21905535.612
        53.0004         49.0004
   -132282.09247    -79792.02946  24938973.1904   24938978.9204   24938973.019
        43.0004         39.0004
 -22512163.67649 -17493916.35548  20715602.7874   20715603.3134   20715602.800
        56.0004         51.0004
                                                                  24877904.582

 -15915509.10248 -12138598.99848  21928398.8554   21928401.3444   21928398.151
        52.0004         48.0004
  -5362379.03147  -4136713.86347  23978140.2734   23978142.0414   23978140.662
        46.0004         42.0004
  -1072835.48847   -822733.70146  24932135.4524   24932142.0674   24932135.980
        43.0004         38.0004
  -1504446.68047  -1167635.49746  24690729.7704   24690734.9134   24690729.522
        45.0004         40.0004
 -21014620.17649 -16334663.14248  21227261.1264   21227265.7604   21227260.736
        56.0004         51.0004
  -7020662.43548  -5431192.64047  23722897.2754   23722903.6864   23722897.159
        48.0004         43.0004
 17  9  1  1 56  0.0000000  0 11G03G16G06G23G27G07G22G30G04G09G26
 -18019542.30248 -13999916.83548  22051848.5694   22051854.0604   22051847.906
        53.0004         48.0004
 -15442269.74648 -12027449.03548  21911363.0044   21911365.7934   21911363.093
        53.0004         49.0004
    -89156.31447    -46187.55346  24947179.9234   24947186.6934   24947179.939
        43.0004         39.0004
 -22504774.82949 -17488158.81648  20717008.9394   20717009.3704   20717008.753
        56.0004         51.0004
   -192935.42247   -118506.42346  24865066.2174   24865075.7664   24865066.266
        47.0004         38.0004
 -15976337.93548 -12185998.07548  21916823.8664   21916826.0974   21916823.458
        52.0004         48.0004
  -5252150.06847  -4050821.19947  23999115.4374   23999118.3684   23999116.354
        46.0004         42.0004
  -1159015.15847   -889886.66546  24915734.8644   24915740.8734   24915735.695
        43.0004         38.0004
  -1554858.51247  -1206917.41046  24681137.3674   24681142.1294   24681137.046
        45.0004         40.0004
 -21064865.92349 -16373815.66648  21217699.5764   21217704.2014   21217698.953
        56.0004         51.0004
  -6937377.32647  -5366295.16947  23738746.3174   23738752.8364   23738744.634
        47.0004         43.0004
 17  9  1  1 56 30.0000000  0 11G03G16G06G23G27G07G22G30G04G09G26
 -17932494.67148 -13932087.55048  22068412.6734   22068418.5194   22068412.483
        53.0004         48.0004
 -15411105.60848 -12003165.30048  21917293.4794   21917296.2264   21917293.752
        53.0004         49.0004
    -45682.09147    -12311.56846  24955452.9654   24955460.1714   24955452.048
        43.0004         38.0004
 -22497055.57849 -17482143.81948  20718477.8724   20718478.4154   20718477.831
        56.0004         51.0004
   -260244.84147   -170955.23646  24852257.5064   24852265.6764   24852257.320
        44.0004         38.0004
 -16036862.34148 -12233159.92448  21905305.9644   21905308.3544   21905305.196
        52.0004         48.0004
  -5141829.25247  -3964856.96947  24020108.7804   24020111.7794   24020109.664
        47.0004         42.0004
  -1245050.96247   -956927.51646  24899364.8994   24899369.6374   24899364.611
        43.0004         38.0004
  -1604994.98647  -1245984.76246  24671596.7724   24671600.9954   24671596.080
        44.0004         39.0004
 -21114899.54949 -16412802.90848  21208178.4314   21208183.1694   21208178.239
        56.0004         51.0004
  -6853755.04947  -5301134.97847  23754658.3054   23754664.9324   23754658.699
        47.0004         43.0004
 17  9  1  1 57  0.0000000  0 11G03G16G06G23G27G07G22G30G04G09G26
 -17845088.19948 -13863978.63448  22085046.2224   22085051.6034   22085045.150
        53.0004         48.0004
 -15379402.70848 -11978461.74848  21923326.6034   21923329.2914   21923326.514
        53.0004         49.0004
     -1861.83047     21834.06946  24963792.6764   24963798.2444   24963791.777
        43.0004         38.0004
 -22489004.89649 -17475870.56548  20720009.9034   20720010.2984   20720009.914
        56.0004         51.0004
   -327397.52047   -223281.91346  24839479.0944   24839486.3554   24839479.036
        44.0004         39.0004
 -16097081.69848 -12280084.09348  21893846.7894   21893849.1784   21893846.452
        52.0004         48.0004
  -5031418.65947  -3878822.81647  24041119.1044   24041121.1934   24041120.728
        47.0004         42.0004
  -1330942.21047  -1023855.71046  24883019.2364   24883025.2654   24883019.030
        43.0004         39.0004
  -1654853.58647  -1284835.59046  24662106.7354   24662112.5884   24662106.317
        44.0004         40.0004
 -21164719.42249 -16451623.58348  21198698.0824   21198702.8314   21198697.634
        56.0004         51.0004
  -6769797.96547  -5235713.89447  23770635.0804   23770641.3364   23770634.999
        47.0004         43.0004
 17  9  1  1 57 30.0000000  0 11G03G16G06G23G27G07G22G30G04G09G26
 -17757325.75848 -13795592.34348  22101746.6384   22101752.0874   22101745.991
        53.0004         48.0004
 -15347162.23148 -11953339.30648  21929461.3964   21929464.0644   21929461.584
        53.0004         49.0004
     42301.62447     56247.11446  24972194.6144   24972201.3484   24972195.566
        43.0004         39.0004
 -22480622.13149 -17469338.54648  20721605.0344   20721605.5114   20721605.073
        56.0004         51.0004
   -394390.81747   -275484.43346  24826731.4624   24826737.6014   24826731.160
        44.0004         40.0004
 -16156996.66248 -12326771.07248  21882445.2034   21882447.7014   21882445.141
        53.0004         48.0004
  -4920920.89147  -3792720.70547  24062146.7164   24062149.5904   24062147.376
        46.0004         42.0004
  -1416688.69447  -1090671.09946  24866701.8064   24866708.7594   24866701.164
        44.0004         39.0004
  -1704432.14347  -1323468.19946  24652675.1634   24652677.8454   24652673.500
        44.0004         39.0004
 -21214324.31849 -16490276.75048  21189258.6324   21189263.3874   21189258.205
        56.0004         51.0004
  -6685508.92147  -5170034.14747  23786674.9604   23786681.2004   23786674.043
        47.0004         43.0004
 17  9  1  1 58  0.0000000  0 11G03G16G06G23G27G07G22G30G04G09G26
 -17669209.40248 -13726930.27348  22118514.7804   22118520.1724   22118513.959
        53.0004         48.0004
 -15314385.52848 -11927799.02148  21935698.6764   21935701.4514   21935698.582
        53.0004         49.0004
     86806.27347     90926.03646  24980664.3694   24980670.7534   24980664.483
        43.0004         38.0004
 -22471906.27349 -17462546.97748  20723263.5634   20723264.0654   20723263.484
        56.0004         51.0004
   -461221.31447   -327560.17546  24814013.7344   24814019.9294   24814012.968
        44.0004         38.0004
 -16216606.68248 -12373220.41948  21871101.6034   21871104.1714   21871101.232
        53.0004         48.0004
  -4810338.61147  -3706552.72947  24083188.2124   24083192.2544   24083189.719
        46.0004         42.0004
  -1502289.41447  -1157372.92946  24850413.6414   24850419.5684   24850413.033
        44.0004         39.0004
  -1753727.57947  -1361880.20146  24643293.5704   24643298.6114   24643292.414
        44.0004         40.0004
 -21263712.29549 -16528760.88448  21179860.3304   21179865.0344   21179860.045
        56.0004         51.0004
  -6600890.05447  -5104097.40647  23802777.0294   23802783.5004   23802776.528
        47.0004         42.0004
 17  9  1  1 58 30.0000000  0 11G03G16G06G23G27G07G22G30G04G09G26
 -17580742.03048 -13657994.68648  22135349.7174   22135354.3124   22135348.642
        53.0004         48.0004
 -15281074.01248 -11901842.00348  21942037.7264   21942040.3784   21942037.648
        53.0004         49.0004
    131649.23347    125868.57846  24989199.2354   24989206.4734   24989198.627
        43.0004         38.0004
 -22462856.95449 -17455495.56348  20724985.6944   20724986.3354   20724985.684
        56.0004         51.0004
   -527886.34847   -379507.07346  24801327.7294   24801334.8004   24801327.655
        42.0004         37.0004
 -16275911.74448 -12419432.14048  21859816.5124   21859818.8934   21859816.115
        53.0004         48.0004
  -4699674.81747  -3620321.27247  24104248.7154   24104250.4404   24104249.074
        46.0004         42.0004
  -1587744.27147  -1223961.09646  24834151.5084   24834158.2084   24834150.677
        43.0004         39.0004
  -1802737.70647  -1400069.90646  24633967.3294   24633971.4534   24633966.827
        45.0004         40.0004
 -21312882.15849 -16567075.06248  21170503.6374   21170508.4014   21170503.146
        56.0004         51.0004
  -6515944.17647  -5037905.82947  23818942.2694   23818948.6924   23818942.115
        47.0004         43.0004
 17  9  1  1 59  0.0000000  0 11G03G16G06G23G27G07G22G30G04G09G26
 -17491926.23748 -13588787.59748  22152250.7544   22152255.7994   22152249.874
        53.0004         48.0004
 -15247229.09548 -11875469.34448  21948477.9824   21948480.6954   21948478.112
        53.0004         48.0004
    176827.88947    161072.67346  24997795.7114   24997801.6464   24997795.519
        43.0004         38.0004
 -22453473.59849 -17448183.86648  20726771.1074   20726771.7154   20726770.941
        56.0004         51.0004
   -594383.01247   -431322.64446  24788673.8504   24788678.5234   24788673.709
        42.0004         37.0004
 -16334912.04648 -12465406.39748  21848588.8434   21848591.5994   21848588.840
        53.0004         48.0004
  -4588931.55447  -3534027.88346  24125322.3694   24125324.2124   24125322.282
        46.0004         41.0004
  -1673052.76547  -1290435.19546  24817919.0824   24817925.5914   24817918.131
        44.0004         39.0004
  -1851460.19847  -1438035.44946  24624694.5724   24624700.1474   24624694.620
        45.0004         40.0004
 -21361832.41049 -16605218.11448  21161188.6854   21161193.5164   21161188.284
        56.0004         51.0004
  -6430673.99247  -4971461.57047  23835168.8764   23835174.9114   23835168.090
        47.0004         43.0004
 17  9  1  1 59 30.0000000  0 11G03G16G06G23G27G07G22G30G04G09G26
 -17402764.48648 -13519310.93748  22169217.5874   22169222.9444   22169216.518
        53.0004         48.0004
 -15212851.76848 -11848681.82648  21955019.4234   21955022.8764   21955019.840
        53.0004         48.0004
    222339.82747    196536.50346  25006455.0004   25006463.7244   25006455.002
        43.0004         38.0004
 -22443755.35949 -17440611.22148  20728620.4984   20728621.0364   20728620.677
        56.0004         51.0004
   -660708.27847   -483004.53646  24776053.2684   24776059.6764   24776052.850
        43.0004         39.0004
 -16393607.59148 -12511143.17448  21837419.6104   21837421.9764   21837419.450
        53.0004         48.0004
  -4478111.35547  -3447674.53846  24146410.2904   24146413.8404   24146411.437
        46.0004         41.0004
  -1758214.28547  -1356794.79846  24801711.4594   24801718.4084   24801711.371
        44.0004         39.0004
  -1899892.24047  -1475774.66046  24615478.3824   24615483.7264   24615478.372
        45.0004         40.0004
 -21410561.42949 -16643188.78348  21151915.8784   21151920.7404   21151915.588
        56.0004         51.0004
  -6345081.84447  -4904766.40647  23851456.0834   23851462.4714   23851455.372
        47.0004         42.0004
 17  9  1  2  0  0.0000000  0 11G03G16G06G23G27G07G22G30G04G09G26
 -17313259.33248 -13449566.68948  22186249.8774   22186254.6804   22186249.018
        52.0004         48.0004
 -15177943.34948 -11821480.46748  21961662.4274   21961665.1144   21961662.918
        53.0004         48.0004
    268182.53647    232258.07246  25015179.6934   25015186.1654   25015178.993
        43.0004         38.0004
 -22433701.35549 -17432776.94048  20730533.6834   20730534.2914   20730533.647
        56.0004         51.0004
   -726858.94747   -534550.46146  24763465.2574   24763471.0354   24763464.838
        45.0004         41.0004
 -16451998.01048 -12556642.19048  21826308.0144   21826310.9854   21826307.790
        53.0004         48.0004
  -4367216.79047  -3361263.23047  24167513.0544   24167515.0764   24167514.242
        46.0004         42.0004
  -1843228.34347  -1423039.46646  24785535.9414   24785542.0984   24785534.599
        44.0004         39.0004
  -1948031.57847  -1513285.78146  24606317.3294   24606324.4364   24606317.561
        44.0004         39.0004
 -21459067.67449 -16680985.85748  21142685.2464   21142690.2734   21142685.023
        56.0004         52.0004
  -6259170.33147  -4837822.40347  23867804.1254   23867811.1264   23867803.371
        47.0004         42.0004
 17  9  1  2  0 30.0000000  0 11G03G16G06G23G27G07G22G30G04G09G26
 -17223413.44648 -13379556.92848  22203346.8414   22203352.2244   22203346.392
        52.0004         48.0004
 -15142505.57848 -11793866.62448  21968406.4554   21968408.9564   21968406.545
        53.0004         48.0004
    314353.26047    268235.23946  25023964.4594   25023974.1924   25023963.776
        43.0004         39.0004
 -22423311.33249 -17424680.82048  20732510.7914   20732511.4954   20732511.066
        56.0004         51.0004
   -792832.18747   -585958.15047  24750910.6504   24750916.4444   24750910.347
        46.0004         42.0004
 -16510083.31048 -12601903.44748  21815254.9744   21815257.3494   21815254.545
        53.0004         48.0004
  -4256250.44447  -3274795.99047  24188629.7084   24188631.7704   24188629.032
        47.0004         42.0004
  -1928094.47047  -1489168.87446  24769385.1354   24769391.4764   24769385.597
        44.0004         39.0004
  -1995875.79647  -1550566.94546  24597213.8144   24597219.0424   24597213.227
        44.0004         40.0004
 -21507349.67049 -16718608.19248  21133497.7194   21133502.4304   21133497.229
        56.0004         52.0004
  -6172942.09247  -4770631.59547  23884213.0694   23884219.2794   23884212.086
        47.0004         42.0004
 17  9  1  2  1  0.0000000  0 11G03G16G06G23G27G07G22G30G04G09G26
 -17133229.36048 -13309283.63747  22220508.0834   22220513.7124   22220507.533
        52.0004         47.0004
 -15106539.42948 -11765841.05848  21975250.3044   21975253.2134   21975250.814
        53.0004         48.0004
    360849.59147    304466.13646  25032813.4584   25032820.8674   25032813.661
        43.0004         39.0004
 -22412584.69049 -17416322.40248  20734552.1634   20734552.5514   20734552.067
        56.0004         51.0004
   -858625.04647   -637225.27646  24738390.5094   24738396.6154   24738389.778
        46.0004         40.0004
 -16567863.37048 -12646926.86048  21804259.5894   21804262.2984   21804259.271
        53.0004         48.0004
  -4145214.70447  -3188274.71247  24209758.2924   24209762.0514   24209759.788
        47.0004         42.0004
  -2012812.25947  -1555182.71246  24753262.9744   24753269.7674   24753262.947
        44.0004         39.0004
  -2043422.42047  -1587616.25246  24588165.8964   24588171.1744   24588165.952
        44.0004         40.0004
 -21555405.84349 -16756054.55948  21124352.8734   21124357.8114   21124352.492
        56.0004         52.0004
  -6086399.66547  -4703195.97547  23900681.4354   23900688.6594   23900681.097
        47.0004         43.0004
 17  9  1  2  1 30.0000000  0 11G03G16G06G23G27G07G22G30G04G09G26
 -17042709.75248 -13238748.91148  22237733.6244   22237738.9504   22237733.060
        52.0004         48.0004
 -15070046.46148 -11737404.98948  21982194.8964   21982197.4284   21982195.220
        53.0004         48.0004
    407668.82347    340948.58446  25041723.4164   25041728.7284   25041723.141
        43.0004         39.0004
 -22401520.64949 -17407701.08048  20736657.3714   20736658.0674   20736657.402
        56.0004         51.0004
   -924234.63047   -688349.56446  24725903.9524   24725910.6054   24725903.408
        43.0004         37.0004
 -16625338.30848 -12691712.50848  21793322.5974   21793325.2654   21793322.400
        53.0004         48.0004
  -4034112.05647  -3101701.29147  24230901.2524   24230903.6544   24230901.462
        47.0004         42.0004
  -2097381.21347  -1621080.53546  24737171.2954   24737176.4504   24737170.662
        44.0004         40.0004
  -2090668.91447  -1624431.71446  24579174.4564   24579180.0084   24579174.688
        44.0004         40.0004
 -21603234.73149 -16793323.82148  21115251.3004   21115255.9794   21115250.930
        56.0004         52.0004
  -5999545.69847  -4635517.58547  23917208.9724   23917216.2574   23917209.117
        47.0004         42.0004
 17  9  1  2  2  0.0000000  0 11G03G16G06G23G27G07G22G30G04G09G26
 -16951857.21948 -13167954.76247  22255021.8044   22255027.6854   22255021.396
        52.0004         47.0004
 -15033028.22648 -11708559.61748  21989239.1944   21989241.6054   21989239.643
        53.0004         48.0004
    454808.36647    377680.70946  25050693.5434   25050701.1734   25050692.218
        43.0004         38.0004
 -22390118.49449 -17398816.29248  20738827.2684   20738827.9734   20738827.425
        56.0004         51.0004
   -989657.90747   -739328.77746  24713454.7894   24713461.4024   24713455.240
        42.0004         37.0004
 -16682508.13448 -12736260.41348  21782443.2034   21782445.5964   21782442.522
        53.0004         48.0004
  -3922945.20047  -3015077.80047  24252056.2564   24252057.7054   24252057.224
        46.0004         42.0004
  -2181800.86747  -1686862.05946  24721105.6264   24721111.2974   24721107.030
        44.0004         39.0004
  -2137612.80247  -1661011.34346  24570241.2364   24570246.4044   24570241.624
        44.0004         39.0004
 -21650834.73349 -16830414.73448  21106193.3644   21106198.1854   21106192.988
        56.0004         52.0004
  -5912382.69647  -4567598.39647  23933795.5934   23933802.1834   23933795.171
        47.0004         42.0004
 17  9  1  2  2 30.0000000  0 11G03G16G06G23G27G07G22G30G04G09G26
 -16860674.37048 -13096903.21447  22272373.1724   22272379.3984   22272373.035
        52.0004         47.0004
 -14995486.21848 -11679306.11148  21996383.2004   21996385.6394   21996383.447
        53.0004         48.0004
    502265.53547    414660.29046  25059724.3314   25059730.6354   25059722.741
        43.0004         39.0004
 -22378377.88549 -17389667.77148  20741061.2674   20741061.8684   20741061.428
        56.0004         51.0004
  -1054891.87347   -790160.42146  24701042.8654   24701048.9904   24701041.846
        43.0004         39.0004
 -16739372.64048 -12780570.40348  21771622.4674   21771624.8984   21771622.246
        53.0004         48.0004
  -3811716.64647  -2928406.25647  24273222.4374   24273224.3514   24273222.043
        47.0004         42.0004
  -2266070.77247  -1752526.87846  24705070.1394   24705076.0804   24705070.673
        44.0004         39.0004
  -2184251.77047  -1697353.35246  24561366.1784   24561372.1474   24561366.191
        44.0004         40.0004
 -21698204.32549 -16867326.10248  21097179.2304   21097184.0044   21097178.867
        56.0004         52.0004
  -5824913.28647  -4499440.43947  23950440.7734   23950447.5914   23950440.907
        47.0004         42.0004
 17  9  1  2  3  0.0000000  0 11G03G16G06G23G27G07G22G30G04G09G26
 -16769163.88648 -13025596.36847  22289787.6194   22289793.6044   22289787.093
        52.0004         47.0004
 -14957421.51148 -11649645.31148  22003626.6464   22003629.1114   22003626.758
        53.0004         48.0004
    550037.78347    451885.37546  25068814.8274   25068822.5544   25068815.191
        43.0004         39.0004
 -22366297.92949 -17380254.82548  20743360.1684   20743360.7944   20743360.167
        56.0004         51.0004
  -1119933.58847   -840842.26146  24688664.3624   24688671.5714   24688664.428
        45.0004         41.0004
 -16795932.19248 -12824642.76648  21760859.6324   21760862.2004   21760859.238
        53.0004         48.0004
  -3700428.87447  -2841688.58447  24294399.1774   24294401.9654   24294398.999
        47.0004         42.0004
  -2350190.51547  -1818074.70246  24689062.1034   24689068.6004   24689062.215
        44.0004         39.0004
  -2230583.39847  -1733455.87846  24552549.8384   24552554.4404   24552549.969
        45.0004         40.0004
 -21745341.99449 -16904056.75048  21088209.0384   21088214.0604   21088208.977
        56.0004         52.0004
  -5737140.05147  -4431045.74847  23967143.7014   23967150.7484   23967143.790
        47.0004         42.0004
 17  9  1  2  3 30.0000000  0 11G03G16G06G23G27G07G22G30G04G09G26
 -16677328.31848 -12954036.21447  22307263.5814   22307268.5794   22307262.995
        52.0004         47.0004
 -14918835.74148 -11619578.47948  22010969.5284   22010972.0094   22010969.702
        53.0004         48.0004
    598122.48547    489353.95346  25077965.7714   25077972.1964   25077965.795
        43.0004         39.0004
 -22353877.90049 -17370576.88548  20745723.5514   20745724.2344   20745723.760
        56.0004         51.0004
  -1184780.08647   -891371.92246  24676324.0044   24676331.8024   24676323.422
        46.0004         41.0004
 -16852186.55048 -12868477.31448  21750154.8244   21750157.4154   21750154.380
        53.0004         48.0004
  -3589084.20947  -2754926.58147  24315587.5174   24315589.9564   24315587.739
        47.0004         42.0004
  -2434159.60047  -1883505.11046  24673083.4924   24673089.1644   24673083.916
        44.0004         40.0004
  -2276605.20447  -1769316.99146  24543793.9284   24543798.5744   24543793.633
        45.0004         40.0004
 -21792246.09549 -16940605.39848  21079283.6124   21079288.3004   21079283.278
        56.0004         52.0004
  -5649065.50447  -4362416.25447  23983903.7044   23983910.3184   23983902.954
        47.0004         42.0004
 17  9  1  2  4  0.0000000  0 11G03G16G06G23G27G07G22G30G04G09G26
 -16585170.43348 -12882224.90547  22324800.9104   22324805.8924   22324799.895
        51.0004         47.0004
 -14879730.70048 -11589107.02448  22018410.5364   22018413.1384   22018411.144
        53.0004         48.0004
    646516.87647    527063.83146  25087174.3924   25087179.9194   25087173.734
        43.0004         38.0004
 -22341117.74149 -17360633.91048  20748151.8214   20748152.4854   20748151.810
        56.0004         51.0004
  -1249428.52447   -941747.27246  24664021.9554   24664028.7794   24664021.079
        45.0004         40.0004
 -16908135.76148 -12912074.08748  21739507.9024   21739510.4354   21739507.862
        53.0004         48.0004
  -3477685.36347  -2668122.34047  24336786.6494   24336788.7604   24336786.451
        46.0004         42.0004
  -2517977.67247  -1948817.86146  24657134.1374   24657139.2744   24657133.693
        44.0004         39.0004
  -2322314.92447  -1804934.93646  24535094.4694   24535099.1164   24535094.449
        45.0004         40.0004
 -21838915.22349 -16976970.94948  21070402.7594   21070407.6084   21070402.460
        56.0004         52.0004
  -5560692.38947  -4293554.10147  24000720.5024   24000727.9854   24000721.231
        47.0004         42.0004
 17  9  1  2  4 30.0000000  0 11G03G16G06G23G27G07G22G30G04G09G26
 -16492692.69448 -12810164.35247  22342398.2734   22342404.2314   22342397.482
        51.0004         47.0004
 -14840107.40148 -11558231.73348  22025950.5534   22025953.5364   22025950.985
        52.0004         48.0004
    695218.46347    565013.08146  25096442.2554   25096451.2344   25096440.022
        43.0004         39.0004
 -22328016.27849 -17350424.98448  20750644.9874   20750645.5764   20750644.837
        56.0004         51.0004
  -1313875.78047   -991965.83146  24651757.2604   24651766.2504   24651756.425
        45.0004         40.0004
 -16963779.71948 -12955432.99348  21728919.4284   21728921.8054   21728918.776
        53.0004         48.0004
  -3366234.45747  -2581277.52047  24357994.2294   24357997.6874   24357995.447
        46.0004         42.0004
  -2601644.10347  -2014012.45446  24641211.6034   24641218.0424   24641211.562
        44.0004         40.0004
  -2367709.97647  -1840307.66646  24526455.4144   24526459.8094   24526455.796
        44.0004         40.0004
 -21885347.59549 -17013152.01448  21061566.9844   21061571.9554   21061566.754
        56.0004         52.0004
  -5472023.09047  -4224461.18047  24017593.2354   24017600.3284   24017592.261
        47.0004         42.0004
 17  9  1  2  5  0.0000000  0 11G03G16G06G23G27G07G22G30G04G09G26
 -16399898.04948 -12737856.87247  22360056.6814   22360062.1124   22360055.761
        51.0004         47.0004
 -14799967.68248 -11526954.03948  22033589.0424   22033591.3174   22033588.814
        52.0004         48.0004
    744224.35047    603199.47946  25105767.2564   25105773.6144   25105767.895
        43.0004         38.0004
 -22314573.22249 -17339949.88148  20753202.9424   20753203.6104   20753202.940
        56.0004         51.0004
  -1378119.06147  -1042025.48746  24639535.0424   24639539.7874   24639533.865
        44.0004         40.0004
 -17019118.71048 -12998554.26548  21718388.6834   21718391.1204   21718388.520
        53.0004         48.0004
  -3254734.38747  -2494394.41547  24379212.3044   24379214.9604   24379212.622
        46.0004         42.0004
  -2685158.77847  -2079088.77546  24625319.2384   24625326.2454   24625319.651
        44.0004         40.0004
  -2412788.36447  -1875433.70646  24517878.0484   24517881.5064   24517877.752
        44.0004         39.0004
 -21931541.91449 -17049147.58548  21052776.2924   21052781.3864   21052776.335
        56.0004         52.0004
  -5383060.44547  -4155139.67747  24034522.8254   24034530.0274   24034522.785
        47.0004         42.0004
 17  9  1  2  5 30.0000000  0 11G03G16G06G23G27G07G22G30G04G09G26
 -16306788.95448 -12665304.35947  22377775.0204   22377780.6354   22377774.331
        51.0004         47.0004
 -14759313.16648 -11495275.19948  22041325.0634   22041327.8774   22041325.615
        52.0004         48.0004
    793531.99347    641620.97246  25115149.4714   25115158.4734   25115149.198
        43.0004         39.0004
 -22300788.03249 -17329208.18448  20755826.4754   20755826.9944   20755826.402
        56.0004         51.0004
  -1442155.28747  -1091923.85246  24627347.6514   24627353.2114   24627346.983
        44.0004         40.0004
 -17074152.49548 -13041437.71248  21707915.5154   21707918.8194   21707915.294
        53.0004         48.0004
  -3143187.67947  -2407474.99847  24400438.7854   24400441.3114   24400439.251
        47.0004         42.0004
  -2768521.03447  -2144046.34146  24609457.1504   24609463.8274   24609457.769
        44.0004         40.0004
  -2457547.29347  -1910310.75346  24509359.6564   24509364.3254   24509358.909
        44.0004         39.0004
 -21977496.46449 -17084956.32548  21044031.8334   21044036.5224   21044031.307
        56.0004         52.0004
  -5293806.86747  -4085591.45647  24051507.1554   24051513.1284   24051506.415
        46.0004         42.0004
 17  9  1  2  6  0.0000000  0 11G03G16G06G23G27G07G22G30G04G09G26
 -16213368.13448 -12592508.93947  22395552.4414   22395557.7174   22395551.507
        51.0004         47.0004
 -14718145.25448 -11463196.31548  22049159.3404   22049162.1154   22049159.578
        52.0004         48.0004
    843138.84247    680275.62246  25124591.0814   25124598.1894   25124589.168
        43.0004         38.0004
 -22286659.94449 -17318199.28948  20758515.0804   20758515.4864   20758514.795
        56.0004         51.0004
  -1505981.50947  -1141658.58546  24615202.1534   24615206.7284   24615201.632
        45.0004         40.0004
 -17128881.16648 -13084083.41248  21697501.6234   21697504.0184   21697501.006
        53.0004         48.0004
  -3031596.72247  -2320521.04247  24421673.6924   24421676.6704   24421674.187
        46.0004         42.0004
  -2851730.56447  -2208884.89646  24593622.2034   24593629.2974   24593622.647
        44.0004         40.0004
  -2501984.54247  -1944937.14146  24500903.6934   24500909.0924   24500902.595
        44.0004         40.0004
 -22023209.64949 -17120576.98248  21035332.9044   21035337.5924   21035332.531
        56.0004         52.0004
  -5204265.00447  -4015818.61247  24068546.7254   24068553.9134   24068546.363
        46.0004         42.0004
 17  9  1  2  6 30.0000000  0 11G03G16G06G23G27G07G22G30G04G09G26
 -16119638.30148 -12519472.73947  22413388.5864   22413394.4874   22413387.893
        51.0004         47.0004
 -14676465.73448 -11430718.77148  22057090.8864   22057093.5724   22057090.986
        52.0004         48.0004
    893041.97447    719161.14946  25134086.0824   25134093.4474   25134085.618
        43.0004         38.0004
 -22272188.55449 -17306922.88648  20761268.4604   20761269.2134   20761268.604
        56.0004         51.0004
  -1569594.86847  -1191227.44446  24603097.6044   24603103.7484   24603097.024
        45.0004         41.0004
 -17183304.70248 -13126491.34648  21687145.0454   21687147.2884   21687144.703
        53.0004         48.0004
  -2919963.81647  -2233534.41546  24442917.1634   24442918.7054   24442917.953
        46.0004         41.0004
  -2934786.90747  -2273604.09046  24577817.3214   24577824.1404   24577817.678
        45.0004         40.0004
  -2546097.87647  -1979311.15346  24492509.6824   24492514.5974   24492510.433
        45.0004         40.0004
 -22068679.98449 -17156008.41148  21026680.2354   21026685.0324   21026679.657
        56.0004         52.0004
  -5114437.50247  -3945823.19447  24085639.4424   24085647.4044   24085639.342
        46.0004         42.0004
 17  9  1  2  7  0.0000000  0 11G03G16G06G23G27G07G22G30G04G09G26
 -16025602.11148 -12446197.80947  22431283.1224   22431288.4784   22431282.537
        51.0004         47.0004
 -14634275.60348 -11397843.34948  22065119.4064   22065122.1874   22065119.383
        52.0004         48.0004
    943238.83247    758275.55346  25143638.2414   25143646.1894   25143638.367
        43.0004         39.0004
 -22257372.90549 -17295378.22948  20764087.8834   20764088.5234   20764087.965
        56.0004         51.0004
  -1632992.32047  -1240628.01147  24591032.7944   24591039.2484   24591032.277
        46.0004         42.0004
 -17237423.01948 -13168661.43948  21676846.5444   21676849.0224   21676846.227
        53.0004         48.0004
  -2808291.59347  -2146517.16247  24464167.5624   24464169.7674   24464168.266
        46.0004         42.0004
  -3017689.69447  -2338203.62146  24562040.9734   24562046.5414   24562040.845
        44.0004         40.0004
  -2589884.86247  -2013430.81146  24484177.7614   24484184.4114   24484176.941
        45.0004         40.0004
 -22113905.84349 -17191249.33548  21018073.7934   21018078.6084   21018073.484
        56.0004         52.0004
  -5024326.85447  -3875607.12446  24102787.5384   24102795.0894   24102787.666
        46.0004         41.0004
 17  9  1  2  7 30.0000000  0 11G03G16G06G23G27G07G22G30G04G09G26
 -15931262.31148 -12372686.30647  22449235.4474   22449240.7834   22449234.491
        51.0004         47.0004
 -14591577.28248 -11364571.93948  22073244.1604   22073247.1714   22073244.698
        52.0004         48.0004
    993726.59747    797616.61046  25153246.5004   25153251.2294   25153246.088
        43.0004         37.0004
 -22242212.74549 -17283565.12148  20766972.9324   20766973.4444   20766972.909
        56.0004         51.0004
  -1696171.05147  -1289858.13946  24579009.9284   24579016.3464   24579009.440
        46.0004         41.0004
 -17291236.90148 -13210594.32148  21666606.0734   21666608.4734   21666606.066
        53.0004         48.0004
  -2696582.56247  -2059471.21547  24485425.2074   24485427.7574   24485425.917
        47.0004         42.0004
  -3100438.56847  -2402683.21746  24546294.8214   24546301.1684   24546293.940
        45.0004         40.0004
  -2633343.13147  -2047294.37046  24475908.3404   24475913.3484   24475908.447
        44.0004         40.0004
 -22158885.69749 -17226298.56748  21009514.4894   21009519.2804   21009514.049
        56.0004         52.0004
  -4933935.75947  -3805172.54746  24119988.5754   24119995.3944   24119987.264
        46.0004         41.0004
 17  9  1  2  8  0.0000000  0 11G03G16G06G23G27G07G22G30G04G09G26
 -15836621.55748 -12298940.28447  22467244.9204   22467250.3264   22467244.053
        51.0004         47.0004
 -14548372.05348 -11330905.53148  22081466.3154   22081468.7124   22081466.385
        52.0004         48.0004
   1044502.64947    837182.35846  25162907.3534   25162916.0404   25162908.351
        42.0004         38.0004
 -22226707.40149 -17271483.04148  20769923.3234   20769924.1594   20769923.426
        56.0004         51.0004
  -1759128.06347  -1338915.46046  24567029.6294   24567035.4234   24567029.706
        45.0004         41.0004
 -17344745.77648 -13252289.53048  21656423.7344   21656426.2644   21656423.654
        53.0004         48.0004
  -2584839.23847  -1972398.57647  24506689.4014   24506692.9034   24506689.431
        47.0004         42.0004
  -3183033.04447  -2467042.49546  24530577.9144   24530584.6204   24530577.319
        45.0004         40.0004
  -2676470.40147  -2080899.97446  24467699.9574   24467705.7194   24467699.303
        44.0004         40.0004
 -22203617.87649 -17261154.80648  21001002.1824   21001007.0864   21001001.803
        56.0004         52.0004
  -4843266.74947  -3734521.39446  24137242.1744   24137248.7304   24137241.890
        46.0004         41.0004
 17  9  1  2  8 30.0000000  0 11G03G16G06G23G27G07G22G30G04G09G26
 -15741682.59148 -12224961.90347  22485310.7794   22485316.9914   22485310.497
        51.0004         47.0004
 -14504661.73648 -11296845.55147  22089784.1574   22089786.8424   22089784.219
        52.0004         47.0004
   1095564.16447    876970.48546  25172624.7054   25172631.8514   25172624.291
        43.0004         38.0004
 -22210856.53449 -17259131.71948  20772939.7224   20772940.3414   20772939.769
        56.0004         51.0004
  -1821860.46747  -1387797.85546  24555092.1624   24555098.4444   24555091.888
        45.0004         41.0004
 -17397949.79648 -13293747.18648  21646299.2684   21646301.7404   21646298.660
        53.0004         48.0004
  -2473064.07147  -1885301.10946  24527958.5054   24527962.2944   24527959.644
        46.0004         41.0004
  -3265472.84147  -2531281.26046  24514890.2354   24514896.4114   24514889.879
        45.0004         40.0004
  -2719264.55147  -2114246.05646  24459557.4224   24459560.1434   24459557.777
        44.0004         39.0004
 -22248100.88749 -17295816.88748  20992537.2854   20992542.0424   20992536.871
        56.0004         52.0004
  -4752322.47147  -3663655.78946  24154547.9894   24154555.1984   24154546.993
        46.0004         41.0004
 17  9  1  2  9  0.0000000  0 11G03G16G06G23G27G07G22G30G04G09G26
 -15646448.09848 -12150753.24047  22503434.2884   22503439.2214   22503433.062
        51.0004         47.0004
 -14460447.72548 -11262393.08447  22098197.6204   22098200.4334   22098197.848
        52.0004         47.0004
   1146908.62047    916979.12546  25182395.5074   25182404.4704   25182394.984
        42.0004         37.0004
 -22194659.46049 -17246510.63248  20776021.9564   20776022.5944   20776021.996
        56.0004         51.0004
  -1884365.23947  -1436502.78847  24543199.0494   24543204.7914   24543198.316
        46.0004         42.0004
 -17450849.06548 -13334967.38748  21636233.4054   21636235.4324   21636232.673
        53.0004         48.0004
  -2361259.61647  -1798180.83047  24549235.5034   24549237.3754   24549235.922
        46.0004         42.0004
  -3347757.49447  -2595399.11746  24499231.1724   24499236.5824   24499230.796
        45.0004         40.0004
  -2761722.99847  -2147330.51346  24451478.1694   24451482.5524   24451478.095
        44.0004         40.0004
 -22292333.07649 -17330283.52648  20984120.2864   20984125.1344   20984119.928
        56.0004         52.0004
  -4661105.50147  -3592577.65146  24171906.3444   24171912.0814   24171907.005
        46.0004         41.0004
 17  9  1  2  9 30.0000000  0 11G03G16G06G23G27G07G22G30G04G09G26
 -15550920.80748 -12076316.41647  22521612.9324   22521617.3364   22521611.382
        51.0004         47.0004
 -14415732.05648 -11227549.71647  22106707.0594   22106709.4994   22106707.002
        52.0004         47.0004
   1198532.95147    957205.84046  25192218.6494   25192223.4964   25192218.349
        42.0004         37.0004
 -22178115.47449 -17233619.22048  20779170.2064   20779170.6064   20779170.139
        56.0004         51.0004
  -1946639.49947  -1485028.13846  24531348.0464   24531353.9374   24531347.551
        46.0004         41.0004
 -17503443.63348 -13375950.14448  21626224.5764   21626226.7344   21626224.128
        53.0004         48.0004
  -2249428.08647  -1711039.43547  24570516.3464   24570519.2274   24570517.154
        46.0004         42.0004
  -3429886.69147  -2659395.85546  24483603.1204   24483609.1144   24483602.756
        45.0004         40.0004
  -2803843.59447  -2180151.71046  24443461.7524   24443465.6704   24443462.065
        44.0004         40.0004
 -22336312.89749 -17364553.51648  20975751.3494   20975755.8534   20975751.068
        56.0004         52.0004
  -4569618.44047  -3521289.08246  24189316.3264   24189322.7844   24189315.322
        45.0004         41.0004
 17  9  1  2 10  0.0000000  0 11G03G16G06G23G27G07G22G30G04G09G26
 -15455103.39848 -12001653.52947  22539845.5494   22539851.2514   22539844.491
        51.0004         47.0004
 -14370516.04448 -11192316.46747  22115310.9324   22115313.5484   22115310.976
        52.0004         47.0004
   1250434.70347    997648.73046  25202096.6784   25202103.1954   25202095.539
        42.0004         37.0004
 -22161223.99249 -17220457.03048  20782384.5124   20782385.0484   20782384.597
        56.0004         51.0004
  -2008680.29047  -1533371.67346  24519540.9674   24519546.6604   24519541.379
        46.0004         41.0004
 -17555733.80248 -13416695.72148  21616273.8884   21616276.2284   21616273.547
        53.0004         48.0004
  -2137572.04747  -1623878.97047  24591801.3454   24591803.9334   24591802.274
        46.0004         42.0004
  -3511859.95747  -2723271.07746  24468003.6234   24468009.5424   24468003.724
        45.0004         41.0004
  -2845624.11647  -2212707.92146  24435512.3734   24435516.6924   24435512.341
        45.0004         40.0004
 -22380038.70349 -17398625.57348  20967430.5274   20967435.0184   20967430.250
        56.0004         52.0004
  -4477863.85447  -3449792.01946  24206776.2504   24206783.1724   24206775.721
        45.0004         41.0004
 17  9  1  2 10 30.0000000  0 11G03G16G06G23G27G07G22G30G04G09G26
 -15358998.77648 -11926766.85247  22558133.7644   22558139.3194   22558133.267
        51.0004         47.0004
 -14324801.54048 -11156694.78847  22124010.2624   22124013.0534   22124010.493
        52.0004         47.0004
   1302610.80646   1038305.37846  25212025.2414   25212033.4204   25212025.600
        41.0004         36.0004
 -22143985.14649 -17207024.17148  20785664.8044   20785665.3364   20785664.836
        56.0004         51.0004
  -2070484.94047  -1581531.05246  24507779.9844   24507786.6444   24507780.293
        46.0004         41.0004
 -17607719.54348 -13457204.08948  21606381.4874   21606383.8254   21606380.824
        53.0004         49.0004
  -2025694.16747  -1536701.47646  24613090.9044   24613094.0004   24613091.154
        46.0004         41.0004
  -3593677.16547  -2787024.71246  24452433.5644   24452440.1554   24452434.663
        45.0004         41.0004
  -2887062.37347  -2244997.40646  24427626.1094   24427632.0234   24427625.788
        44.0004         39.0004
 -22423509.02649 -17432498.55448  20959158.2544   20959163.1574   20959157.925
        56.0004         52.0004
  -4385844.46347  -3378088.65446  24224286.6864   24224293.9694   24224287.033
        45.0004         41.0004
 17  9  1  2 11  0.0000000  0 11G03G16G06G23G27G07G22G30G04G09G26
 -15262609.50348 -11851658.35347  22576476.4674   22576481.8144   22576475.212
        51.0004         47.0004
 -14278590.32048 -11120686.05747  22132803.6784   22132806.7514   22132804.070
        52.0004         47.0004
   1355058.79646   1079173.89046  25222006.4664   25222012.3604   25222004.666
        41.0004         36.0004
 -22126397.64049 -17193319.62448  20789011.8834   20789012.3414   20789011.785
        56.0004         51.0004
  -2132050.28947  -1629503.96446  24496065.3084   24496071.1814   24496064.960
        46.0004         41.0004
 -17659401.25248 -13497475.53848  21596546.7704   21596549.3164   21596546.374
        53.0004         49.0004
  -1913796.98947  -1449508.96346  24634383.9014   24634387.6344   24634384.412
        46.0004         41.0004
  -3675337.71347  -2850656.26746  24436896.0294   24436901.7894   24436895.626
        45.0004         41.0004
  -2928155.86347  -2277018.30046  24419805.0014   24419809.4354   24419806.153
        44.0004         39.0004
 -22466722.11649 -17466171.08748  20950935.1594   20950939.9784   20950934.883
        56.0004         52.0004
  -4293562.75447  -3306180.84646  24241846.6094   24241853.1034   24241846.929
        45.0004         40.0004
 17  9  1  2 11 30.0000000  0 11G03G16G06G23G27G07G22G30G04G09G26
 -15165938.39248 -11776330.24547  22594871.5224   22594877.1314   22594870.814
        51.0004         47.0004
 -14231884.14948 -11084291.64147  22141691.8224   22141694.6524   22141692.034
        52.0004         47.0004
   1407775.74846   1120252.00246  25232036.9414   25232044.4124   25232037.490
        41.0004         36.0004
 -22108461.27649 -17179343.24648  20792424.8444   20792425.4214   20792424.829
        56.0004         51.0004
  -2193373.53247  -1677288.28446  24484394.1554   24484402.5184   24484394.542
        46.0004         41.0004
 -17710778.55448 -13537509.79748  21586770.1134   21586772.6174   21586769.595
        53.0004         49.0004
  -1801882.53247  -1362302.95246  24655681.8444   24655684.5364   24655681.837
        46.0004         41.0004
  -3756841.37847  -2914165.57046  24421385.1314   24421391.7064   24421385.489
        46.0004         41.0004
  -2968902.56447  -2308768.92946  24412053.4174   24412055.8974   24412052.167
        44.0004         39.0004
 -22509676.44049 -17499641.98548  20942761.1564   20942765.9064   20942760.921
        56.0004         52.0004
  -4201021.33847  -3234070.69646  24259457.5134   24259463.7844   24259457.500
        45.0004         41.0004
 17  9  1  2 12  0.0000000  0 11G03G16G06G23G27G07G22G30G04G09G26
 -15068988.19048 -11700784.67447  22613321.5004   22613326.9394   22613320.480
        51.0004         47.0004
 -14184684.76848 -11047512.91447  22150673.8964   22150676.3794   22150673.677
        52.0004         47.0004
   1460758.94846   1161537.58245  25242117.8624   25242126.5374   25242118.341
        40.0004         35.0004
 -22090175.59949 -17165094.67048  20795904.5974   20795905.3604   20795904.788
        56.0004         51.0004
  -2254451.81347  -1724881.67047  24472772.8714   24472779.8924   24472772.528
        46.0004         42.0004
 -17761851.53248 -13577306.90048  21577051.1554   21577053.5824   21577050.700
        53.0004         49.0004
  -1689953.54447  -1275085.60246  24676980.0774   24676983.7014   24676980.990
        46.0004         41.0004
  -3838187.78147  -2977552.34846  24405905.9084   24405911.7264   24405905.880
        46.0004         41.0004
  -3009300.12547  -2340247.55446  24404363.4114   24404370.3554   24404362.723
        44.0004         40.0004
 -22552370.41349 -17532910.01748  20934636.7504   20934641.4634   20934636.372
        56.0004         52.0004
  -4108222.88247  -3161760.24546  24277115.9954   24277121.7784   24277114.856
        45.0004         40.0004
 17  9  1  2 12 30.0000000  0 11G03G16G06G23G27G07G22G30G04G09G26
 -14971761.52548 -11625023.67047  22631822.5024   22631828.3524   22631821.765
        51.0004         47.0004
 -14136993.99448 -11010351.28147  22159748.8224   22159751.4984   22159749.178
        52.0004         47.0004
   1514005.67446   1203028.48846  25252251.2964   25252259.9974   25252252.433
        40.0004         36.0004
 -22071539.79649 -17150573.26948  20799450.9334   20799451.4304   20799450.811
        56.0004         51.0004
  -2315281.96247  -1772281.72547  24461197.3794   24461202.7974   24461197.706
        47.0004         43.0004
 -17812620.36548 -13616867.01648  21567390.0664   21567392.8524   21567389.793
        53.0004         49.0004
  -1578012.10547  -1187858.55846  24698282.5294   24698285.0284   24698282.668
        45.0004         40.0004
  -3919376.50147  -3040816.25646  24390455.9474   24390463.3954   24390455.705
        46.0004         41.0004
  -3049346.27647  -2371452.28646  24396746.1824   24396747.7604   24396745.266
        45.0004         40.0004
 -22594802.32849 -17565973.84448  20926562.2464   20926567.0304   20926561.989
        56.0004         52.0004
  -4015169.85647  -3089251.42346  24294823.7884   24294831.7914   24294823.706
        45.0004         41.0004
 17  9  1  2 13  0.0000000  0 11G03G16G06G23G27G07G22G30G04G09G26
 -14874261.45348 -11549049.62247  22650375.9254   22650382.3224   22650375.643
        51.0004         46.0004
 -14088813.80948 -10972808.28947  22168917.2424   22168920.1344   22168917.424
        52.0004         47.0004
   1567512.90646   1244722.41745  25262433.7994   25262440.7554   25262435.117
        40.0004         35.0004
 -22052553.48149 -17135778.74548  20803063.8584   20803064.3494   20803063.881
        56.0004         51.0004
  -2375861.48347  -1819486.52447  24449669.0564   24449674.7514   24449668.617
        47.0004         42.0004
 -17863085.38649 -13656190.40248  21557786.8724   21557789.5094   21557786.433
        54.0004         49.0004
  -1466061.06047  -1100624.02946  24719585.5764   24719589.4174   24719587.256
        45.0004         41.0004
  -4000407.43147  -3103957.18346  24375035.0504   24375041.6654   24375034.936
        46.0004         41.0004
  -3089039.24847  -2402381.82746  24389189.9234   24389195.5454   24389189.396
        44.0004         40.0004
 -22636970.78849 -17598832.38448  20918537.7354   20918542.5934   20918537.552
        57.0004         52.0004
  -3921865.06047  -3016546.43446  24312580.0524   24312586.5854   24312579.798
        45.0004         40.0004
 17  9  1  2 13 30.0000000  0 11G03G16G06G23G27G07G22G30G04G09G26
 -14776490.37648 -11472864.39947  22668981.4464   22668987.4864   22668980.768
        51.0004         46.0004
 -14040145.75848 -10934885.14947  22178178.6174   22178181.7214   22178177.975
        52.0004         47.0004
   1621278.18446   1286617.38545  25272663.7454   25272674.0114   25272664.804
        40.0004         35.0004
 -22033216.21349 -17120710.74248  20806743.5974   20806744.1614   20806743.773
        56.0004         51.0004
  -2436187.17047  -1866493.52546  24438189.3264   24438196.8124   24438189.287
        46.0004         41.0004
 -17913246.36249 -13695276.86948  21548241.5584   21548244.1984   21548241.266
        54.0004         49.0004
  -1354102.34147  -1013383.56746  24740890.8854   24740893.5934   24740891.795
        45.0004         41.0004
  -4081279.94447  -3166974.68946  24359646.8124   24359652.6134   24359647.353
        46.0004         41.0004
  -3128376.20547  -2433033.97546  24381704.1914   24381711.4624   24381704.769
        45.0004         40.0004
 -22678873.92049 -17631484.17248  20910563.8734   20910568.7654   20910563.532
        57.0004         52.0004
  -3828310.86647  -2943647.07346  24330381.7734   24330389.2424   24330381.054
        45.0004         40.0004
 17  9  1  2 14  0.0000000  0 11G03G16G06G23G27G07G22G30G04G09G26
 -14678451.38848 -11396470.41847  22687637.5024   22687643.1234   22687636.995
        51.0004         46.0004
 -13990991.78748 -10896583.36147  22187532.0604   22187534.5394   22187532.533
        52.0004         47.0004
   1675298.35646   1328710.96445  25282944.6464   25282954.6734   25282944.026
        40.0004         35.0004
 -22013527.93549 -17105369.23948  20810490.2184   20810490.8434   20810490.127
        56.0004         51.0004
  -2496256.39647  -1913300.65747  24426759.5074   24426765.0934   24426759.536
        47.0004         42.0004
 -17963104.15049 -13734127.07548  21538754.1634   21538756.4344   21538753.226
        54.0004         49.0004
  -1242138.91647   -926139.38246  24762196.2564   24762199.6624   24762197.523
        45.0004         40.0004
  -4161993.96947  -3229868.68346  24344288.1104   24344293.9204   24344287.656
        46.0004         41.0004
  -3167355.60547  -2463407.48446  24374288.7214   24374291.7764   24374288.711
        44.0004         40.0004
 -22720510.34049 -17663928.13748  20902640.8144   20902645.5524   20902640.664
        57.0004         52.0004
  -3734510.06347  -2870555.60446  24348233.4024   24348240.0454   24348232.474
        45.0004         41.0004
 17  9  1  2 14 30.0000000  0 11G03G16G06G23G27G07G22G30G04G09G26
 -14580146.98848 -11319869.62047  22706344.1494   22706350.5044   22706343.905
        51.0004         46.0004
 -13941353.70948 -10857904.33747  22196978.2064   22196980.5034   22196978.009
        52.0004         47.0004
   1729570.87746   1371001.23745  25293272.8134   25293280.3504   25293273.587
        39.0004         35.0004
 -21993487.55749 -17089753.35448  20814303.6004   20814304.1294   20814303.694
        56.0004         51.0004
  -2556066.18847  -1959905.58646  24415374.5174   24415382.2994   24415375.054
        46.0004         40.0004
 -18012658.62649 -13772740.93848  21529324.2164   21529326.8174   21529323.627
        54.0004         49.0004
  -1130173.08147   -838893.34346  24783502.8464   24783507.0544   24783503.386
        45.0004         40.0004
  -4242548.99947  -3292638.79646  24328958.1064   24328962.5124   24328958.844
        46.0004         41.0004
  -3205974.75947  -2493500.29346  24366938.9894   24366944.0074   24366938.052
        44.0004         40.0004
 -22761878.23649 -17696162.85548  20894768.6454   20894773.5644   20894768.464
        57.0004         52.0004
  -3640465.11347  -2797273.82746  24366128.0114   24366134.6614   24366127.541
        45.0004         40.0004
 17  9  1  2 15  0.0000000  0 12G08G03G16G06G23G27G07G22G30G04G09G26
   -149086.60548    -71990.87046  24967615.7854   24967617.0884   24967615.099
        53.0004         36.0004
 -14481580.15748 -11243064.33647  22725101.6004   22725106.6894   22725100.402
        51.0004         46.0004
 -13891233.46948 -10818849.62547  22206515.6724   22206518.6424   22206515.690
        52.0004         47.0004
   1784092.70546   1413485.75945  25303650.4084   25303657.2304   25303648.902
        39.0004         35.0004
 -21973094.82849 -17073862.92648  20818184.3214   20818185.0624   20818184.204
        56.0004         51.0004
  -2615613.66547  -2006306.16447  24404045.6264   24404051.4824   24404045.602
        46.0004         42.0004
 -18061909.85649 -13811118.50848  21519952.0754   21519954.7424   21519951.541
        54.0004         49.0004
  -1018207.28547   -751647.31246  24804810.9644   24804814.4684   24804810.833
        44.0004         39.0004
  -4322944.90847  -3355284.91347  24313657.7984   24313664.8304   24313658.193
        46.0004         42.0004
  -3244231.73447  -2523310.91046  24359658.2554   24359662.6144   24359658.810
        45.0004         40.0004
 -22802976.17949 -17728187.23048  20886948.2104   20886952.8404   20886947.784
        57.0004         52.0004
  -3546178.70947  -2723803.97146  24384071.1564   24384077.4464   24384070.406
        45.0004         40.0004
 17  9  1  2 15 30.0000000  0 11G03G16G06G23G27G07G22G30G04G09G26
 -14382753.56048 -11166056.63447  22743907.1984   22743912.6394   22743906.017
        50.0004         45.0004
 -13840632.65348 -10779420.41847  22216144.5314   22216146.7874   22216144.924
        52.0004         47.0004
   1838861.19646   1456162.39645  25314071.7494   25314077.6624   25314070.036
        40.0004         35.0004
 -21952349.26549 -17057697.55748  20822132.1854   20822132.7834   20822132.179
        56.0004         51.0004
  -2674895.82847  -2052500.06447  24392765.0684   24392771.2424   24392764.882
        47.0004         43.0004
 -18110857.91149 -13849259.84448  21510637.5454   21510639.9694   21510637.058
        54.0004         49.0004
   -906243.89547   -664403.16646  24826115.9544   24826119.7874   24826115.946
        44.0004         40.0004
  -4403181.21947  -3417806.67447  24298390.6994   24298397.5804   24298389.659
        46.0004         42.0004
  -3282124.48447  -2552837.68846  24352449.1284   24352453.3904   24352448.764
        45.0004         41.0004
 -22843802.42949 -17759999.89348  20879178.9054   20879183.9444   20879178.802
        57.0004         52.0004
  -3451653.35447  -2650147.85746  24402058.2934   24402065.4674   24402056.971
        45.0004         40.0004
