     2.11           OBSERVATION DATA    G (GPS)             RINEX VERSION / TYPE
teqc  2019Feb25     UNAVCO Archive Ops  20200902 03:31:57UTCPGM / RUN BY / DATE
Solaris x86 5.10|AMD64|cc SC5.8 -xarch=amd64|=+|=+          COMMENT
BIT 2 OF LLI FLAGS DATA COLLECTED UNDER A/S CONDITION       COMMENT
CRFP                                                        MARKER NAME
40481M001                                                   MARKER NUMBER
Ken Hudnut          U.S. Geological Survey                  OBSERVER / AGENCY
5251K41042          TRIMBLE NETR9       5.37                REC # / TYPE / VERS
5000115161          TRM57971.00     NONE                    ANT # / TYPE
 -2410446.7968 -4710490.3879  3550422.4952                  APPROX POSITION XYZ
        0.0355        0.0000        0.0000                  ANTENNA: DELTA H/E/N
     1     1                                                WAVELENGTH FACT L1/2
     7    L1    L2    C1    P2    P1    S1    S2            # / TYPES OF OBSERV
    30.0000                                                 INTERVAL
Forced Modulo Decimation to 30 seconds                      COMMENT
input file: crfp200901.bnx                                  COMMENT
RINEX file created by UNAVCO GPS Archive.                   COMMENT
For more information contact archive-gps@unavco.org         COMMENT
Monument ID: 19483                                          COMMENT
UNAVCO 4-char name:   CRFP                                  COMMENT
4-char name from Log or data file: CRFP                     COMMENT
Monument location: 34.03905197 -117.0996827 688.8201        COMMENT
Visit ID: 126156                                            COMMENT
doi:10.7283/T5QC01SV                                        COMMENT
End of DB comments                                          COMMENT
 SNR is mapped to RINEX snr flag value [0-9]                COMMENT
  L1 & L2: min(max(int(snr_dBHz/6), 0), 9)                  COMMENT
  2020     9     1     0     0    0.0000000     GPS         TIME OF FIRST OBS
                                                            END OF HEADER
 20  9  1  0  0  0.0000000  0 11G22G23G01G31G32G10G08G20G11G27G21
 124498142.838 7  97011546.87544  23691208.859    23691210.5434
        43.700          28.5004
 128234832.378 5  99923268.81543  24402277.148    24402282.7974
        35.900          18.3004
 117934336.537 7  91896915.66445  22442158.102    22442165.4224
        42.800          31.1004
 112226057.893 7  87448892.24146  21355908.828    21355912.5704
        47.300          37.9004
 109134474.514 8  85039873.88346  20767600.055    20767605.8714
        51.000          40.9004
 116810029.598 7  91020828.91545  22228209.641    22228216.0314
        47.400          35.0004
 126059273.538 6  98228038.90543  23988282.086    23988290.4494
        38.000          21.3004
 128233600.024 6  99922305.16143  24402042.648    24402047.5274
        38.000          19.6004
 112873520.474 7  87953408.54545  21479116.844    21479120.6804
        46.900          34.0004
 131129107.915 6 102178560.60444  24953039.500    24953048.1954
        38.900          25.3004
 110732362.685 7  86284971.91546  21071667.977    21071671.3484
        47.700          38.2004
 20  9  1  0  0 30.0000000  0 11G22G23G01G31G32G10G08G20G11G27G21
 124423161.458 7  96953119.86344  23676940.344    23676942.0784
        44.600          28.1004
 128310600.817 6  99982309.10042  24416695.375    24416701.0904
        36.300          16.3004
 117853606.456 7  91834009.14945  22426795.664    22426803.0044
        43.800          31.8004
 112149280.976 8  87389066.10846  21341298.641    21341302.4224
        48.400          37.9004
 109178348.684 8  85074061.55146  20775949.031    20775954.8204
        50.700          41.4004
 116860205.790 7  91059927.24645  22237757.867    22237764.2544
        47.900          34.6004
 126128324.005 6  98281844.42043  24001421.953    24001430.3714
        37.500          21.7004
 128316967.347 6  99987266.69743  24417906.914    24417911.8524
        36.900          21.3004
 112869280.216 7  87950104.45245  21478309.945    21478313.7774
        47.500          32.8004
 131217080.660 6 102247110.69143  24969780.188    24969788.8954
        37.900          22.6004
 110772628.550 7  86316347.90646  21079330.336    21079333.7074
        47.600          37.7004
 20  9  1  0  1  0.0000000  0 11G22G23G01G31G32G10G08G20G11G27G21
 124348199.495 7  96894707.99544  23662675.531    23662677.2854
        44.200          28.4004
 128386491.220 5 100041444.41642  24431136.797    24431142.5434
        35.900          17.8004
 117773241.120 7  91771386.82745  22411502.641    22411509.9964
        42.600          31.4004
 112072948.495 7  87329586.29646  21326773.016    21326776.8054
        47.200          38.4004
 109222481.923 8  85108451.09146  20784347.313    20784353.0864
        51.300          41.1004
 116910597.125 7  91099193.20945  22247347.031    22247353.4184
        47.600          34.2004
 126197562.486 6  98335796.47643  24014597.625    24014606.1374
        36.600          21.3004
 128400474.202 6 100052336.94843  24433797.742    24433802.7464
        38.500          20.9004
 112865670.327 7  87947291.56145  21477623.008    21477626.8284
        45.200          33.8004
 131304966.805 6 102315593.35843  24986504.438    24986513.2074
        38.000          22.2004
 110813351.446 7  86348080.02646  21087079.664    21087083.0514
        46.800          38.1004
 20  9  1  0  1 30.0000000  0 11G22G23G01G31G32G10G08G20G11G27G21
 124273257.554 7  96836311.71144  23648414.531    23648416.2464
        44.700          27.9004
 128462503.303 5 100100674.55442  24445601.492    24445607.1334
        34.300          17.8004
 117693242.878 7  91709050.57745  22396279.469    22396286.8284
        44.100          32.5004
 111997062.963 7  87270454.74346  21312332.445    21312336.2304
        47.700          38.4004
 109266872.254 8  85143040.96346  20792794.508    20792800.2624
        50.200          40.9004
 116961203.669 7  91138626.86945  22256977.148    22256983.5164
        47.400          34.5004
 126266985.272 6  98389892.10243  24027808.359    24027816.9454
        37.300          21.1004
 128484119.906 6 100117515.35843  24449715.063    24449719.9844
        39.400          22.3004
 112862690.626 8  87944969.71345  21477055.992    21477059.7774
        48.200          33.1004
 131392763.346 6 102384006.16943  25003211.500    25003220.4614
        38.600          22.5004
 110854530.622 7  86380167.69246  21094915.813    21094919.2234
        46.100          38.1004
 20  9  1  0  2  0.0000000  0 11G22G23G01G31G32G10G08G20G11G27G21
 124198336.271 7  96777931.52944  23634157.469    23634159.1564
        44.100          28.0004
 128538636.911 5 100159999.39542  24460089.383    24460094.9574
        35.200          17.4004
 117613614.364 7  91647002.40945  22381126.672    22381134.0164
        43.500          31.9004
 111921627.237 8  87211673.68446  21297977.477    21297981.2584
        48.600          38.4004
 109311517.915 8  85177829.79246  20801290.297    20801296.0514
        48.000          40.5004
 117012025.698 7  91178228.45145  22266648.273    22266654.6644
        47.200          34.8004
 126336589.609 6  98444129.18243  24041053.641    24041062.1884
        38.200          20.6004
 128567903.973 6 100182801.61544  24465658.727    24465663.6954
        40.200          24.2004
 112860340.669 7  87943138.58245  21476608.820    21476612.5664
        46.800          33.9004
 131480467.466 6 102452346.99144  25019901.023    25019910.0594
        38.100          24.0004
 110896164.947 7  86412610.00846  21102838.578    21102842.0314
        45.200          38.2004
 20  9  1  0  2 30.0000000  0 12G22G23G01G31G32G10G08G20G11G03G27G21
 124123436.206 7  96719567.88544  23619904.445    23619906.0554
        44.700          27.6004
                                  24474599.945
        32.400          16.9004
 117534358.085 7  91585244.29045  22366044.695    22366052.0044
        42.800          31.9004
 111846643.833 7  87153245.09146  21283708.586    21283712.3594
        47.800          38.8004
 109356417.125 8  85212816.18746  20809834.328    20809840.0864
        48.200          40.1004
 117063063.481 7  91217998.13945  22276360.461    22276366.8444
        47.800          35.6004
 126406372.551 6  98498505.48543  24054332.938    24054341.4024
        37.500          20.4004
 128651825.885 6 100248195.25243  24481628.594    24481633.6134
        39.600          22.3004
 112858619.732 7  87941797.58845  21476281.344    21476285.0474
        46.000          33.2004
 132575885.394 6 103305915.44654  25228352.250    25228359.5904
        37.200          28.1004
 131568076.424 6 102520613.61243  25036572.375    25036581.5944
        37.400          22.2004
 110938253.150 7  86445406.00546  21110847.703    21110851.1724
        44.900          38.0004
 20  9  1  0  3  0.0000000  0 12G22G23G01G31G32G10G08G20G11G03G27G21
 124048558.581 7  96661221.72244  23605655.695    23605657.2304
        44.000          28.9004
 128691268.663 5 100278933.21542  24489134.102    24489140.1564
        33.800          16.9004
 117455477.019 7  91523778.56445  22351034.125    22351041.4344
        43.600          32.6004
 111772115.863 7  87095171.37546  21269526.359    21269530.1334
        46.000          38.3004
 109401568.494 8  85247999.07246  20818426.352    20818432.0984
        49.100          39.9004
 117114317.642 7  91257936.43345  22286113.820    22286120.2114
        46.300          34.9004
 126476331.421 6  98553018.85143  24067645.711    24067654.1684
        37.100          20.6004
 128735885.711 6 100313696.35344  24497624.672    24497629.7544
        39.400          24.2004
 112857528.346 7  87940947.16245  21476073.672    21476077.3714
        44.700          33.6004
 132492816.997 6 103241186.94544  25212544.758    25212552.0984
        37.600          27.4004
 131655587.868 6 102588804.31643  25053225.375    25053234.5434
        36.500          21.8004
 110980795.366 7  86478555.76546  21118943.227    21118946.6724
        45.400          37.3004
 20  9  1  0  3 30.0000000  0 12G22G23G01G31G32G10G08G20G11G03G27G21
 123973703.816 7  96602893.38544  23591411.281    23591412.7814
        43.700          28.7004
 128767766.710 5 100338542.08642  24503691.266    24503697.9654
        33.300          16.3004
 117376973.507 7  91462607.01245  22336095.391    22336102.6914
        42.600          31.4004
 111698046.029 7  87037454.65146  21255431.320    21255435.0554
        46.500          38.5004
 109446970.049 7  85283376.90446  20827065.977    20827071.7424
        47.600          40.4004
 117165788.238 7  91298043.37845  22295908.359    22295914.7664
        46.300          34.2004
 126546462.622 6  98607666.50943  24080991.305    24080999.7424
        37.400          21.5004
 128820082.465 6 100379304.16944  24513646.813    24513651.9494
        40.600          24.0004
 112857065.649 7  87940586.61445  21475985.625    21475989.3094
        45.700          33.3004
 132409697.576 6 103176418.63944  25196727.602    25196734.9574
        38.200          28.7004
 131742998.759 6 102656916.61343  25069859.117    25069868.3914
        36.300          22.3004
 111023789.744 7  86512057.85246  21127124.789    21127128.2034
        44.600          37.7004
 20  9  1  0  4  0.0000000  0 12G22G23G01G31G32G10G08G20G11G03G27G21
 123898872.253 7  96544583.12344  23577171.281    23577172.7664
        43.300          28.6004
 128844385.914 5 100398245.42442  24518271.086    24518277.9104
        34.700          16.3004
 117298850.079 7  91401731.64445  22321228.984    22321236.2544
        43.700          32.1004
 111624436.809 7  86980096.84846  21241423.938    21241427.6414
        47.900          38.6004
 109492620.008 8  85318948.29846  20835752.859    20835758.6294
        49.400          40.0004
 117217475.513 7  91338319.16945  22305744.141    22305750.5434
        46.600          34.4004
 126616763.412 6  98662446.29543  24094369.172    24094377.5554
        38.700          20.9004
 128904415.761 6 100445018.37844  24529694.945    24529700.1254
        40.300          25.8004
 112857230.346 7  87940714.95545  21476016.969    21476020.6294
        46.200          33.4004
 132326527.311 6 103111610.74244  25180900.758    25180908.3364
        36.700          28.0004
 131830306.399 6 102724948.48443  25086473.297    25086482.5314
        37.800          22.5004
 111067235.503 7  86545911.68146  21135392.242    21135395.6134
        45.400          37.5004
 20  9  1  0  4 30.0000000  0 12G22G23G01G31G32G10G08G20G11G03G27G21
 123824064.879 7  96486291.70244  23562935.883    23562937.3284
        44.200          28.3004
 128921126.630 5 100458043.26042  24532874.469    24532881.1604
        35.200          17.4004
 117221109.697 7  91341154.75745  22306435.469    22306442.7424
        43.000          32.9004
 111551291.158 7  86923100.26646  21227504.766    21227508.4344
        47.600          38.6004
 109538516.999 8  85354712.19446  20844486.766    20844492.5594
        49.200          40.1004
 117269380.141 7  91378764.33545  22315621.281    22315627.6994
        45.500          34.5004
 126687230.809 6  98717355.93043  24107778.758    24107787.0784
        38.400          21.5004
 128988886.072 6 100510839.36544  24545769.133    24545774.3324
        40.000          24.7004
 112858022.956 7  87941332.56845  21476167.797    21476171.4454
        44.700          33.6004
 132243306.794 6 103046763.65444  25165064.391    25165072.0594
        37.900          28.1004
 131917508.482 6 102792898.07243  25103067.383    25103076.6174
        36.300          22.0004
 111111132.311 7  86580116.97646  21143745.531    21143748.8754
        45.700          37.3004
 20  9  1  0  5  0.0000000  0 12G22G23G01G31G32G10G08G20G11G03G27G21
 123749282.533 7  96428019.78644  23548705.250    23548706.6954
        42.200          28.1004
 128997988.600 5 100517935.69842  24547501.000    24547507.3634
        35.900          15.6004
 117143754.866 7  91280878.29445  22291715.320    22291722.5824
        43.300          32.6004
 111478611.852 7  86866467.06646  21213674.336    21213677.9454
        47.900          38.2004
 109584659.253 8  85390667.19646  20853267.344    20853273.1644
        48.000          40.1004
 117321502.317 7  91419379.00145  22325539.813    22325546.2704
        47.100          34.9004
 126757861.956 6  98772393.15443  24121219.477    24121227.8444
        38.500          21.7004
 129073492.195 6 100576766.19044  24561869.188    24561874.3714
        41.700          26.9004
 112859442.830 7  87942438.96345  21476437.984    21476441.6174
        45.900          33.0004
 132160036.216 6 102981877.58244  25149218.461    25149226.1884
        37.600          29.4004
 132004602.214 6 102860763.24144  25119640.961    25119650.0314
        38.900          24.9004
 111155478.824 7  86614672.70046  21152184.391    21152187.7344
        44.900          37.2004
 20  9  1  0  5 30.0000000  0 12G22G23G01G31G32G10G08G20G11G03G27G21
 123674525.772 7  96369767.81244  23534479.477    23534480.9144
        42.400          28.5004
 129074971.699 6 100577922.49242  24562150.555    24562156.6454
        36.400          16.9004
 117066788.134 7  91220904.24345  22277069.023    22277076.2934
        43.500          33.5004
 111406401.484 7  86810199.27946  21199933.125    21199936.6804
        46.000          37.9004
 109631045.038 8  85426811.96246  20862094.266    20862100.0984
        48.300          40.4004
 117373842.315 7  91460163.41145  22335499.805    22335506.2934
        46.700          33.8004
 126828653.875 6  98827555.65943  24134690.805    24134699.1294
        38.100          21.1004
 129158233.825 6 100642798.59744  24577995.047    24578000.2114
        41.800          25.3004
 112861489.594 7  87944033.83745  21476827.461    21476831.0984
        46.600          33.2004
 132076715.859 6 102916952.72044  25133363.102    25133370.8484
        38.300          29.3004
 132091584.840 6 102928541.86944  25136193.305    25136202.3554
        39.000          24.0004
 111200273.980 7  86649578.01346  21160708.617    21160711.9924
        44.800          37.2004
 20  9  1  0  6  0.0000000  0 12G22G23G01G31G32G10G08G20G11G03G27G21
 123599795.829 6  96311536.72344  23520258.805    23520260.2344
        41.100          28.1004
                                  24576822.930
        34.300          17.4004
 116990212.372 7  91161234.83845  22262497.125    22262504.3634
        43.200          33.3004
 111334663.002 7  86754299.19346  21186281.727    21186285.2584
        47.000          38.7004
 109677672.888 8  85463145.34746  20870967.258    20870973.0904
        49.800          40.8004
 117426400.655 7  91501117.95245  22345501.352    22345507.8484
        47.300          35.2004
 126899603.512 6  98882841.04243  24148192.109    24148200.4104
        38.100          20.6004
 129243110.873 6 100708936.52744  24594146.680    24594151.8094
        40.800          25.8004
 112864162.875 7  87946116.90345  21477336.172    21477339.8014
        46.900          33.8004
 131993346.215 6 102851989.45145  25117498.352    25117506.1094
        36.800          30.1004
 132178454.008 6 102996232.05544  25152724.117    25152733.1054
        40.100          25.2004
 111245517.413 7  86684832.62946  21169318.164    21169321.5434
        46.000          37.8004
 20  9  1  0  6 30.0000000  0 12G22G23G01G31G32G10G08G20G11G03G27G21
 123525093.119 7  96253326.86744  23506043.313    23506044.7584
        42.700          28.7004
 129229301.436 5 100698179.27742  24591518.445    24591524.1954
        34.100          17.4004
 116914029.945 7  91101871.93045  22248000.078    22248007.3094
        43.900          32.9004
 111263398.785 7  86698768.65646  21172720.570    21172724.1174
        46.800          38.6004
 109724540.903 8  85499665.88046  20879885.945    20879891.7894
        50.200          40.8004
 117479177.471 7  91542242.73145  22355544.469    22355550.9774
        47.000          34.7004
 126970707.424 6  98938246.65343  24161722.797    24161731.0514
        38.400          19.9004
 129328123.000 6 100775179.74644  24610323.844    24610329.0824
        40.900          26.7004
 112867461.855 7  87948687.53445  21477963.938    21477967.5784
        46.700          33.5004
 131909927.434 6 102786987.88945  25101624.227    25101632.0704
        38.400          31.1004
 132265206.831 6 103063831.58944  25169232.766    25169241.6884
        40.400          25.3004
 111291207.280 7  86720435.11146  21178012.656    21178016.0394
        46.800          37.2004
 20  9  1  0  7  0.0000000  0 12G22G23G01G31G32G10G08G20G11G03G27G21
 123450418.361 6  96195138.78544  23491833.141    23491834.5634
        41.400          28.5004
 129306647.831 5 100758449.20342  24606236.867    24606243.1174
        34.100          17.4004
 116838243.603 7  91042817.66345  22233578.391    22233585.6454
        43.200          32.8004
 111192611.718 7  86643609.94246  21159250.211    21159253.7774
        47.200          38.8004
 109771647.563 8  85536372.36546  20888850.055    20888855.9224
        49.800          41.1004
 117532173.203 7  91583538.10945  22365629.227    22365635.7584
        46.600          34.3004
 127041963.130 6  98993770.57943  24175282.336    24175290.6374
        38.800          20.6004
 129413269.490 6 100841527.66144  24626526.633    24626532.0004
        41.200          24.2004
 112871385.917 7  87951745.24645  21478710.664    21478714.3134
        46.600          33.8004
 131826459.976 6 102721948.38944  25085740.852    25085748.7624
        38.000          29.9004
 132351840.907 6 103131338.59444  25185718.734    25185727.6914
        41.000          25.9004
 111337343.215 7  86756385.17846  21186792.031    21186795.4064
        46.400          37.5004
 20  9  1  0  7 30.0000000  0 12G22G23G01G31G32G10G08G20G11G03G27G21
 123375772.718 6  96136973.39944  23477628.500    23477629.9494
        41.700          29.1004
 129384115.411 5 100818813.52542  24620978.484    24620985.3484
        33.200          16.3004
 116762856.159 7  90984074.21845  22219232.609    22219239.8954
        43.400          33.2004
 111122304.691 7  86588825.27346  21145871.195    21145874.7774
        47.000          39.4004
 109818991.454 8  85573263.71646  20897859.313    20897865.1524
        49.700          40.9004
 117585388.423 7  91625004.50645  22375755.750    22375762.2734
        46.800          34.6004
 127113367.380 6  99049410.21543  24188870.094    24188878.4024
        38.200          20.4004
 129498550.214 6 100907980.14944  24642755.047    24642760.3714
        40.600          26.6004
 112875934.886 7  87955289.89845  21479576.313    21479579.9614
        47.600          33.6004
 131742944.375 6 102656871.38345  25069848.305    25069856.2154
        37.700          30.4004
 132438353.787 6 103198751.16644  25202181.766    25202190.5634
        40.300          26.9004
 111383924.075 7  86792681.94046  21195656.078    21195659.4224
        45.800          36.8004
 20  9  1  0  8  0.0000000  0 12G22G23G01G31G32G10G08G20G11G03G27G21
 123301156.566 6  96078830.97344  23463429.469    23463430.9344
        40.900          28.0004
 129461703.596 5 100879271.80342  24635742.906    24635749.7384
        33.600          17.4004
 116687869.695 7  90925643.21945  22204963.148    22204970.4494
        44.000          33.1004
 111052479.857 7  86534416.34546  21132583.945    21132587.5554
        47.300          38.8004
 109866570.405 8  85610338.21646  20906913.289    20906919.1334
        50.000          41.7004
 117638822.899 7  91666641.75045  22385923.992    22385930.5354
        45.300          33.9004
 127184917.452 6  99105163.46943  24202485.609    24202493.9494
        38.500          19.6004
 129583964.165 6 100974536.46744  24659008.773    24659014.0864
        41.200          25.1004
 112881107.503 7  87959320.49745  21480560.625    21480564.2814
        47.500          33.6004
 131659380.486 6 102591756.72645  25053946.547    25053954.4654
        38.200          30.4004
 132524742.438 6 103266066.91244  25218621.109    25218629.8714
        40.800          26.8004
 111430948.495 7  86829324.33046  21204604.539    21204607.8324
        46.000          36.9004
 20  9  1  0  8 30.0000000  0 12G22G23G01G31G32G10G08G20G11G03G27G21
 123226571.015 7  96020712.41544  23449236.273    23449237.7624
        42.300          29.3004
 129539412.738 5 100939830.38443  24650530.586    24650537.6604
        32.500          18.3004
 116613287.323 7  90867527.09545  22190770.570    22190777.8874
        44.300          33.5004
 110983140.267 7  86480385.53046  21119389.031    21119392.6334
        47.000          38.8004
 109914383.237 8  85647594.96846  20916011.781    20916017.5944
        49.900          40.6004
 117692477.476 7  91708450.49945  22396134.117    22396140.6804
        45.700          33.8004
 127256610.445 6  99161028.10643  24216128.352    24216136.7074
        37.500          20.6004
 129669511.406 6 101041196.63944  24675287.813    24675293.2074
        41.100          26.8004
 112886903.945 8  87963837.20445  21481663.656    21481667.3134
        48.000          33.4004
 131575769.160 6 102526605.13145  25038035.750    25038043.6994
        37.700          31.3004
 132611004.741 6 103333284.22044  25235036.352    25235045.1334
        40.800          25.6004
 111478416.063 7  86866312.02946  21213637.328    21213640.5984
        46.400          37.8004
 20  9  1  0  9  0.0000000  0 12G22G23G01G31G32G10G08G20G11G03G27G21
 123152016.571 6  95962618.06944  23435049.000    23435050.5204
        41.800          29.3004
 129617242.420 5 101000476.82343  24665341.258    24665347.7274
        35.900          19.6004
 116539111.118 7  90809727.47645  22176655.289    22176662.6374
        43.700          32.7004
 110914288.001 7  86426734.44246  21106286.859    21106290.4574
        47.300          38.7004
 109962427.854 8  85685032.32246  20925154.375    20925160.2234
        49.800          40.3004
 117746351.959 7  91750430.60645  22406386.094    22406392.6564
        45.900          34.3004
 127328442.658 6  99217001.23843  24229797.547    24229805.8674
        37.300          20.6004
 129755191.420 6 101107960.25644  24691592.258    24691597.6024
        41.200          26.0004
 112893322.702 7  87968838.83045  21482885.109    21482888.7544
        47.500          33.3004
 131492110.329 6 102461416.51345  25022115.945    25022123.8594
        38.500          30.9004
 132697137.616 6 103400400.67344  25251426.945    25251435.7544
        41.100          26.0004
 111526324.963 7  86903643.62046  21222754.102    21222757.3444
        46.400          37.1004
 20  9  1  0  9 30.0000000  0 12G22G23G01G31G32G10G08G20G11G03G27G21
 123077494.322 6  95904548.84144  23420867.867    23420869.4264
        41.700          28.6004
 129695192.796 6 101061217.32243  24680174.867    24680181.1994
        37.300          20.9004
 116465344.036 7  90752246.64545  22162617.859    22162625.2424
        44.100          33.0004
 110845926.146 7  86373465.49346  21093278.008    21093281.6174
        47.300          38.7004
 110010702.943 8  85722649.27246  20934340.828    20934346.6884
        50.300          40.2004
 117800446.978 7  91792582.56045  22416680.055    22416686.6374
        46.100          33.9004
 127400411.658 6  99273080.96143  24243492.828    24243500.9964
        37.800          18.6004
 129841003.849 6 101174827.03544  24707921.875    24707927.1604
        40.800          26.0004
 112900363.664 7  87974325.27745  21484224.969    21484228.6294
        47.100          33.4004
 131408404.662 6 102396191.37245  25006187.195    25006195.0554
        37.800          30.0004
 132783138.940 6 103467414.60544  25267792.438    25267801.3484
        41.500          27.3004
 111574674.639 7  86941318.67746  21231954.750    21231957.9734
        46.800          37.5004
 20  9  1  0 10  0.0000000  0 12G22G23G01G31G32G10G08G20G11G03G27G21
 123003004.350 7  95846504.72744  23406692.875    23406694.4224
        42.100          28.7004
 129773263.164 6 101122051.30743  24695031.383    24695037.5004
        37.600          20.4004
 116391987.982 7  90695086.10445  22148658.648    22148666.0704
        43.300          33.6004
 110778056.560 7  86320580.13546  21080362.836    21080366.4184
        47.600          39.2004
 110059206.253 8  85760444.05646  20943570.703    20943576.4964
        50.000          40.8004
 117854762.242 7  91834906.13745  22427015.906    22427022.4774
        45.600          33.6004
 127472513.870 6  99329264.44243  24257213.430    24257221.5124
        38.200          20.4004
 129926947.627 6 101241796.15244  24724276.359    24724281.6914
        40.200          25.0004
 112908025.292 7  87980295.37745  21485682.938    21485686.6024
        46.700          33.5004
 131324651.956 6 102330929.59845  24990249.484    24990257.3204
        36.400          30.0004
 132869005.471 6 103534323.52744  25284132.344    25284141.2934
        40.600          26.0004
 111623463.086 7  86979335.63346  21241238.898    21241242.1134
        47.100          37.5004
 20  9  1  0 10 30.0000000  0 12G22G23G01G31G32G10G08G20G11G03G27G21
 122928548.000 6  95788486.83144  23392524.281    23392525.8444
        41.400          29.9004
 129851453.798 6 101182979.03343  24709910.695    24709916.7734
        38.400          19.6004
 116319045.933 7  90638248.15945  22134778.211    22134785.6484
        42.800          32.6004
 110710682.174 7  86268080.64246  21067541.898    21067545.4774
        47.600          39.6004
 110107936.514 8  85798415.68046  20952843.773    20952849.6174
        49.300          40.7004
 117909298.391 7  91877401.83345  22437393.797    22437400.3634
        46.000          33.6004
 127544746.847 6  99385549.86143  24270958.891    24270967.0084
        38.100          19.9004
 130013022.591 6 101308867.52744  24740655.875    24740661.2544
        40.400          25.3004
 112916307.035 7  87986748.68045  21487258.898    21487262.5514
        45.800          33.3004
 131240852.936 6 102265631.75145  24974302.953    24974310.8134
        36.700          31.4004
 132954735.085 6 103601125.73244  25300446.172    25300455.1844
        40.600          26.7004
 111672689.586 7  87017693.92646  21250606.391    21250609.6254
        45.500          37.4004
 20  9  1  0 11  0.0000000  0 12G22G23G01G31G32G10G08G20G11G03G27G21
 122854126.453 7  95730496.05044  23378362.320    23378363.8754
        43.700          29.6004
 129929764.894 6 101244000.60943  24724812.805    24724818.9024
        37.500          19.9004
 116246520.762 7  90581735.06245  22120977.102    22120984.5434
        43.600          33.5004
 110643806.025 8  86215969.38446  21054815.773    21054819.3554
        48.400          39.4004
 110156892.430 8  85836563.14546  20962159.773    20962165.6374
        49.800          40.4004
 117964056.086 7  91920070.15545  22447813.859    22447820.4184
        46.700          33.6004
 127617107.368 6  99441934.64243  24284728.672    24284736.7424
        37.100          20.6004
 130099228.447 6 101376040.85943  24757060.328    24757065.6644
        40.100          23.9004
 112925208.595 7  87993684.95445  21488952.820    21488956.4734
        46.500          33.5004
 131157008.333 6 102200298.37145  24958347.758    24958355.5554
        37.500          30.7004
 133040325.516 6 103667819.46344  25316733.547    25316742.5394
        40.000          25.2004
 111722353.578 7  87056393.12646  21260057.141    21260060.3984
        46.300          36.7004
 20  9  1  0 11 30.0000000  0 12G22G23G01G31G32G10G08G20G11G03G27G21
 122779740.072 7  95672532.67845  23364207.039    23364208.5904
        42.700          30.2004
 130008195.805 6 101305115.58642  24739737.602    24739743.7584
        36.600          17.8004
 116174414.457 7  90525548.35045  22107255.703    22107263.1214
        43.700          33.3004
 110577429.975 7  86164247.82046  21042184.805    21042188.3794
        47.400          39.4004
 110206071.824 8  85874884.75046  20971518.305    20971524.1454
        50.300          40.7004
 118019035.056 7  91962910.89745  22458276.016    22458282.5234
        45.500          34.0004
 127689592.303 6  99498416.36843  24298522.117    24298530.1414
        37.500          20.4004
 130185564.717 6 101443315.84843  24773489.633    24773494.9694
        39.600          22.9004
 112934728.623 7  88001103.15745  21490764.422    21490768.0514
        47.300          33.7004
 131073118.050 6 102134929.38745  24942383.852    24942391.6604
        38.400          31.4004
 133125773.721 6 103734402.38844  25332993.828    25333002.8714
        41.300          26.5004
 111772453.112 7  87095431.70946  21269590.773    21269594.0514
        46.500          37.4004
 20  9  1  0 12  0.0000000  0 12G22G23G01G31G32G10G08G20G11G03G27G21
 122705390.057 7  95614597.62945  23350058.688    23350060.1884
        43.900          30.4004
 130086746.946 6 101366324.19943  24754685.469    24754691.4224
        36.900          20.1004
 116102730.056 7  90469690.39645  22093614.594    22093621.9924
        44.500          33.0004
 110511556.777 7  86112918.08446  21029649.539    21029653.0704
        47.600          39.3004
 110255473.524 8  85913379.57346  20980919.133    20980924.9844
        50.500          40.6004
 118074236.045 7  92005924.63745  22468780.430    22468786.9304
        46.100          33.2004
 127762198.977 6  99554992.97843  24312338.773    24312346.7424
        38.300          21.1004
 130272031.017 6 101510692.13643  24789943.656    24789949.0314
        38.900          22.6004
 112944866.837 7  88009003.05245  21492693.672    21492697.2814
        46.800          33.1004
 130989182.926 6 102069525.47145  24926411.438    24926419.2194
        38.000          31.9004
 133211077.616 6 103800872.87044  25349226.625    25349235.7274
        41.300          25.7004
 111822987.617 7  87134809.23046  21279207.172    21279210.4774
        47.600          37.0004
 20  9  1  0 12 30.0000000  0 12G22G23G01G31G32G10G08G20G11G03G27G21
 122631077.190 7  95556691.51944  23335917.406    23335918.8594
        44.000          29.6004
 130165417.939 6 101427626.22043  24769656.117    24769661.9184
        38.800          19.9004
 116031469.736 7  90414162.89945  22080054.172    22080061.5744
        43.900          33.0004
 110446188.980 8  86061982.17546  21017210.430    21017213.9344
        48.500          39.9004
 110305095.621 8  85952046.14146  20990361.906    20990367.7584
        48.600          40.0004
 118129659.018 7  92049111.35645  22479327.070    22479333.5164
        45.300          33.9004
 127834923.924 6  99611661.75443  24326177.938    24326185.8244
        37.300          21.8004
 130358626.591 6 101578169.15743  24806422.391    24806427.6684
        40.200          22.9004
 112955621.756 7  88017383.50845  21494740.266    21494743.8244
        46.700          33.1004
 130905203.071 6 102004086.71145  24910430.500    24910438.3134
        38.100          32.4004
 133296234.367 6 103867228.67444  25365431.406    25365440.5514
        40.400          24.0004
 111873955.647 7  87174524.56846  21288906.063    21288909.3674
        45.100          36.9004
 20  9  1  0 13  0.0000000  0 12G22G23G01G31G32G10G08G20G11G03G27G21
 122556802.208 7  95498814.94544  23321783.328    23321784.7704
        44.500          29.6004
 130244208.435 6 101489021.38343  24784649.273    24784655.2074
        36.900          21.3004
 115960636.068 7  90358967.84845  22066574.953    22066582.3404
        43.700          33.6004
 110381328.760 8  86011441.77646  21004867.922    21004871.4224
        48.300          39.6004
 110354936.551 7  85990883.21946  20999846.320    20999852.2154
        47.700          40.5004
 118185304.319 7  92092471.31645  22489916.023    22489922.4734
        45.000          33.5004
 127907764.373 6  99668420.48643  24340039.102    24340046.8914
        38.300          21.5004
 130445351.143 6 101645746.68243  24822925.563    24822930.8094
        39.900          22.5004
 112966992.744 7  88026244.01645  21496904.102    21496907.6254
        47.000          32.9004
 130821178.972 6 101938613.45745  24894441.172    24894448.9384
        39.000          32.1004
 133381241.641 6 103933467.98844  25381607.781    25381616.9304
        40.900          26.1004
 111925355.864 7  87214576.67346  21298687.211    21298690.5474
        45.300          37.0004
 20  9  1  0 13 30.0000000  0 12G22G23G01G31G32G10G08G20G11G03G27G21
 122482565.762 7  95440968.38644  23307656.578    23307658.0084
        44.100          29.9004
 130323118.476 6 101550509.69643  24799665.539    24799671.3554
        39.700          22.2004
 115890231.611 7  90304107.24045  22053177.406    22053184.7774
        44.600          32.3004
 110316978.702 8  85961298.90146  20992622.492    20992626.0274
        48.300          39.2004
 110404994.722 8  86029889.58246  21009372.063    21009377.9454
        49.500          39.9004
 118241172.190 7  92136004.70645  22500547.313    22500553.8054
        45.500          33.2004
 127980717.634 6  99725267.16443  24353921.727    24353929.4694
        37.500          20.9004
 130532204.158 6 101713424.28643  24839453.219    24839458.4104
        39.300          22.9004
 112978978.606 7  88035583.64245  21499184.930    21499188.4264
        47.300          32.7004
 130737111.058 6 101873106.07745  24878443.484    24878451.2894
        38.700          32.4004
 133466096.848 6 103999588.82244  25397755.219    25397764.3954
        38.700          24.0004
 111977186.999 7  87254964.55046  21308550.344    21308553.7154
        46.400          37.5004
 20  9  1  0 14  0.0000000  0 12G22G23G01G31G32G10G08G20G11G03G27G21
 122408368.844 7  95383152.63244  23293537.359    23293538.7814
        43.400          29.7004
 130402147.847 6 101612091.02343  24814704.398    24814710.2384
        39.000          22.8004
 115820258.784 7  90249582.97945  22039861.992    22039869.3404
        44.500          32.7004
 110253141.220 7  85911555.43546  20980474.594    20980478.1414
        47.400          39.7004
 110455268.441 7  86069063.90946  21018938.828    21018944.7154
        47.300          39.8004
 118297262.882 7  92179711.72245  22511221.008    22511227.5124
        44.100          33.7004
 128053780.743 6  99782199.39143  24367825.203    24367832.9064
        38.500          21.3004
 130619185.129 6 101781201.64543  24856005.039    24856010.4654
        39.500          22.3004
 112991578.463 7  88045401.69945  21501582.609    21501586.0944
        46.800          32.7004
 130652999.708 6 101807564.84645  24862437.563    24862445.3714
        38.700          32.2004
 133550797.535 6 104065589.22144  25413873.242    25413882.4804
        38.700          24.0004
 112029447.952 7  87295687.34746  21318495.289    21318498.6994
        45.400          37.3004
 20  9  1  0 14 30.0000000  0 12G22G23G01G31G32G10G08G20G11G03G27G21
 122334212.815 7  95325368.73144  23279425.922    23279427.3364
        44.100          29.4004
 130481296.723 6 101673765.45743  24829765.898    24829771.8714
        38.600          22.5004
 115750720.336 7  90195397.19845  22026629.242    22026636.5944
        43.900          32.6004
 110189819.100 7  85862213.56246  20968424.773    20968428.3634
        47.500          39.3004
 110505756.365 8  86108405.14246  21028546.359    21028552.2974
        48.500          40.4004
 118353576.902 7  92223592.76545  22521937.195    22521943.7304
        44.900          33.0004
 128126949.914 6  99839214.28543  24381748.836    24381756.5864
        38.400          21.3004
 130706293.758 6 101849078.45243  24872581.352    24872586.7114
        39.200          22.3004
 113004791.605 7  88055697.65245  21504096.984    21504100.4534
        46.700          32.3004
 130568845.651 6 101741990.32245  24846423.492    24846431.1914
        39.000          31.4004
 133635341.426 6 104131467.50743  25429961.422    25429970.7194
        38.100          23.0004
 112082137.447 7  87336744.07046  21328521.773    21328525.2424
        45.400          37.7004
 20  9  1  0 15  0.0000000  0 12G22G23G01G31G32G10G08G20G11G03G27G21
 122260098.166 7  95267617.07044  23265322.367    23265323.7664
        44.100          29.9004
 130560564.442 6 101735532.49643  24844850.117    24844856.0514
        39.300          22.6004
 115681618.337 7  90141551.49545  22013479.555    22013486.9104
        44.500          33.3004
 110127014.237 7  85813274.73446  20956473.391    20956477.0234
        47.200          38.5004
 110556456.443 8  86147911.68646  21038194.250    21038200.2304
        49.900          40.2004
 118410114.072 7  92267647.68945  22532695.859    22532702.4344
        44.600          33.1004
 128200223.123 6  99896310.25443  24395692.273    24395700.1454
        37.700          20.4004
 130793529.054 6 101917053.97643  24889181.531    24889187.0354
        38.200          21.3004
 113018616.707 7  88066470.44645  21506727.820    21506731.2664
        47.000          32.6004
 130484648.890 6 101676382.54345  24830401.297    24830408.9804
        39.800          32.6004
 133719725.710 6 104197221.35943  25446019.367    25446028.5784
        38.500          22.9004
 112135253.915 7  87378133.50246  21338629.508    21338633.0044
        45.800          37.3004
 20  9  1  0 15 30.0000000  0 12G22G23G01G31G32G10G08G20G11G03G27G21
 122186026.134 7  95209898.61744  23251226.914    23251228.2974
        44.000          29.9004
 130639951.370 6 101797392.41543  24859957.000    24859962.8244
        39.000          22.3004
 115612955.687 7  90088048.14545  22000413.469    22000420.8594
        44.700          33.3004
 110064729.434 7  85764741.15046  20944620.953    20944624.5594
        47.700          38.9004
 110607367.546 7  86187582.67846  21047882.313    21047888.2774
        47.800          39.8004
 118466875.052 7  92311877.02245  22543497.117    22543503.6994
        44.300          33.3004
 128273596.883 6  99953484.58943  24409654.859    24409662.7734
        38.400          21.7004
 130880891.157 6 101985128.31443  24905806.094    24905811.5164
        38.900          20.6004
 113033053.079 7  88077719.56245  21509474.969    21509478.3984
        46.700          33.3004
 130400410.354 6 101610742.18845  24814371.156    24814378.8164
        38.900          33.2004
 133803948.322 6 104262849.24543  25462046.453    25462055.6684
        37.400          21.7004
 112188796.678 7  87419855.12446  21348818.367    21348821.8714
        45.400          37.4004
 20  9  1  0 16  0.0000000  0 12G22G23G01G31G32G10G08G20G11G03G27G21
 122111997.255 7  95152213.79745  23237139.656    23237141.0664
        45.200          30.2004
 130719457.141 6 101859344.95943  24875086.438    24875092.0704
        38.900          21.8004
 115544734.698 7  90034888.95545  21987431.422    21987438.8524
        44.200          33.1004
 110002966.784 8  85716614.43646  20932867.891    20932871.4884
        48.000          39.7004
 110658487.924 8  86227416.74146  21057610.195    21057616.1414
        48.900          39.9004
 118523859.960 7  92356280.83145  22554340.961    22554347.5554
        43.800          32.3004
 128347068.565 6 100010735.21943  24423636.047    24423644.0434
        38.200          22.2004
 130968379.030 6 102053300.64443  24922454.617    24922459.8794
        38.200          20.6004
 113048099.356 7  88089443.92845  21512338.180    21512341.5984
        47.400          33.0004
 130316130.321 6 101545069.52145  24798333.148    24798340.7504
        40.000          33.1004
 133888006.573 6 104328349.04843  25478042.367    25478051.5124
        38.700          22.2004
 112242764.144 7  87461907.67846  21359088.047    21359091.5394
        45.500          37.4004
 20  9  1  0 16 30.0000000  0 12G22G23G01G31G32G10G08G20G11G03G27G21
 122038012.503 7  95094563.36244  23223060.813    23223062.2034
        45.000          29.2004
 130799081.457 6 101921389.84043  24890238.391    24890244.0274
        39.200          21.8004
 115476957.702 7  89982075.72545  21974533.875    21974541.3444
        43.900          33.2004
 109941728.856 8  85668896.60246  20921214.688    20921218.2814
        48.200          39.2004
 110709815.841 8  86267412.52146  21067377.578    21067383.5474
        50.200          40.1004
 118581068.896 7  92400859.21445  22565227.453    22565234.0704
        42.600          32.2004
 128420634.861 6 100068059.55343  24437635.219    24437643.3134
        38.000          22.0004
 131055992.447 6 102121570.79843  24939126.930    24939132.2384
        37.900          19.6004
 113063754.312 7  88101642.58745  21515317.227    21515320.6564
        46.800          33.0004
 130231809.196 6 101479364.81945  24782287.375    24782294.8794
        40.400          33.9004
 133971897.941 6 104393718.84643  25494006.445    25494015.6214
        36.800          21.7004
 112297154.856 7  87504290.03846  21369438.273    21369441.7734
        46.800          37.6004
 20  9  1  0 17  0.0000000  0 11G22G23G01G31G32G10G08G11G03G27G21
 121964073.116 7  95036948.27644  23208990.578    23208991.9534
        44.100          29.9004
 130878824.312 6 101983527.12543  24905412.914    24905418.6414
        38.700          22.0004
 115409627.299 7  89929610.49345  21961721.297    21961728.8164
        44.300          34.2004
 109881017.372 8  85621588.98246  20909661.656    20909665.2114
        48.700          39.6004
 110761349.905 8  86307568.93746  21077184.188    21077190.1214
        50.700          40.3004
 118638502.273 7  92445612.47245  22576156.664    22576163.2854
        43.600          32.3004
 128494292.713 6 100125455.27043  24451651.891    24451659.9224
        38.200          23.0004
 113080016.983 7  88114314.79045  21518411.906    21518415.3404
        47.700          32.6004
 130147447.573 6 101413628.56645  24766233.867    24766241.2774
        40.200          33.8004
 134055620.224 6 104458956.88343  25509938.352    25509947.4924
        37.800          20.1004
 112351967.617 7  87547001.26646  21379868.813    21379872.2934
        47.400          36.8004
 20  9  1  0 17 30.0000000  0 11G22G23G01G31G32G10G08G11G03G27G21
 121890179.789 7  94979369.07744  23194929.125    23194930.5124
        44.300          29.9004
 130958685.407 6 102045756.50243  24920610.070    24920615.7234
        37.800          22.3004
 115342745.792 7  89877495.04645  21948994.156    21949001.6954
        44.600          33.6004
 109820834.909 7  85574693.58446  20898209.297    20898212.8014
        47.900          39.3004
 110813088.371 8  86347884.62746  21087029.695    21087035.6094
        50.000          39.8004
 118696160.179 7  92490540.68245  22587128.602    22587135.2154
        43.400          31.4004
 128568039.203 6 100182920.02643  24465685.414    24465693.5394
        39.400          22.6004
 113096886.312 7  88127459.71245  21521622.047    21521625.4924
        46.600          33.0004
 130063045.802 6 101347861.02245  24750172.734    24750180.0514
        40.400          33.6004
 134139170.877 6 104524061.15843  25525837.703    25525846.7114
        36.400          21.7004
 112407200.905 8  87590040.17146  21390379.375    21390382.8484
        48.000          37.1004
 20  9  1  0 18  0.0000000  0 11G22G23G01G31G32G10G08G11G03G27G21
 121816333.211 7  94921826.30345  23180876.555    23180877.9654
        44.200          30.8004
 131038664.342 6 102108077.72743  24935829.570    24935835.3324
        38.600          23.6004
 115276315.367 7  89825731.09345  21936352.852    21936360.4104
        44.400          33.7004
 109761183.825 8  85528212.24246  20886858.055    20886861.5204
        48.200          38.9004
 110865029.417 8  86388358.16746  21096913.750    21096919.6644
        50.100          40.4004
 118754042.571 7  92535643.83945  22598143.250    22598149.8134
        44.100          31.4004
 128641871.301 6 100240451.46143  24479735.203    24479743.3484
        39.900          21.3004
 113114360.523 7  88141075.98145  21524947.297    21524950.7384
        47.100          32.7004
 129978604.013 6 101282062.30745  24734103.969    24734111.2544
        40.800          34.4004
 134222547.144 6 104589029.53843  25541703.867    25541712.8094
        36.200          19.9004
 112462852.867 7  87633405.32946  21400969.609    21400973.0634
        47.600          36.8004
 20  9  1  0 18 30.0000000  0 11G22G23G01G31G32G10G08G11G03G27G21
 121742534.557 7  94864320.87845  23166833.109    23166834.5944
        44.100          30.4004
 131118761.037 6 102170490.70643  24951071.375    24951077.2704
        40.100          22.6004
 115210338.663 7  89774320.69145  21923797.891    21923805.4384
        43.400          34.4004
 109702066.207 7  85482146.59146  20875608.313    20875611.7384
        47.800          38.7004
 110917171.695 8  86428988.51446  21106836.109    21106841.9844
        49.100          40.0004
 118812149.914 7  92580922.27145  22609200.719    22609207.2854
        43.800          31.6004
 128715785.865 6 100298047.19543  24493800.656    24493808.7464
        39.600          22.3004
 113132438.752 7  88155162.89545  21528387.484    21528390.9494
        47.500          32.8004
 129894123.231 6 101216233.19645  24718027.797    24718034.9654
        40.400          34.1004
 134305746.959 6 104653860.44243  25557536.430    25557545.2664
        37.100          19.6004
 112518922.713 7  87677096.10246  21411639.367    21411642.7974
        46.800          37.6004
 20  9  1  0 19  0.0000000  0 10G22G23G01G31G32G10G08G11G03G21
 121668784.785 7  94806853.55645  23152798.961    23152800.4924
        44.600          30.8004
 131198975.384 6 102232995.31344  24966335.836    24966341.5474
        40.200          24.5004
 115144817.985 7  89723265.62845  21911329.711    21911337.2154
        44.400          34.1004
 109643484.421 7  85436498.47346  20864460.547    20864463.9184
        47.900          38.7004
 110969513.602 8  86469774.41546  21116796.445    21116802.2974
        50.100          39.7004
 118870482.356 7  92626376.11045  22620301.016    22620307.5274
        43.400          31.9004
 128789780.214 6 100355705.09243  24507881.359    24507889.3794
        39.400          22.8004
 113151119.756 7  88169719.51245  21531942.367    21531945.8554
        46.500          33.0004
 129809603.738 6 101150373.93245  24701944.242    24701951.3794
        40.100          34.4004
 112575408.812 7  87721111.22546  21422388.336    21422391.7584
        46.900          37.1004
 20  9  1  0 19 30.0000000  0 10G22G23G01G31G32G10G08G11G03G21
 121595084.955 7  94749425.13745  23138774.320    23138775.9104
        45.000          30.9004
 131279307.234 6 102295591.49843  24981622.547    24981628.1644
        41.100          22.8004
 115079755.843 7  89672567.87245  21898948.797    21898956.2664
        44.100          34.2004
 109585440.607 8  85391269.56446  20853415.164    20853418.5314
        48.200          39.4004
 111022053.651 8  86510714.70546  21126794.492    21126800.3484
        49.500          40.5004
 118929040.189 7  92672005.57945  22631444.211    22631450.6454
        43.700          31.5004
 128863851.349 6 100413422.82543  24521976.664    24521984.6724
        40.000          22.0004
 113170402.342 7  88184744.89845  21535611.742    21535615.2344
        46.000          33.8004
 129725046.162 6 101084484.97045  24685853.438    24685860.5394
        38.800          33.5004
 112632309.746 7  87765449.59846  21433216.242    21433219.6884
        46.600          36.6004
 20  9  1  0 20  0.0000000  0 10G22G23G01G31G32G10G08G11G03G21
 121521436.089 7  94692036.43545  23124759.383    23124761.0084
        45.200          30.6004
 131359756.354 6 102358279.05743  24996931.500    24996937.0984
        39.700          22.6004
 115015154.588 7  89622229.24845  21886655.578    21886663.0394
        44.900          34.0004
 109527937.066 7  85346461.63346  20842472.578    20842475.9614
        47.900          39.5004
 111074790.269 8  86551808.17546  21136829.945    21136835.8054
        49.000          39.6004
 118987823.623 7  92717810.82345  22642630.336    22642636.6914
        43.800          30.8004
 128937996.021 6 100471197.84243  24536086.000    24536093.9774
        40.100          22.6004
 113190285.025 7  88200237.88845  21539395.305    21539398.8284
        45.900          32.6004
 129640451.027 6 101018566.76245  24669755.477    24669762.5514
        38.100          33.3004
 112689623.885 7  87810109.94746  21444122.773    21444126.2194
        46.800          36.5004
 20  9  1  0 20 30.0000000  0 10G22G23G01G31G32G10G08G11G03G21
 121447838.776 7  94634687.91044  23110754.266    23110755.8834
        45.400          29.6004
 131440322.342 6 102421057.72543  25012262.781    25012268.3754
        41.500          22.5004
 114951016.355 7  89572251.41845  21874450.477    21874457.8954
        45.400          34.6004
 109470975.581 8  85302076.08846  20831633.156    20831636.5274
        48.500          38.8004
 111127721.692 8  86593053.43346  21146902.469    21146908.3054
        48.500          39.6004
 119046832.609 7  92763791.82145  22653859.375    22653865.6684
        43.600          31.0004
 129012211.816 6 100529028.29643  24550208.844    24550216.8284
        40.000          23.0004
 113210766.645 7  88216197.58345  21543292.836    21543296.4024
        44.500          33.4004
 129555818.646 6 100952619.51845  24653650.422    24653657.4884
        38.300          33.3004
 112747349.786 7  87855091.15446  21455107.664    21455111.1174
        47.300          36.3004
 20  9  1  0 21  0.0000000  0 10G22G23G01G31G32G10G08G11G03G21
 121374294.492 7  94577380.70745  23096759.234    23096760.8134
        45.200          30.9004
 131521005.344 6 102483927.53644  25027616.305    25027621.9654
        41.800          24.7004
 114887343.860 7  89522636.50345  21862334.000    21862341.3874
        44.800          35.0004
 109414558.849 7  85258115.03146  20820897.383    20820900.7624
        47.900          38.8004
 111180846.699 8  86634449.53946  21157011.828    21157017.6804
        50.100          40.5004
 119106067.684 7  92809949.01645  22665131.438    22665137.7504
        43.200          31.3004
 129086495.514 6 100586911.65043  24564344.602    24564352.6214
        40.300          22.5004
 113231845.678 7  88232622.80145  21547304.063    21547307.6374
        46.800          33.6004
 129471149.909 6 100886643.95845  24637538.430    24637545.5634
        39.000          33.3004
 112805486.212 7  87900392.24846  21466170.672    21466174.1054
        46.400          36.1004
 20  9  1  0 21 30.0000000  0 10G22G23G01G31G32G10G08G11G03G21
 121300803.938 7  94520115.37245  23082774.430    23082776.0124
        44.500          30.9004
 131601804.996 6 102546888.25744  25042991.984    25042997.6954
        40.400          24.1004
 114824139.226 7  89473386.14345  21850306.563    21850313.9304
        44.100          34.5004
 109358688.533 8  85214579.75246  20810265.609    20810268.9384
        48.800          39.4004
 111234163.541 8  86675995.11446  21167157.695    21167163.5744
        48.300          39.7004
 119165528.861 7  92856282.39545  22676446.531    22676452.8634
        43.300          31.2004
 129160843.856 6 100644845.41243  24578492.711    24578500.7544
        40.300          22.5004
 113253520.613 7  88249512.35145  21551428.672    21551432.2424
        45.200          33.4004
 129386445.180 6 100820640.32445  24621419.586    24621426.6914
        37.300          32.9004
 112864031.409 7  87946011.86746  21477311.469    21477314.9024
        46.000          36.0004
 20  9  1  0 22  0.0000000  0 10G22G23G01G31G32G10G08G11G03G21
 121227368.229 7  94462892.76745  23068800.063    23068801.6484
        45.000          31.2004
 131682721.280 6 102609939.88443  25058389.883    25058395.5984
        40.900          22.3004
 114761405.018 7  89424502.35845  21838368.641    21838375.9804
        43.900          35.3004
 109303367.224 8  85171472.26246  20799738.297    20799741.6054
        49.500          39.2004
 111287670.924 8  86717689.17346  21177339.820    21177345.6644
        50.200          40.0004
 119225216.497 7  92902792.21345  22687804.719    22687811.1174
        43.400          32.1004
 129235254.265 6 100702827.48744  24592652.555    24592660.6604
        40.800          24.2004
 113275790.462 7  88266865.47245  21555666.500    21555670.0634
        46.200          33.0004
 129301705.193 6 100754609.24145  24605294.023    24605301.1414
        37.700          33.2004
 112922984.138 7  87991949.04046  21488529.813    21488533.2274
        47.000          36.8004
 20  9  1  0 22 30.0000000  0 10G22G23G01G31G32G10G08G11G03G21
 121153988.644 7  94405713.90645  23054836.375    23054837.9574
        45.500          30.6004
 131763753.849 7 102673082.10644  25073809.984    25073815.5354
        42.500          26.7004
 114699143.432 7  89375986.84645  21826520.664    21826527.9574
        44.500          35.0004
 109248596.872 8  85128794.09946  20789315.836    20789319.1484
        48.200          39.6004
 111341367.158 8  86759530.38546  21187557.883    21187563.7424
        49.600          39.8004
 119285130.619 7  92949478.53945  22699206.008    22699212.4774
        44.800          31.8004
 129309723.678 6 100760855.58843  24606823.664    24606831.7774
        40.900          23.6004
 113298653.569 7  88284680.87645  21560017.211    21560020.7584
        47.000          33.5004
 129216930.416 6 100688551.04345  24589161.836    24589168.9344
        38.900          32.4004
 112982343.031 7  88038202.70746  21499825.453    21499828.8404
        47.800          36.6004
 20  9  1  0 23  0.0000000  0 10G22G23G01G31G32G10G08G11G03G21
 121080665.894 7  94348579.32745  23040883.508    23040885.1024
        45.400          30.5004
 131844902.208 6 102736314.56743  25089251.977    25089257.6524
        40.900          22.0004
 114637356.667 7  89327841.32545  21814763.031    21814770.3134
        44.900          35.4004
 109194379.256 8  85086546.63246  20778998.547    20779001.8674
        48.100          39.5004
 111395250.668 8  86801517.52046  21197811.570    21197817.4304
        49.600          39.0004
 119345271.376 7  92996341.45545  22710650.438    22710656.9734
        44.100          31.4004
 129384249.010 6 100818927.23443  24621005.406    24621013.5274
        40.800          23.0004
 113322108.388 7  88302957.35545  21564480.523    21564484.0634
        46.400          32.6004
 129132121.357 6 100622466.11545  24573023.125    24573030.2704
        38.500          33.9004
 113042106.305 7  88084771.47946  21511198.047    21511201.4184
        46.800          36.7004
 20  9  1  0 23 30.0000000  0 10G22G23G01G31G32G10G08G11G03G21
 121007401.120 7  94291489.91945  23026941.664    23026943.2274
        45.600          30.9004
 131926166.320 6 102799637.23443  25104715.906    25104721.7504
        40.500          23.0004
 114576047.088 7  89280067.63645  21803096.203    21803103.4884
        45.100          35.0004
 109140716.566 7  85044731.56746  20768786.852    20768790.2384
        47.600          39.8004
 111449319.968 8  86843649.44346  21208100.633    21208106.4534
        49.200          39.9004
 119405638.970 7  93043381.11645  22722138.031    22722144.6174
        44.700          31.6004
 129458827.758 6 100877040.49943  24635197.211    24635205.4304
        40.200          22.6004
 113346153.602 7  88321693.88545  21569056.180    21569059.7074
        47.000          32.7004
 129047278.645 6 100556354.97545  24556878.008    24556885.1994
        37.800          33.4004
 113102272.296 7  88131654.04746  21522647.281    21522650.6374
        47.200          36.7004
 20  9  1  0 24  0.0000000  0 10G22G23G01G31G32G10G08G11G03G21
 120934195.402 7  94234446.53545  23013011.063    23013012.6254
        45.700          31.2004
 132007546.003 7 102863049.93344  25120202.094    25120207.9224
        42.300          25.7004
 114515217.055 7  89232667.62245  21791520.633    21791527.9414
        44.700          35.1004
 109087611.253 8  85003350.82046  20758681.219    20758684.6524
        48.400          39.9004
 111503573.636 8  86885925.02246  21218424.773    21218430.5784
        49.900          39.5004
 119466233.635 7  93090597.70545  22733668.820    22733675.3324
        44.300          31.7004
 129533456.720 6 100935192.88944  24649398.703    24649406.8914
        41.200          24.7004
 113370787.750 7  88340889.31645  21573743.906    21573747.4184
        46.400          33.0004
 128962402.943 6 100490218.12145  24540726.602    24540733.8714
        38.400          34.2004
 113162839.482 7  88178849.23646  21534172.859    21534176.2114
        47.200          36.9004
 20  9  1  0 24 30.0000000  0 10G22G23G01G31G32G10G08G11G03G21
 120861049.915 7  94177450.07745  22999091.922    22999093.4844
        45.300          31.9004
 132089041.069 6 102926552.56744  25135710.102    25135715.9884
        41.300          26.1004
 114454868.924 7  89185643.11345  21780036.758    21780044.0824
        45.600          35.9004
 109035064.852 8  84962405.59946  20748681.945    20748685.3634
        48.500          38.9004
 111558010.218 8  86928343.12946  21228783.719    21228789.5164
        50.300          39.2004
 119527055.549 7  93137991.39945  22745242.859    22745249.2814
        44.600          31.1004
 129608133.137 6 100993382.25943  24663609.188    24663617.3754
        40.800          22.8004
 113396009.186 7  88360542.37745  21578543.391    21578546.8834
        46.800          33.3004
 128877494.907 6 100424056.07945  24524569.063    24524576.3794
        37.000          33.0004
 113223806.440 8  88226355.93946  21545774.516    21545777.8634
        48.000          37.0004
 20  9  1  0 25  0.0000000  0 10G22G23G01G31G32G10G08G11G03G21
 120787965.458 7  94120501.16845  22985184.383    22985185.9344
        45.600          31.0004
 132170650.952 6 102990144.64844  25151240.016    25151245.9064
        41.500          25.6004
 114395004.590 7  89138995.59245  21768644.961    21768652.2934
        45.500          35.8004
 108983079.191 8  84921897.31446  20738789.375    20738792.7854
        49.300          39.0004
 111612627.897 8  86970902.35146  21239177.133    21239182.9494
        50.500          39.5004
 119588104.614 7  93185562.07445  22756860.133    22756866.5594
        44.300          31.7004
 129682853.696 6 101051606.03344  24677828.078    24677836.2584
        40.900          24.7004
 113421816.014 7  88380651.58845  21583454.273    21583457.7504
        46.300          33.0004
 128792554.893 6 100357869.11045  24508405.414    24508412.8094
        37.600          33.9004
 113285171.420 7  88274172.79646  21557451.906    21557455.2504
        47.100          36.4004
 20  9  1  0 25 30.0000000  0 10G22G23G01G31G32G10G08G11G03G21
 120714943.353 7  94063600.86045  22971288.719    22971290.2344
        45.200          31.5004
 132252375.788 6 103053826.32644  25166791.672    25166797.6174
        41.400          24.2004
 114335626.674 7  89092727.09845  21757345.711    21757353.0784
        45.600          35.8004
 108931656.656 8  84881827.82746  20729003.961    20729007.3674
        48.500          38.6004
 111667425.548 8  87013601.81646  21249604.789    21249610.5744
        49.700          39.3004
 119649381.295 7  93233310.13245  22768520.727    22768527.2194
        44.400          31.4004
 129757615.677 6 101109862.08544  24692054.859    24692063.0594
        40.400          24.4004
 113448207.175 7  88401216.11945  21588476.344    21588479.8134
        45.800          32.8004
 128707583.821 6 100291657.95445  24492235.891    24492243.3674
        37.900          33.9004
 113346933.170 7  88322298.83046  21569204.797    21569208.1454
        47.000          36.9004
 20  9  1  0 26  0.0000000  0 10G22G23G01G31G32G10G08G11G03G21
 120641984.035 7  94006749.46045  22957404.992    22957406.4614
        45.800          31.5004
 132334214.680 6 103117596.86943  25182365.023    25182371.1024
        39.900          22.8004
 114276736.825 7  89046838.91446  21746139.336    21746146.7234
        45.300          36.0004
 108880798.307 8  84842197.96246  20719325.914    20719329.3014
        48.900          39.4004
 111722401.044 8  87056439.85846  21260066.289    21260072.0274
        50.000          39.0004
 119710885.110 7  93281235.16045  22780224.531    22780231.0434
        42.600          31.9004
 129832416.024 6 101168148.02743  24706288.898    24706297.1134
        40.500          22.0004
 113475180.336 7  88422234.15345  21593609.172    21593612.6294
        45.400          32.4004
 128622581.730 6 100225422.61645  24476060.461    24476067.9804
        38.000          33.7004
 113409089.210 7  88370732.09146  21581032.719    21581036.0824
        46.600          36.2004
 20  9  1  0 26 30.0000000  0 11G22G23G01G31G32G10G08G25G11G03G21
 120569089.362 7  93949948.44445  22943533.578    22943535.0274
        45.100          31.5004
 132416168.292 6 103181456.79243  25197960.344    25197966.3874
        41.600          22.8004
 114218338.018 7  89001333.36645  21735026.398    21735033.7854
        45.800          35.9004
 108830507.143 8  84803010.05946  20709755.805    20709759.1334
        48.500          39.4004
 111777553.723 8  87099415.97046  21270561.508    21270567.2344
        48.800          39.5004
 119772616.988 7  93329337.91745  22791971.727    22791978.2734
        44.700          31.9004
 129907252.065 6 101226461.78243  24720529.703    24720537.8634
        40.700          23.8004
 130658752.084 5                  24863533.891
        34.600
 113502734.788 7  88443705.15045  21598852.617    21598856.0904
        44.500          32.7004
 128537550.038 6 100159164.22245  24459879.414    24459886.9964
        37.400          34.8004
 113471638.944 7  88419472.13046  21592935.555    21592938.9414
        47.500          36.1004
 20  9  1  0 27  0.0000000  0 10G22G01G31G32G10G08G25G11G03G21
 120496260.027 7  93893198.34545  22929674.602    22929676.0514
        45.600          32.3004
 114160431.975 7  88956211.78946  21724007.242    21724014.6374
        46.400          36.0004
 108780784.660 8  84764265.27946  20700293.914    20700297.2624
        48.300          38.5004
 111832881.651 8  87142528.63546  21281090.070    21281095.7504
        50.000          39.2004
 119834576.608 7  93377618.12945  22803762.258    22803768.7934
        43.400          31.5004
 129982120.805 6 101284801.02343  24734776.813    24734784.9414
        41.100          23.0004
 130617159.817 6 101779637.24144  24855619.031    24855627.1294
        37.600          28.5004
 113530868.428 7  88465627.45345  21604206.273    21604209.7664
        45.200          34.0004
 128452488.957 6 100092882.92545  24443692.789    24443700.3874
        37.600          34.5004
 113534579.721 7  88468516.87446  21604912.813    21604916.2074
        46.800          36.8004
 20  9  1  0 27 30.0000000  0 10G22G01G31G32G10G08G25G11G03G21
 120423497.012 7  93836499.91245  22915828.227    22915829.6724
        45.500          32.3004
 114103020.494 7  88911475.58445  21713082.195    21713089.5634
        45.100          35.8004
 108731631.860 8  84725964.40946  20690940.438    20690943.7664
        49.100          39.1004
 111888382.883 8  87185776.35146  21291651.609    21291657.2384
        49.800          39.8004
 119896763.631 7  93426075.54045  22815596.078    22815602.6134
        43.000          31.8004
 130057018.940 6 101343163.15544  24749029.414    24749037.6764
        40.400          24.4004
 130575936.675 5 101747515.35443  24847774.547    24847782.7274
        34.900          22.8004
 113559578.923 7  88487999.25645  21609669.711    21609673.2114
        45.500          32.4004
 128367398.662 6 100026578.86745  24427500.609    24427508.1294
        37.800          34.0004
 113597909.906 7  88517865.04946  21616964.164    21616967.5784
        47.000          36.1004
 20  9  1  0 28  0.0000000  0 10G22G01G31G32G10G08G25G11G03G21
 120350801.732 7  93779854.26345  22901994.766    22901996.2154
        45.600          32.7004
 114046106.454 7  88867126.99246  21702251.813    21702259.1564
        45.200          36.2004
 108683051.365 8  84688109.49346  20681695.867    20681699.1484
        48.800          38.6004
 111944056.677 8  87229158.52146  21302245.992    21302251.5864
        49.600          39.0004
 119959178.870 7  93474710.75745  22827473.320    22827479.9024
        43.600          30.7004
 130131943.678 6 101401545.99843  24763287.109    24763295.4344
        40.600          22.9004
 130535086.039 5 101715683.75844  24840000.977    24840009.1374
        35.200          24.7004
 113588865.376 7  88510819.85145  21615242.734    21615246.2234
        44.900          32.4004
 128282280.536 6  99960253.13345  24411303.156    24411310.6644
        38.400          33.6004
 113661628.422 7  88567515.82645  21629089.406    21629092.8324
        47.600          35.8004
 20  9  1  0 28 30.0000000  0 10G22G01G31G32G10G08G25G11G03G21
 120278175.639 7  93723262.53545  22888174.461    22888175.9414
        45.800          32.3004
 113989691.853 7  88823167.57846  21691516.461    21691523.7814
        45.500          36.2004
 108635045.314 8  84650702.19146  20672560.609    20672563.8794
        49.300          39.2004
 111999901.467 8  87272673.93646  21312872.914    21312878.5004
        50.200          38.9004
 120021822.400 7  93523523.88145  22839394.000    22839400.6454
        42.500          31.4004
 130206892.441 6 101459947.60643  24777549.383    24777557.6604
        39.200          23.4004
 130494610.393 5 101684144.28244  24832298.734    24832306.8054
        35.300          26.2004
 113618725.992 7  88534087.85245  21620925.023    21620928.4804
        45.500          32.6004
 128197135.177 6  99893906.16845  24395100.516    24395107.9804
        38.200          34.2004
 113725733.432 7  88617467.75446  21641288.203    21641291.6054
        47.300          36.0004
 20  9  1  0 29  0.0000000  0 10G22G01G31G32G10G08G25G11G03G21
 120205619.495 7  93666725.30745  22874367.477    22874368.9694
        45.600          32.9004
 113933779.036 7  88779599.15946  21680876.594    21680883.8634
        46.100          36.4004
 108587615.333 8  84613743.77946  20663534.977    20663538.1884
        49.300          39.4004
 112055915.915 8  87316321.54346  21323532.109    21323537.7034
        50.200          38.5004
 120084694.370 7  93572515.00445  22851358.148    22851364.8364
        43.400          30.7004
 130281862.659 6 101518365.92243  24791815.750    24791824.1174
        39.900          22.9004
 130454512.345 6 101652899.10144  24824668.273    24824676.3094
        36.600          28.2004
 113649159.152 7  88557801.99345  21626716.258    21626719.7074
        45.700          32.3004
 128111963.381 6  99827538.58345  24378892.836    24378900.2504
        38.500          34.0004
 113790223.210 8  88667719.51045  21653560.219    21653563.6134
        48.200          35.5004
 20  9  1  0 29 30.0000000  0 10G22G01G31G32G10G08G25G11G03G21
 120133134.010 7  93610243.14345  22860573.930    22860575.4574
        45.900          32.9004
 113878369.412 7  88736422.84245  21670332.484    21670339.7464
        46.100          35.8004
 108540762.594 8  84577235.17046  20654619.180    20654622.3404
        48.300          38.0004
 112112097.927 8  87360099.73146  21334223.195    21334228.7734
        49.400          38.6004
 120147794.236 7  93621683.72545  22863365.664    22863372.3794
        43.300          30.7004
 130356850.244 6 101576797.75743  24806085.508    24806093.8954
        40.200          22.0004
 130414793.709 5 101621949.54744  24817110.078    24817118.0124
        34.900          26.6004
 113680162.502 7  88581960.43745  21632615.992    21632619.4144
        44.900          33.0004
 128026765.150 6  99761150.41345  24362680.125    24362687.4884
        38.600          33.9004
 113855095.267 7  88718269.12945  21665904.969    21665908.3634
        46.900          35.2004
 20  9  1  0 30  0.0000000  0 10G22G01G31G32G10G08G25G11G03G21
 120060720.969 7  93553817.42545  22846794.172    22846795.7234
        47.000          33.5004
 113823465.825 7  88693640.84246  21659884.672    21659891.9264
        45.300          36.0004
 108494489.526 8  84541178.25146  20645813.680    20645816.7974
        48.400          38.6004
 112168446.787 8  87404007.92446  21344946.031    21344951.5594
        49.200          38.7004
 120211122.799 7  93671030.63745  22875416.711    22875423.4224
        43.600          31.8004
 130431853.687 6 101635241.95943  24820358.195    24820366.6054
        40.600          21.5004
 130375457.777 5 101591298.18544  24809624.664    24809632.5664
        35.200          25.6004
 113711734.746 7  88606562.16245  21638623.984    21638627.3914
        44.900          32.3004
 127941541.877 6  99694742.72945  24346462.648    24346469.9344
        37.200          34.1004
 113920348.859 7  88769116.06245  21678322.336    21678325.7384
        47.500          35.8004
 20  9  1  0 30 30.0000000  0 10G22G01G31G32G10G08G25G11G03G21
 119988381.124 7  93497448.73745  22833028.352    22833029.8954
        45.400          32.6004
 113769069.925 7  88651254.43846  21649533.461    21649540.7274
        46.300          36.2004
 108448797.461 8  84505574.05746  20637118.750    20637121.8914
        48.200          38.7004
 112224960.556 8  87448044.62546  21355700.250    21355705.7624
        49.700          39.0004
 120274679.672 7  93720555.43445  22887511.195    22887517.8714
        43.600          30.8004
 130506869.405 6 101693695.72744  24834633.281    24834641.7154
        40.800          24.7004
 130336506.479 6 101560946.54944  24802212.461    24802220.3794
        36.600          28.3004
 113743873.440 7  88631605.29445  21644739.773    21644743.1914
        45.100          32.7004
 127856293.855 6  99628315.77045  24330240.445    24330247.6914
        37.300          34.3004
 113985981.944 7  88820258.70545  21690811.906    21690815.3054
        47.000          35.6004
 20  9  1  0 31  0.0000000  0 10G22G01G31G32G10G08G25G11G03G21
 119916115.539 7  93441137.91145  22819276.656    22819278.2344
        44.600          33.0004
 113715183.625 7  88609265.11945  21639279.242    21639286.4964
        46.600          35.8004
 108403687.639 7  84470423.56446  20628534.625    20628537.7894
        47.700          38.7004
 112281637.697 8  87492208.61846  21366485.547    21366491.0394
        48.800          38.4004
 120338464.820 7  93770258.12445  22899649.125    22899655.7424
        44.100          30.9004
 130581894.032 6 101752156.42544  24848910.063    24848918.4804
        40.000          25.0004
 130297942.212 5 101530896.48744  24794873.891    24794881.7774
        35.700          28.8004
 113776576.701 7  88657088.34045  21650962.992    21650966.4344
        44.800          31.7004
 127771021.645 6  99561869.93245  24314013.672    24314020.7974
        36.700          33.3004
 114051992.397 7  88871695.40945  21703373.289    21703376.6564
        47.000          35.7004
 20  9  1  0 31 30.0000000  0 10G22G01G31G32G10G08G25G11G03G21
 119843925.301 7  93384885.79845  22805539.289    22805540.8794
        46.000          34.0004
 113661809.006 7  88567674.51946  21629122.391    21629129.6524
        47.200          36.0004
 108359161.841 8  84435728.15546  20620061.633    20620064.8164
        48.200          39.2004
 112338476.772 8  87536498.79446  21377301.664    21377307.1484
        49.600          38.2004
 120402478.267 7  93820138.70645  22911830.500    22911837.1484
        42.300          31.4004
 130656924.926 6 101810622.00543  24863187.984    24863196.3714
        40.200          22.2004
 130259767.418 5 101501149.91344  24787609.453    24787617.3244
        35.700          29.4004
 113809842.802 7  88683009.96845  21657293.320    21657296.7624
        45.000          33.2004
 127685725.914 6  99495405.79645  24297782.406    24297789.5164
        36.500          33.0004
 114118378.563 7  88923424.87045  21716006.180    21716009.5234
        46.500          35.4004
 20  9  1  0 32  0.0000000  0 10G22G01G31G32G10G08G25G11G03G21
 119771811.762 7  93328693.45845  22791816.523    22791818.1214
        45.800          33.2004
 113608948.475 7  88526484.50745  21619063.359    21619070.6174
        46.000          35.9004
 108315222.182 7  84401489.47146  20611700.180    20611703.4144
        47.700          39.2004
 112395476.749 8  87580914.34746  21388148.391    21388153.8794
        49.000          38.3004
 120466720.460 7  93870197.51945  22924055.422    22924062.0664
        44.400          30.9004
 130731959.716 6 101869090.63443  24877466.656    24877474.9924
        41.000          22.2004
 130221984.863 6 101471708.99545  24780419.703    24780427.5274
        37.100          30.6004
 113843670.471 7  88709369.18045  21663730.508    21663733.9694
        45.300          32.1004
 127600407.806 6  99428924.22745  24281546.867    24281553.9224
        37.100          32.9004
 114185138.703 7  88975445.74245  21728710.211    21728713.5704
        46.100          35.5004
 20  9  1  0 32 30.0000000  0 10G22G01G31G32G10G08G25G11G03G21
 119699776.365 7  93272562.00345  22778108.609    22778110.2504
        45.100          33.7004
 113556604.171 7  88485696.74446  21609102.570    21609109.8134
        45.800          36.6004
 108271870.203 8  84367708.72446  20603450.555    20603453.8324
        48.600          39.2004
 112452636.274 7  87625454.23346  21399025.477    21399030.9844
        47.800          38.3004
 120531191.603 7  93920434.75245  22936323.914    22936330.5234
        43.700          30.9004
 130806995.864 6 101927560.31043  24891745.609    24891753.9614
        40.800          23.2004
 130184597.124 5 101442575.73644  24773305.094    24773312.8674
        35.900          27.9004
 113878057.212 7  88736164.03445  21670274.078    21670277.5434
        44.500          31.9004
 127515068.143 6  99362425.84245  24265307.211    24265314.1884
        36.000          32.8004
 114252271.107 7  89027756.69545  21741485.102    21741488.4844
        46.300          35.6004
 20  9  1  0 33  0.0000000  0 10G22G01G31G32G10G08G25G11G03G21
 119627820.302 7  93216492.35145  22764415.789    22764417.4494
        45.800          33.3004
 113504778.082 7  88445312.79146  21599240.398    21599247.6134
        47.200          36.3004
 108229107.689 8  84334387.29946  20595313.102    20595316.3914
        49.300          38.9004
 112509953.956 8  87670117.35546  21409932.672    21409938.1524
        48.400          37.6004
 120595891.639 7  93970850.33345  22948635.945    22948642.4844
        45.200          31.4004
 130882029.996 6 101986028.42743  24906024.133    24906032.4344
        41.000          22.8004
 130147606.634 5 101413751.99645  24766266.063    24766273.8134
        35.300          30.8004
 113913001.228 7  88763393.12245  21676923.703    21676927.1454
        44.900          31.5004
 127429707.652 6  99295911.21845  24249063.594    24249070.5434
        36.000          32.4004
 114319774.158 7  89080356.45345  21754330.523    21754333.9414
        46.400          35.0004
 20  9  1  0 33 30.0000000  0 10G22G01G31G32G10G08G25G11G03G21
 119555944.688 7  93160485.38445  22750738.289    22750739.9534
        46.400          33.9004
 113453472.123 7  88405334.12846  21589477.203    21589484.4184
        47.200          36.8004
 108186936.087 8  84301526.32446  20587288.102    20587291.4304
        48.800          39.5004
 112567428.294 8  87714902.54846  21420869.672    21420875.1524
        48.700          37.8004
 120660820.554 7  94021444.27645  22960991.531    22960998.0554
        43.400          30.2004
 130957059.168 6 102044492.68843  24920301.750    24920310.0274
        40.700          23.8004
 130111015.645 5 101385239.52844  24759302.992    24759310.7894
        35.000          28.1004
 113948500.645 7  88791054.99445  21683679.016    21683682.4304
        44.700          32.4004
 127344326.980 6  99229380.89045  24232816.148    24232823.0044
        37.500          32.7004
 114387645.813 7  89133243.44045  21767246.086    21767249.5204
        45.900          34.9004
 20  9  1  0 34  0.0000000  0 10G22G01G31G32G10G08G25G11G03G21
 119484150.888 7  93104542.18845  22737076.352    22737078.0164
        46.800          33.3004
 113402688.191 7  88365762.24046  21579813.352    21579820.5554
        47.000          36.3004
 108145356.805 8  84269126.89146  20579375.820    20579379.1884
        49.200          39.7004
 112625057.804 7  87759808.65746  21431836.203    21431841.7154
        47.100          38.1004
 120725978.315 7  94072216.53045  22973390.664    22973397.2304
        44.300          30.5004
 131032080.555 6 102102950.86743  24934577.867    24934586.1994
        40.200          22.8004
 130074826.465 5 101357040.23344  24752416.383    24752424.1414
        34.300          27.9004
 113984553.344 7  88819147.99645  21690539.617    21690543.0164
        45.300          31.4004
 127258926.790 6  99162835.34645  24216564.984    24216571.8054
        36.100          33.0004
 114455884.172 7  89186416.16845  21780231.438    21780234.8634
        45.800          35.0004
 20  9  1  0 34 30.0000000  0 10G22G01G31G32G10G08G25G11G03G21
 119412439.622 7  93048663.29045  22723430.117    22723431.7814
        46.100          32.8004
 113352428.357 7  88326598.74046  21570249.227    21570256.4304
        47.100          37.0004
 108104371.345 8  84237190.18746  20571576.539    20571579.9064
        48.300          39.2004
 112682841.200 8  87804834.67646  21442832.016    21442837.5164
        49.000          37.4004
 120791365.031 7  94123167.19945  22985833.367    22985840.0164
        44.600          31.0004
 131107091.397 6 102161400.80143  24948851.945    24948860.3054
        40.500          22.9004
 130039041.509 5 101329155.89843  24745606.727    24745614.4734
        31.900          22.2004
 114021156.981 7  88847670.29245  21697505.047    21697508.4384
        45.000          31.9004
 127173508.035 6  99096275.32145  24200310.289    24200317.0744
        37.300          32.8004
 114524487.359 7  89239873.16045  21793286.211    21793289.6294
        46.300          35.2004
 20  9  1  0 35  0.0000000  0 10G22G01G31G32G10G08G25G11G03G21
 119340812.512 7  92992849.97545  22709799.898    22709801.5394
        46.000          32.7004
 113302694.534 7  88287845.11746  21560785.195    21560792.3954
        46.900          36.8004
 108063981.164 8  84205717.33046  20563890.539    20563893.8914
        48.200          39.3004
 112740777.083 8  87849979.52046  21453856.844    21453862.3554
        48.900          37.7004
 120856980.695 7  94174296.26045  22998319.641    22998326.3404
        44.500          30.4004
 131182088.789 6 102219840.28843  24963123.500    24963131.8204
        40.300          22.6004
 130003663.174 5 101301588.41044  24738874.391    24738882.1134
        33.700          24.9004
 114058310.035 7  88876620.71245  21704575.039    21704578.4264
        44.200          31.7004
 127088071.364 6  99029701.34945  24184052.195    24184058.9694
        37.200          32.8004
 114593453.614 7  89293613.06945  21806410.070    21806413.4924
        45.300          34.5004
 20  9  1  0 35 30.0000000  0 10G22G01G31G32G10G08G25G11G03G21
 119269270.821 7  92937103.21245  22696185.945    22696187.5474
        46.100          33.5004
 113253488.671 7  88249502.89346  21551421.625    21551428.8324
        47.000          36.4004
 108024187.988 7  84174709.67046  20556318.133    20556321.4654
        47.800          39.3004
 112798864.122 8  87895242.14246  21464910.430    21464915.9344
        48.200          37.5004
 120922825.343 7  94225603.75345  23010849.477    23010856.1914
        43.000          30.3004
 131257069.956 6 102278267.12043  24977391.945    24977400.2304
        40.200          22.3004
 129968693.730 5 101274339.56144  24732219.945    24732227.5744
        34.400          26.8004
 114096010.229 7  88905997.47145  21711749.133    21711752.5234
        45.700          31.3004
 127002617.657 6  98963114.09645  24167790.844    24167797.6094
        37.000          32.2004
 114662780.929 7  89347634.32245  21819602.633    21819606.0394
        44.900          34.6004
 20  9  1  0 36  0.0000000  0 10G22G01G31G32G10G08G25G11G03G21
 119197815.563 7  92881423.80445  22682588.445    22682590.0314
        46.600          33.0004
 113204812.534 7  88211573.44846  21542158.852    21542166.0634
        46.100          36.6004
 107984993.351 7  84144168.40746  20548859.625    20548862.9734
        47.500          38.5004
 112857100.811 8  87940621.37446  21475992.492    21475998.0514
        48.900          37.8004
 120988898.907 7  94277089.62945  23023422.883    23023429.5704
        44.100          30.2004
 131332031.987 6 102336679.01143  24991656.773    24991665.1094
        39.500          22.2004
 129934135.412 5 101247411.05844  24725643.656    24725651.2974
        34.300          26.4004
 114134255.632 7  88935799.07345  21719026.984    21719030.3794
        45.600          32.2004
 126917147.558 6  98896514.07245  24151526.367    24151533.1454
        37.600          31.8004
 114732467.345 7  89401935.39545  21832863.531    21832866.9344
        46.100          34.4004
 20  9  1  0 36 30.0000000  0 10G22G01G31G32G10G08G25G11G03G21
 119126447.593 7  92825812.41845  22669007.563    22669009.1174
        46.700          33.1004
 113156667.698 7  88174057.99546  21532997.180    21533004.3984
        46.200          36.5004
 107946397.898 8  84114094.04146  20541515.133    20541518.4884
        48.000          38.8004
 112915485.382 8  87986115.84546  21487102.695    21487108.3204
        49.100          37.6004
 121055200.986 7  94328753.54644  23036039.773    23036046.3874
        43.900          29.8004
 131406971.836 6 102395073.66443  25005917.406    25005925.8054
        40.200          23.6004
 129899990.155 6 101220804.36944  24719146.016    24719153.6054
        36.500          28.6004
 114173043.529 7  88966023.38445  21726408.078    21726411.4964
        44.900          31.6004
 126831661.477 6  98829901.58745  24135258.867    24135265.6644
        36.800          33.1004
 114802510.895 7  89456514.75445  21846192.398    21846195.8244
        46.000          34.6004
 20  9  1  0 37  0.0000000  0 10G22G01G31G32G10G08G25G11G03G21
 119055168.695 7  92770270.43845  22655443.625    22655445.1524
        46.700          33.3004
 113109056.064 7  88136958.03546  21523936.969    21523944.1954
        45.900          36.3004
 107908402.620 8  84084487.34146  20534284.852    20534288.1994
        48.200          39.2004
 112974016.607 7  88031724.58646  21498240.813    21498246.4804
        47.900          37.5004
 121121731.581 7  94380595.53044  23048700.148    23048706.7074
        43.300          28.8004
 131481886.681 6 102453448.84843  25020173.297    25020181.6764
        39.400          22.6004
 129866260.359 5 101194521.39844  24712727.430    24712734.9614
        35.800          28.3004
 114212372.075 7  88996668.99545  21733892.047    21733895.4804
        45.200          31.9004
 126746160.335 6  98763277.36345  24118988.492    24118995.3054
        36.900          33.3004
 114872909.464 7  89511370.77045  21859588.813    21859592.2934
        45.900          34.0004
 20  9  1  0 37 30.0000000  0 10G22G01G31G32G10G08G25G11G03G21
 118983980.231 7  92714798.92345  22641896.891    22641898.3954
        46.900          32.8004
 113061980.263 7  88100275.59546  21514978.727    21514985.9574
        46.500          36.8004
 107871010.150 8  84055350.36446  20527169.281    20527172.6524
        48.500          39.4004
 113032693.867 8  88077447.12046  21509406.719    21509412.4264
        48.500          37.7004
 121188491.500 7  94432616.22044  23061404.148    23061410.6844
        43.400          29.2004
 131556774.342 6 102511802.80043  25034424.031    25034432.4104
        38.900          22.0004
 129832949.024 6 101168564.51944  24706388.516    24706396.0084
        36.900          28.1004
 114252239.453 7  89027734.46445  21741478.563    21741482.0084
        46.400          31.8004
 126660645.732 6  98696642.64245  24102715.570    24102722.3834
        37.300          32.0004
 114943661.620 7  89566502.29045  21873052.508    21873056.0274
        46.500          34.9004
 20  9  1  0 38  0.0000000  0 10G22G01G31G32G10G08G25G11G03G21
 118912883.445 7  92659398.84445  22628367.609    22628369.0864
        46.700          33.3004
 113015441.681 7  88064011.77346  21506122.711    21506129.9414
        45.900          37.2004
 107834221.312 7  84026683.75246  20520168.578    20520171.9614
        47.300          39.2004
 113091515.348 8  88123282.03746  21520600.070    21520605.8364
        48.400          37.8004
 121255480.208 7  94484815.17444  23074151.688    23074158.1564
        42.900          28.7004
 131631631.784 6 102570133.21943  25048669.016    25048677.4144
        39.300          22.2004
 129800057.969 6 101142935.12944  24700129.602    24700136.9734
        38.100          29.7004
 114292643.387 7  89059218.03245  21749167.180    21749170.6484
        46.400          31.5004
 126575117.938 6  98629997.66845  24086440.141    24086446.9924
        37.400          31.8004
 115014765.129 7  89621907.59845  21886583.070    21886586.6374
        46.000          34.4004
 20  9  1  0 38 30.0000000  0 10G22G01G31G32G10G08G25G11G03G21
 118841879.856 7  92604071.39145  22614856.055    22614857.5044
        46.700          33.1004
 112969442.482 7  88028168.24946  21497369.344    21497376.5864
        47.000          37.3004
 107798037.823 7  83998488.84046  20513283.078    20513286.4494
        47.800          39.7004
 113150480.097 8  88169228.58346  21531820.688    21531826.5354
        48.400          37.7004
 121322698.074 7  94537192.70944  23086942.828    23086949.3094
        42.400          29.1004
 131706456.022 6 102628437.77743  25062907.633    25062916.1254
        38.300          22.2004
 129767589.777 6 101117635.24544  24693951.117    24693958.4494
        37.500          28.6004
 114333581.858 7  89091118.12445  21756957.523    21756961.0274
        46.100          31.4004
 126489578.233 6  98563343.39245  24070162.438    24070169.3014
        36.800          31.8004
 115086218.338 7  89677585.38845  21900180.164    21900183.7664
        46.100          34.0004
 20  9  1  0 39  0.0000000  0 10G22G01G31G32G10G08G25G11G03G21
 118770970.037 7  92548817.00245  22601362.352    22601363.7734
        46.300          33.5004
 112923984.261 7  87992746.26946  21488718.930    21488726.1644
        46.700          36.6004
 107762460.764 8  83970766.47846  20506512.992    20506516.4144
        49.000          40.1004
 113209586.549 8  88215285.55446  21543068.273    21543074.1724
        48.100          37.5004
 121390144.854 7  94589748.61344  23099777.523    23099784.1334
        42.900          28.5004
 131781244.938 6 102686714.79543  25077139.570    25077148.0204
        39.100          22.3004
 129735546.405 6 101092666.38545  24687853.438    24687860.7974
        37.700          30.2004
 114375052.343 7  89123432.77945  21764849.109    21764852.6454
        45.900          32.1004
 126404027.226 6  98496680.32345  24053882.594    24053889.4774
        37.900          32.1004
 115158019.001 7  89733533.94345  21913843.391    21913847.0234
        46.800          34.1004
 20  9  1  0 39 30.0000000  0 10G22G01G31G32G10G08G25G11G03G21
 118700155.605 7  92493636.93845  22587886.789    22587888.2154
        46.600          33.3004
 112879068.719 7  87957747.14646  21480171.766    21480178.9884
        46.500          37.3004
 107727491.277 8  83943517.54646  20499858.531    20499861.9534
        48.000          39.7004
 113268833.347 8  88261451.89246  21554342.555    21554348.4884
        48.100          37.8004
 121457820.418 7  94642482.78944  23112655.758    23112662.4494
        42.900          27.3004
 131855995.065 6 102744961.58843  25091364.117    25091372.5744
        39.700          22.6004
 129703930.068 6 101068030.28445  24681837.023    24681844.4304
        36.700          32.5004
 114417052.299 7  89156159.99645  21772841.445    21772845.0234
        46.800          31.7004
 126318465.719 6  98430009.04545  24037600.750    24037607.7194
        38.100          32.6004
 115230165.138 7  89789751.68145  21927572.352    21927575.9844
        46.600          33.8004
 20  9  1  0 40  0.0000000  0 10G22G01G31G32G10G08G25G11G03G21
 118629437.736 7  92438532.12445  22574429.602    22574431.0514
        46.400          33.4004
 112834697.529 7  87923172.19446  21471728.195    21471735.4144
        46.400          36.2004
 107693130.136 7  83916742.64546  20493319.820    20493323.2194
        47.300          40.2004
 113328219.024 7  88307726.43446  21565643.273    21565649.2894
        47.400          37.5004
 121525724.616 7  94695395.09844  23125577.539    23125584.2384
        43.800          29.1004
 131930703.295 6 102803175.74743  25105580.695    25105589.2114
        38.100          20.4004
 129672742.827 5 101043728.53845  24675902.258    24675909.7194
        35.900          30.9004
 114459579.808 7  89189298.30645  21780934.180    21780937.8054
        46.200          31.6004
 126232894.447 6  98363330.16545  24021317.063    24021324.0474
        36.400          32.0004
 115302654.481 7  89846236.86645  21941366.625    21941370.2664
        46.200          33.6004
 20  9  1  0 40 30.0000000  0 10G22G01G31G32G10G08G25G11G03G21
 118558817.866 7  92383503.67145  22560991.063    22560992.4964
        45.600          33.0004
 112790872.486 7  87889022.81646  21463388.555    21463395.7624
        45.300          36.6004
 107659378.827 8  83890442.93346  20486897.164    20486900.5704
        48.100          39.9004
 113387742.357 8  88354108.24146  21576970.188    21576976.2774
        48.500          36.9004
 121593857.440 7  94748485.56544  23138542.797    23138549.5554
        42.600          28.6004
 132005367.601 6 102861355.63843  25119788.898    25119797.3984
        39.000          22.0004
 129641986.930 6 101019762.90045  24670049.586    24670057.0394
        38.600          31.5004
 114502632.694 7  89222845.99745  21789126.883    21789130.5084
        47.000          31.5004
 126147314.344 6  98296644.41245  24005031.703    24005038.7504
        38.900          32.6004
 115375485.356 7  89902988.16645  21955225.891    21955229.5164
        46.600          33.9004
 20  9  1  0 41  0.0000000  0 10G22G01G31G32G10G08G25G11G03G21
 118488297.590 7  92328552.82745  22547571.477    22547572.9264
        46.600          33.2004
 112747595.526 7  87855300.51246  21455153.203    21455160.4184
        46.500          36.9004
 107626238.975 7  83864619.68246  20480590.852    20480594.2544
        47.400          40.4004
 113447402.299 7  88400596.51246  21588323.094    21588329.1564
        47.600          37.7004
 121662219.081 7  94801754.35244  23151551.586    23151558.5044
        42.300          28.9004
 132079984.942 6 102919498.99243  25133988.148    25133996.7074
        40.100          22.3004
 129611664.678 6 100996135.24145  24664279.422    24664286.9184
        38.300          31.8004
 114546208.578 7  89256801.21545  21797419.109    21797422.7464
        46.300          32.1004
 126061726.581 6  98229952.66345  23988744.859    23988751.9614
        37.500          32.8004
 115448655.841 7  89960004.10745  21969149.789    21969153.4104
        47.200          33.2004
 20  9  1  0 41 30.0000000  0 11G22G01G31G32G10G08G25G11G03G04G21
 118417877.642 7  92273680.15445  22534170.977    22534172.4614
        45.600          32.4004
 112704867.993 7  87822006.32746  21447022.422    21447029.6374
        45.900          37.1004
 107593711.069 7  83839273.26746  20474400.992    20474404.4184
        46.700          39.4004
 113507197.142 7  88447189.87646  21599701.672    21599707.7624
        47.600          37.3004
 121730809.051 7  94855201.03744  23164603.844    23164610.7974
        43.400          29.3004
 132154552.186 6 102977603.26643  25148177.859    25148186.4064
        40.200          21.7004
 129581777.864 6 100972846.86245  24658592.141    24658599.7074
        37.500          32.3004
 114590304.997 7  89291162.04745  21805810.398    21805814.0514
        46.000          32.5004
 125976131.542 6  98163255.27345  23972456.648    23972463.7774
        37.300          32.7004
 132791980.573 5 103474309.91342  25269473.625    25269483.4104
        35.000          16.9004
 115522163.606 7  90017282.85545  21983137.859    21983141.4734
        46.300          32.8004
 20  9  1  0 42  0.0000000  0 11G22G01G31G32G10G08G25G11G03G04G21
 118347559.670 7  92218886.94245  22520789.891    22520791.4304
        45.100          32.9004
 112662691.803 7  87789141.76446  21438996.555    21439003.7704
        45.600          37.1004
 107561796.597 7  83814404.86346  20468327.852    20468331.2854
        46.600          40.2004
 113567125.867 8  88493887.57746  21611105.734    21611111.8674
        48.200          37.4004
 121799627.524 7  94908825.77344  23177699.586    23177706.4844
        42.700          27.9004
 132229067.079 6 103035666.74743  25162357.602    25162366.2154
        40.000          22.3004
 129552328.926 6 100949899.66045  24652988.180    24652995.7734
        36.800          33.1004
 114634919.710 7  89325926.74545  21814300.313    21814303.9844
        46.100          31.6004
 125890530.508 6  98096553.20645  23956167.289    23956174.5084
        37.300          34.1004
 132708548.462 6 103409297.95742  25253596.977    25253606.2974
        36.500          15.6004
 115596006.954 7  90074823.09645  21997189.797    21997193.3634
        46.300          32.8004
 20  9  1  0 42 30.0000000  0 11G22G01G31G32G10G08G25G11G03G04G21
 118277345.010 7  92164174.23345  22507428.461    22507430.0084
        46.300          34.0004
 112621068.577 7  87756708.07846  21431075.922    21431083.1484
        47.100          37.1004
 107530496.376 7  83790015.08746  20462371.609    20462375.0314
        47.200          40.1004
 113627187.107 7  88540688.53746  21622535.008    21622541.1414
        47.300          36.0004
 121868674.328 7  94962628.44644  23190838.758    23190845.6024
        43.200          28.2004
 132303526.641 6 103093687.13643  25176526.836    25176535.4264
        39.900          21.5004
 129523319.804 6 100927295.16245  24647467.906    24647475.5434
        38.300          33.2004
 114680050.254 7  89361093.39645  21822888.383    21822892.1054
        46.500          32.5004
 125804924.280 6  98029847.07845  23939876.953    23939884.1454
        37.900          32.9004
 132625238.997 6 103344381.59842  25237743.695    25237752.6914
        36.900          16.9004
 115670183.306 7  90132622.83645  22011305.109    22011308.6764
        46.900          32.7004
 20  9  1  0 43  0.0000000  0 11G22G01G31G32G10G08G25G11G03G04G21
 118207234.869 7  92109542.96245  22494086.930    22494088.4964
        46.900          33.9004
 112579999.895 7  87724706.51746  21423260.805    21423268.0314
        47.200          37.3004
 107499811.400 7  83766104.72646  20456532.438    20456535.8594
        47.500          39.8004
 113687379.597 7  88587591.76146  21633989.250    21633995.3484
        46.800          37.3004
 121937949.356 7  95016608.95344  23204021.383    23204028.1644
        42.600          28.6004
 132377928.313 6 103151662.40643  25190685.031    25190693.6914
        38.600          21.1004
 129494752.604 6 100905035.02545  24642031.742    24642039.3874
        37.900          33.4004
 114725694.276 7  89396660.15245  21831574.164    21831577.8954
        46.300          31.9004
 125719313.700 6  97963137.58245  23923585.773    23923592.9804
        38.500          32.8004
 132542052.546 6 103279561.06343  25221913.820    25221922.6914
        37.700          18.3004
 115744690.774 7  90190680.57945  22025483.430    22025486.9924
        47.200          32.8004
 20  9  1  0 43 30.0000000  0 11G22G01G31G32G10G08G25G11G03G04G21
 118137230.754 7  92054994.31445  22480765.586    22480767.1844
        47.100          32.8004
 112539487.571 7  87693138.47546  21415551.563    21415558.8014
        47.000          37.8004
 107469743.038 8  83742674.85146  20450810.602    20450813.9884
        48.000          39.6004
 113747702.169 7  88634596.35146  21645468.266    21645474.3594
        47.500          37.3004
 122007452.667 7  95070767.32944  23217247.438    23217254.2194
        43.900          29.3004
 132452269.447 6 103209590.50143  25204831.805    25204840.4104
        37.900          19.3004
 129466629.555 6 100883120.97945  24636680.094    24636687.7704
        37.600          32.5004
 114771849.516 7  89432625.26445  21840357.227    21840360.9804
        45.600          32.5004
 125633699.870 6  97896425.55545  23907293.961    23907301.1954
        36.900          32.7004
 132458989.669 6 103214836.81843  25206107.406    25206116.1914
        37.000          19.3004
 115819527.414 7  90248994.81645  22039724.398    22039727.9804
        46.400          32.9004
 20  9  1  0 44  0.0000000  0 11G22G01G31G32G10G08G25G11G03G04G21
 118067334.022 7  92000529.34045  22467464.672    22467466.3094
        47.000          33.6004
 112499533.154 7  87662005.16746  21407948.484    21407955.7304
        46.800          37.4004
 107440292.301 8  83719726.23646  20445206.313    20445209.6844
        48.400          40.5004
 113808153.577 8  88681701.32446  21656971.781    21656977.8794
        48.000          36.5004
 122077184.107 7  95125103.48544  23230516.906    23230523.7114
        43.000          29.1004
 132526547.411 6 103267469.35943  25218966.414    25218975.0864
        39.700          21.7004
 129438952.660 6 100861554.59245  24631413.336    24631420.9884
        38.100          32.2004
 114818513.529 7  89468986.82445  21849237.117    21849240.9184
        46.300          31.9004
 125548083.709 6  97829711.70045  23891001.711    23891008.9224
        37.700          32.7004
 132376050.629 6 103150209.10343  25190324.609    25190333.1724
        36.900          18.6004
 115894691.188 7  90307563.96945  22054027.602    22054031.1804
        47.100          33.0004
 20  9  1  0 44 30.0000000  0 11G22G01G31G32G10G08G25G11G03G04G21
 117997545.822 7  91946148.94545  22454184.422    22454186.0664
        47.900          34.2004
 112460138.111 8  87631307.74046  21400451.852    21400459.0864
        48.000          37.3004
 107411459.877 8  83697259.42446  20439719.688    20439723.0434
        48.500          40.2004
 113868732.451 7  88728905.63846  21668499.563    21668505.6054
        47.500          36.7004
 122147143.464 7  95179617.21044  23243829.734    23243836.5864
        43.000          28.3004
 132600758.783 6 103325296.34943  25233088.328    25233097.0474
        38.800          18.6004
 129411723.886 6 100840337.35545  24626231.867    24626239.4494
        37.100          30.3004
 114865683.796 7  89505742.87045  21858213.336    21858217.1454
        46.400          31.6004
 125462466.036 6  97762996.68445  23874709.172    23874716.3204
        37.200          32.8004
 132293235.781 6 103085678.14343  25174565.430    25174573.6914
        36.400          18.6004
 115970179.854 7  90366386.28345  22068392.648    22068396.1884
        46.700          32.9004
 20  9  1  0 45  0.0000000  0 11G22G01G31G32G10G08G25G11G03G04G21
 117927867.640 7  91891854.27045  22440925.109    22440926.7664
        46.900          34.0004
 112421304.120 7  87601047.49746  21393061.984    21393069.1994
        47.200          37.3004
 107383246.964 7  83675275.35246  20434350.953    20434354.2584
        47.000          40.2004
 113929437.669 7  88776208.38946  21680051.383    21680057.3674
        47.800          36.9004
 122217330.746 7  95234308.58244  23257185.953    23257192.8364
        42.700          27.4004
 132674901.459 6 103383069.80043  25247197.250    25247205.9454
        38.000          20.4004
 129384945.274 5 100819470.92744  24621136.031    24621143.6914
        35.200          28.7004
 114913358.007 7  89542891.58445  21867285.461    21867289.2424
        45.200          32.6004
 125376847.943 6  97696281.32245  23858416.547    23858423.6214
        37.000          32.8004
 132210545.542 6 103021244.30243  25158829.953    25158838.1094
        38.000          19.3004
 116045991.375 7  90425460.16245  22082819.125    22082822.6254
        45.900          32.6004
 20  9  1  0 45 30.0000000  0 11G22G01G31G32G10G08G25G11G03G04G21
 117858301.237 7  91837646.68945  22427687.063    22427688.6884
        47.200          34.4004
 112383032.850 7  87571225.72946  21385779.203    21385786.3874
        47.600          38.1004
 107355654.753 7  83653774.94746  20429100.328    20429103.6054
        47.800          40.3004
 113990268.129 7  88823608.72746  21691627.039    21691633.0044
        47.000          37.1004
 122287745.958 7  95289177.51744  23270585.531    23270592.4264
        43.100          28.3004
 132748972.526 6 103440787.45243  25261292.602    25261301.2504
        39.200          19.0004
 129358618.958 5 100798956.95144  24616126.195    24616133.8954
        34.600          27.1004
 114961533.778 7  89580431.14145  21876453.016    21876456.7624
        46.400          31.4004
 125291230.494 6  97629566.48245  23842124.031    23842131.0864
        37.600          31.7004
 132127980.451 6 102956907.95643  25143118.297    25143126.3484
        38.600          19.3004
 116122123.704 7  90484784.02545  22097306.656    22097310.1024
        46.900          32.7004
 20  9  1  0 46  0.0000000  0 11G22G01G31G32G10G08G25G11G03G04G21
 117788848.118 7  91783527.40245  22414470.563    22414472.1724
        46.700          34.4004
 112345325.559 7  87541843.43746  21378603.742    21378610.9064
        46.800          37.5004
 107328683.448 7  83632758.35946  20423967.867    20423971.1174
        47.200          40.3004
 114051222.312 7  88871105.47446  21703226.242    21703232.2114
        47.000          37.8004
 122358388.626 7  95344223.73544  23284028.398    23284035.3484
        43.000          28.4004
 132822969.238 6 103498447.13843  25275373.586    25275382.3444
        38.600          18.6004
 129332746.683 5 100778796.78944  24611202.758    24611210.5434
        33.100          25.2004
 115010208.430 7  89618359.42745  21885715.516    21885719.2034
        45.800          32.1004
 125205614.420 6  97562852.68845  23825831.789    23825838.8054
        37.800          32.9004
 132045540.560 6 102892669.20642  25127430.453    25127438.3244
        37.900          17.8004
 116198574.463 7  90544356.00945  22111854.781    22111858.1884
        46.200          31.8004
 20  9  1  0 46 30.0000000  0 12G22G26G01G31G32G10G08G25G11G03G04G21
 117719508.796 7  91729496.78345  22401275.734    22401277.3164
        46.800          34.6004
 131618950.553 5                  25046253.508
        31.600
 112308183.906 7  87512901.89946  21371535.922    21371543.0784
        47.900          38.3004
 107302334.252 7  83612226.53446  20418953.781    20418957.0234
        47.400          39.4004
 114112299.187 8  88918697.83446  21714848.805    21714854.7504
        48.000          37.3004
 122429258.815 7  95399447.22844  23297514.570    23297521.5514
        42.700          27.6004
 132896889.197 6 103556047.03143  25289440.188    25289448.8244
        38.000          19.3004
 129307330.584 5 100758992.08944  24606366.188    24606373.9694
        33.500          25.2004
 115059379.441 7  89656674.49345  21895072.469    21895076.0944
        46.300          32.7004
 125120000.822 6  97496140.83945  23809540.008    23809547.0314
        37.700          33.3004
 131963226.389 6 102828528.38443  25111766.531    25111774.2734
        38.900          18.6004
 116275341.459 7  90604174.41845  22126463.078    22126466.4694
        46.800          31.9004
 20  9  1  0 47  0.0000000  0 12G22G26G01G31G32G10G08G25G11G03G04G21
 117650285.065 7  91675556.23645  22388102.891    22388104.4614
        46.500          33.8004
 131537905.383 5                  25030830.344
        33.200
 112271609.109 7  87484402.06346  21364575.969    21364583.1094
        47.500          37.7004
 107276607.715 7  83592179.89346  20414058.172    20414061.4344
        47.700          39.4004
 114173497.270 7  88966384.64946  21726494.422    21726500.3484
        47.900          36.6004
 122500356.078 7  95454847.65444  23311043.953    23311050.9884
        42.600          27.9004
 132970729.361 5 103613584.76842  25303491.539    25303500.2154
        35.600          17.4004
 129282372.311 5 100739544.07344  24601616.758    24601624.5274
        34.600          25.5004
 115109044.029 7  89695374.15845  21904523.352    21904526.9924
        46.100          32.8004
 125034390.477 6  97429431.52245  23793248.867    23793255.8834
        38.800          33.1004
 131881037.995 6 102764485.60743  25096126.539    25096134.1374
        37.200          19.0004
 116352422.716 7  90664237.70945  22141131.195    22141134.5594
        46.200          31.5004
 20  9  1  0 47 30.0000000  0 12G22G26G01G31G32G10G08G25G11G03G04G21
 117581178.598 7  91621707.05245  22374952.367    22374953.9064
        46.800          34.4004
 131456708.18615                  25015379.789
        31.800
 112235602.713 8  87456345.13246  21357724.180    21357731.3164
        48.000          37.7004
 107251504.667 7  83572619.08646  20409281.203    20409284.4654
        47.700          40.2004
 114234815.462 8  89014165.03546  21738162.914    21738168.8874
        48.700          37.0004
 122571680.362 7  95510424.95044  23324616.523    23324623.5704
        42.400          27.7004
 133044486.730 6 103671057.99243  25317527.148    25317535.8634
        36.900          20.1004
 129257873.867 5 100720454.37944  24596954.852    24596962.6564
        34.600          27.3004
 115159199.853 7  89734456.60845  21914067.711    21914071.3914
        46.600          32.8004
 124948784.453 6  97362725.56645  23776958.539    23776965.5354
        38.100          33.1004
 131798975.859 6 102700541.22843  25080510.594    25080518.0164
        37.500          19.0004
 116429816.141 7  90724544.24945  22155858.695    22155862.0634
        46.100          32.1004
 20  9  1  0 48  0.0000000  0 12G22G26G01G31G32G10G08G25G11G03G04G21
 117512190.706 7  91567950.26645  22361824.398    22361825.8834
        47.100          33.8004
 131375367.638 4                  24999901.109
        29.900
 112200166.306 7  87428732.35146  21350980.859    21350987.9734
        47.600          38.1004
 107227026.227 7  83553544.99446  20404623.094    20404626.3484
        47.400          39.8004
 114296252.701 7  89062038.19146  21749854.047    21749860.0234
        47.500          36.7004
 122643231.663 7  95566179.15944  23338232.305    23338239.3834
        42.700          27.5004
 133118159.477 6 103728465.19543  25331546.516    25331555.4024
        36.400          18.6004
 129233837.279 5 100701724.59744  24592380.914    24592388.6334
        35.500          27.6004
 115209844.496 7  89773919.95745  21923705.086    21923708.7704
        46.800          32.3004
 124863183.922 6  97296023.89545  23760669.266    23760676.2544
        38.800          33.9004
 131717040.410 6 102636695.47343  25064918.734    25064926.0594
        37.900          20.4004
 116507519.333 7  90785092.15745  22170645.156    22170648.5124
        46.500          31.9004
 20  9  1  0 48 30.0000000  0 12G22G26G01G31G32G10G08G25G11G03G04G21
 117443322.664 7  91514286.87545  22348719.242    22348720.6954
        47.200          34.9004
 131293883.408 5 102306969.01142  24984395.141    24984406.0554
        30.500          13.9004
 112165301.367 7  87401564.86746  21344346.289    21344353.3714
        47.600          38.3004
 107203172.904 7  83534957.99546  20400083.938    20400087.1724
        47.600          39.5004
 114357807.900 8  89110003.28046  21761567.617    21761573.5704
        48.400          36.3004
 122715009.862 7  95622110.19544  23351891.250    23351898.4304
        42.700          28.2004
 133191744.510 6 103785804.17242  25345549.398    25345558.2234
        37.500          15.6004
 129210264.549 5 100683356.25544  24587895.164    24587902.8164
        33.000          26.7004
 115260975.412 7  89813762.21845  21933435.000    21933438.7034
        46.200          32.6004
 124777589.953 6  97229327.33745  23744381.242    23744388.2114
        38.900          34.6004
 131635232.032 6 102572948.81643  25049351.078    25049358.2424
        38.800          19.3004
 116585530.149 7  90845879.77645  22185490.148    22185493.5204
        46.100          31.5004
 20  9  1  0 49  0.0000000  0 12G22G26G01G31G32G10G08G25G11G03G04G21
 117374576.482 7  91460718.42845  22335637.273    22335638.6954
        47.700          34.6004
 131212258.119 5 102243364.98542  24968862.219    24968872.6524
        33.400          14.8004
 112131009.427 7  87374843.87646  21337820.758    21337827.8284
        47.400          38.1004
 107179945.787 8  83516858.94846  20395663.945    20395667.1454
        48.100          38.8004
 114419479.990 8  89158059.44345  21773303.445    21773309.3594
        48.300          35.8004
 122787014.967 7  95678218.05744  23365593.367    23365600.6884
        42.400          28.8004
 133265239.483 6 103843072.85043  25359534.969    25359543.8634
        37.300          18.3004
 129187153.70215 100665346.93854  24583498.047    24583505.9024
        32.600          24.2004
 115312590.062 7  89853981.40845  21943256.969    21943260.6524
        46.200          33.4004
 124692003.732 6  97162636.79945  23728094.719    23728101.6414
        39.500          33.7004
 131553551.224 6 102509301.48743  25033807.680    25033814.7664
        37.600          18.3004
 116663846.901 7  90906905.79345  22200393.352    22200396.7734
        46.000          31.8004
 20  9  1  0 49 30.0000000  0 11G22G26G01G31G32G10G25G11G03G04G21
 117305953.051 7  91407245.63945  22322578.664    22322580.0824
        46.500          34.2004
 131130493.833 5 102179652.63842  24953302.820    24953312.1954
        30.100          14.8004
 112097291.613 7  87348570.25546  21331404.469    21331411.5314
        46.600          37.7004
 107157345.389 8  83499248.25946  20391363.211    20391366.3754
        48.300          38.9004
 114481267.579 7  89206205.61646  21785061.234    21785067.1684
        47.100          36.2004
 122859246.462 7  95734502.30844  23379338.586    23379345.9454
        42.900          28.4004
 129164514.400 5 100647705.96544  24579189.898    24579197.3284
        33.400          24.6004
 115364685.396 7  89894575.16545  21953170.406    21953174.0944
        46.200          32.6004
 124606426.037 6  97095952.91645  23711809.813    23711816.6684
        40.400          34.8004
 131471998.022 6 102445753.64443  25018288.570    25018295.5204
        38.500          19.6004
 116742467.140 7  90968168.29245  22215354.313    22215357.7624
        45.000          31.7004
 20  9  1  0 50  0.0000000  0 11G22G26G01G31G32G10G25G11G03G04G21
 117237453.213 7  91353869.15945  22309543.563    22309544.9844
        47.000          34.3004
                                  24937717.023
        27.600
 112064148.836 7  87322744.72046  21325097.609    21325104.6604
        47.800          37.7004
 107135371.700 8  83482125.90946  20387181.750    20387184.8834
        48.000          39.7004
 114543169.045 7  89254440.50945  21796840.695    21796846.6294
        47.700          35.8004
 122931703.748 7  95790962.48844  23393126.766    23393134.1254
        42.300          27.0004
 129142343.895 6 100630430.29044  24574971.008    24574978.7074
        37.100          27.0004
 115417258.784 7  89935541.42845  21963174.820    21963178.5354
        46.400          31.9004
 124520857.474 6  97029276.15445  23695526.648    23695533.4884
        40.000          34.5004
 131390572.322 6 102382305.13143  25002793.703    25002800.5234
        37.700          19.3004
 116821388.120 7  91029665.13345  22230372.492    22230375.9344
        45.800          32.3004
 20  9  1  0 50 30.0000000  0 10G22G01G31G32G10G25G11G03G04G21
 117169079.223 7  91300590.74445  22296532.414    22296533.8404
        46.500          34.5004
 112031582.965 7  87297368.71946  21318900.539    21318907.6024
        47.000          38.2004
 107114025.871 8  83465492.81646  20383119.773    20383122.8874
        48.600          39.2004
 114605183.781 7  89302763.68645  21808641.719    21808647.6254
        47.000          35.5004
 123004387.178 7  95847598.89044  23406957.984    23406965.3834
        42.100          27.6004
 129120644.621 6 100613521.81344  24570841.766    24570849.4884
        37.100          26.7004
 115470307.992 7  89976878.45845  21973269.773    21973273.5204
        46.600          32.4004
 124435299.673 6  96962607.76345  23679245.523    23679252.3484
        40.500          34.7004
 131309275.012 6 102318956.67343  24987323.297    24987330.0314
        38.800          20.1004
 116900608.112 7  91091394.96545  22245447.570    22245451.0904
        45.700          31.4004
 20  9  1  0 51  0.0000000  0 10G22G01G31G32G10G25G11G03G04G21
 117100832.702 7  91247411.64045  22283545.523    22283546.9734
        46.400          34.2004
 111999595.499 7  87272443.41846  21312813.523    21312820.6174
        46.800          38.2004
 107093309.037 8  83449349.82946  20379177.484    20379180.6094
        48.700          38.8004
 114667310.870 7  89351174.39646  21820464.102    21820470.0004
        46.300          36.2004
 123077296.729 7  95904411.50644  23420832.234    23420839.6484
        43.500          26.7004
 129099418.499 6 100596982.01444  24566802.570    24566810.2154
        37.100          25.3004
 115523830.550 7  90018584.33345  21983454.797    21983458.5904
        45.300          33.0004
 124349753.927 6  96895948.77645  23662966.688    23662973.5704
        41.500          35.2004
 131228106.568 6 102255708.58143  24971877.383    24971884.0044
        39.100          20.1004
 116980124.995 7  91153356.13745  22260579.148    22260582.7154
        44.900          31.7004
 20  9  1  0 51 30.0000000  0 10G22G01G31G32G10G25G11G03G04G21
 117032714.716 7  91194332.69645  22270583.086    22270584.5474
        46.500          34.9004
 111968187.311 7  87247969.50346  21306836.758    21306843.8594
        46.700          38.6004
 107073221.128 8  83433696.92746  20375354.883    20375357.9614
        48.500          39.4004
 114729548.709 7  89399671.39545  21832307.570    21832313.5394
        46.900          35.9004
 123150431.798 7  95961399.83444  23434749.422    23434756.8404
        42.400          27.5004
 129078666.919 6 100580811.96144  24562853.648    24562861.1914
        36.900          25.9004
 115577823.289 7  90060656.57745  21993729.289    21993733.0664
        45.800          32.4004
 124264220.845 6  96829299.64345  23646690.250    23646697.0904
        40.700          34.9004
 131147066.874 6 102192560.83943  24956455.977    24956462.6054
        38.400          20.6004
 117059936.141 7  91215546.61145  22275766.727    22275770.3094
        45.400          32.3004
 20  9  1  0 52  0.0000000  0 10G22G01G31G32G10G25G11G03G04G21
 116964726.912 7  91141355.19145  22257645.422    22257646.8794
        46.200          34.4004
 111937359.967 7  87223948.20646  21300970.508    21300977.5944
        46.800          37.9004
 107053763.157 8  83418534.88146  20371652.156    20371655.2074
        48.200          39.8004
 114791896.483 7  89448254.07145  21844171.969    21844177.9614
        46.300          35.9004
 123223792.384 6  96018563.91444  23448709.484    23448716.9454
        41.300          25.8004
 129058391.894 6 100565013.22244  24558995.469    24559002.9574
        37.300          26.1004
 115632283.912 7  90103093.40845  22004092.828    22004096.6214
        45.600          32.8004
 124178701.861 6  96762661.49945  23630416.516    23630423.3484
        41.600          35.5004
 131066156.441 6 102129513.82243  24941059.180    24941065.7664
        39.800          20.4004
 117140039.723 7  91277964.95145  22291009.961    22291013.5664
        44.800          31.9004
 20  9  1  0 52 30.0000000  0 10G22G01G31G32G10G25G11G03G04G21
 116896870.728 7  91088480.25145  22244732.813    22244734.2274
        47.300          34.4004
 111907114.471 7  87200380.28546  21295214.984    21295222.0634
        47.100          37.9004
 107034935.201 8  83403863.75746  20368069.305    20368072.3444
        48.600          39.4004
 114854352.859 7  89496921.36346  21856057.039    21856062.9844
        47.500          36.7004
 123297378.104 6  96075903.37944  23462712.406    23462719.7504
        41.300          26.5004
 129038595.016 6 100549587.09644  24555228.266    24555235.7344
        37.300          26.9004
 115687209.393 7  90145892.46745  22014544.813    22014548.6334
        45.800          32.1004
 124093197.811 6  96696034.98546  23614145.594    23614152.4534
        41.300          36.7004
 130985375.451 6 102066567.64943  24925687.008    24925693.4964
        39.600          20.1004
 117220433.401 7  91340609.35045  22306308.398    22306311.9844
        44.600          31.7004
 20  9  1  0 53  0.0000000  0 10G22G01G31G32G10G25G11G03G04G21
 116829147.819 7  91035709.16345  22231845.563    22231846.9454
        47.000          33.9004
 111877452.182 7  87177266.81946  21289570.438    21289577.5004
        47.000          37.2004
 107016737.917 8  83389684.06646  20364606.469    20364609.4844
        48.500          39.7004
 114916916.886 7  89545672.55146  21867962.594    21867968.5044
        47.600          36.2004
 123371188.873 7  96133418.23444  23476758.148    23476765.3914
        42.100          26.4004
 129019278.071 6 100534534.91244  24551552.352    24551559.8164
        36.300          24.7004
 115742597.057 7  90189051.66745  22025084.750    22025088.5784
        46.100          32.6004
 124007710.002 6  96629421.11245  23597877.773    23597884.6334
        41.100          35.6004
 130904724.281 6 102003722.66943  24910339.484    24910345.8954
        39.300          21.1004
 117301114.654 7  91403477.82945  22321661.563    22321665.0984
        46.000          31.7004
 20  9  1  0 53 30.0000000  0 10G22G01G31G32G10G25G11G03G04G21
 116761559.505 7  90983042.94945  22218983.922    22218985.2704
        46.600          34.3004
 111848374.375 7  87154608.78846  21284037.109    21284044.1564
        46.600          37.6004
 106999172.012 8  83375996.35346  20361263.781    20361266.8054
        48.300          38.9004
 114979587.444 7  89594506.73846  21879888.414    21879894.3484
        47.500          36.9004
 123445224.404 7  96191108.21444  23490846.680    23490853.9494
        42.500          26.8004
 129000442.761 5 100519858.08944  24547968.117    24547975.5274
        35.300          25.7004
 115798444.531 7  90232569.16645  22035712.195    22035716.0474
        46.600          32.7004
 123922239.494 6  96562820.72946  23581613.234    23581620.1414
        41.100          36.2004
 130824203.214 6 101940979.03143  24895016.758    24895023.0664
        39.000          21.5004
 117382081.465 7  91466568.81945  22337069.063    22337072.5984
        45.700          31.4004
 20  9  1  0 54  0.0000000  0 10G22G01G31G32G10G25G11G03G04G21
 116694107.107 7  90930482.65145  22206148.148    22206149.4804
        47.200          34.5004
 111819881.722 7  87132406.72746  21278615.133    21278622.1684
        46.600          37.9004
 106982237.372 7  83362800.53446  20358041.211    20358044.2734
        47.900          39.0004
 115042363.055 8  89643422.80646  21891834.242    21891840.1884
        48.300          36.4004
 123519484.102 6  96248972.90044  23504977.859    23504985.1644
        41.200          26.0004
 128982090.398 6 100505557.58844  24544475.781    24544483.2154
        37.100          24.9004
 115854748.619 7  90276442.46145  22046426.523    22046430.4104
        46.000          32.8004
 123836787.131 6  96496234.50846  23565352.148    23565359.1294
        39.900          36.5004
 130743812.141 6 101878336.72443  24879718.828    24879725.1294
        41.300          21.5004
 117463331.214 7  91529880.27645  22352530.406    22352533.9614
        45.800          31.8004
 20  9  1  0 54 30.0000000  0 10G22G01G31G32G10G25G11G03G04G21
 116626792.347 7  90878029.60045  22193338.570    22193339.8714
        47.000          33.8004
 111791975.811 7  87110661.86146  21273304.813    21273311.8524
        46.600          37.8004
 106965934.843 8  83350097.26846  20354938.930    20354941.9924
        48.300          39.2004
 115105243.028 8  89692420.17946  21903799.938    21903805.8674
        48.200          36.3004
 123593968.062 6  96307012.31844  23519151.734    23519158.9574
        41.800          26.2004
 128964223.025 6 100491634.99844  24541075.719    24541083.1724
        37.500          26.5004
 115911506.797 7  90320669.59945  22057227.266    22057231.1804
        45.600          32.3004
 123751354.350 6  96429663.50846  23549094.805    23549101.7894
        41.400          36.8004
 130663551.734 6 101815796.20843  24864445.727    24864452.0204
        39.700          20.9004
 117544861.756 7  91593410.54345  22368045.172    22368048.7664
        45.500          31.0004
 20  9  1  0 55  0.0000000  0 10G22G01G31G32G10G25G11G03G04G21
 116559616.502 7  90825684.79945  22180555.422    22180556.7074
        47.500          34.7004
 111764657.576 7  87089374.92446  21268106.320    21268113.3594
        47.200          37.4004
 106950264.610 8  83337886.69746  20351956.961    20351959.9924
        48.500          39.0004
 115168226.156 7  89741497.93645  21915785.227    21915791.1764
        47.500          35.9004
 123668675.885 7  96365226.16144  23533368.180    23533375.3674
        42.300          24.7004
 128946842.134 6 100478091.48344  24537768.258    24537775.6374
        38.600          27.9004
 115968715.760 7  90365247.99445  22068113.773    22068117.7194
        46.100          31.9004
 123665942.143 6  96363108.56646  23532841.367    23532848.4534
        41.200          37.2004
 130583422.110 6 101753357.63343  24849197.508    24849203.7854
        40.800          21.1004
 117626671.207 7  91657158.12345  22383613.008    22383616.5944
        45.900          31.4004
 20  9  1  0 55 30.0000000  0 10G22G01G31G32G10G25G11G03G04G21
 116492581.652 7  90773449.86045  22167799.117    22167800.4144
        47.800          34.7004
 111737928.329 7  87068546.94146  21263019.914    21263026.9414
        47.200          37.8004
 106935227.152 8  83326169.20246  20349095.422    20349098.4534
        49.000          39.5004
 115231311.504 7  89790655.33246  21927789.992    21927796.0204
        47.300          36.1004
 123743607.438 7  96423614.36144  23547627.195    23547634.3794
        42.500          26.0004
 128929949.492 6 100464928.43344  24534553.695    24534561.0664
        37.300          27.4004
 116026373.369 7  90410175.97845  22079085.672    22079089.6484
        45.700          32.0004
 123580551.879 6  96296570.72346  23516592.109    23516599.2274
        41.800          37.6004
 130503423.681 6 101691021.23543  24833974.258    24833980.6024
        40.400          21.7004
 117708756.702 7  91721120.82045  22399233.391    22399236.9574
        45.600          30.7004
 20  9  1  0 56  0.0000000  0 10G22G01G31G32G10G25G11G03G04G21
 116425688.918 8  90721325.66245  22155069.844    22155071.1564
        48.100          35.4004
 111711788.943 7  87048178.59346  21258045.750    21258052.7544
        47.900          37.9004
 106920822.574 8  83314944.86646  20346354.320    20346357.3324
        49.900          40.2004
 115294497.809 8  89839891.41346  21939813.969    21939820.0164
        48.300          36.6004
 123818762.276 7  96482176.54144  23561928.703    23561935.9414
        42.600          26.3004
 128913546.404 5 100452146.84244  24531432.266    24531439.7274
        35.000          26.5004
 116084476.639 7  90455451.24345  22090142.367    22090146.3954
        46.100          32.8004
 123495184.546 7  96230050.72846  23500347.211    23500354.3324
        42.300          37.6004
 130423556.487 6 101628787.13543  24818776.000    24818782.4184
        39.800          22.2004
 117791115.944 7  91785296.81345  22414905.859    22414909.4804
        45.800          30.5004
 20  9  1  0 56 30.0000000  0 10G22G01G31G32G10G25G11G03G04G21
 116358939.959 7  90669313.48945  22142367.930    22142369.2544
        47.300          34.9004
 111686240.587 7  87028270.78946  21253184.047    21253191.0514
        47.300          37.6004
 106907051.335 8  83304214.03846  20343733.734    20343736.7734
        48.400          39.9004
 115357784.201 7  89889205.47545  21951856.984    21951863.0234
        47.300          35.8004
 123894140.243 7  96540912.59244  23576272.703    23576280.0124
        42.500          26.5004
 128897634.658 5 100439748.11643  24528404.219    24528411.8834
        33.000          22.8004
 116143022.749 7  90501071.57445  22101283.336    22101287.4024
        44.900          32.7004
 123409841.440 7  96163549.63446  23484106.953    23484114.0864
        42.600          37.9004
 130343820.930 6 101566655.60143  24803602.805    24803609.2154
        40.800          22.9004
 117873747.085 7  91849684.68945  22430630.055    22430633.6914
        45.500          30.8004
 20  9  1  0 57  0.0000000  0 10G22G01G31G32G10G25G11G03G04G21
 116292336.718 8  90617414.87845  22129693.750    22129695.0784
        48.000          34.5004
 111661284.577 7  87008824.54846  21248435.070    21248442.0984
        47.300          37.8004
 106893914.062 8  83293977.20946  20341233.797    20341236.8594
        49.000          40.5004
 115421169.844 8  89938596.86845  21963918.883    21963924.8794
        48.200          35.7004
 123969741.281 6  96599822.44944  23590659.125    23590666.4344
        41.700          24.2004
 128882215.033 5 100427730.63143  24525470.078    24525477.6484
        33.600          22.8004
 116202008.999 7  90547034.87145  22112508.063    22112512.1454
        46.200          31.7004
 123324524.006 7  96097068.54146  23467871.578    23467878.6454
        42.300          37.7004
 130264217.503 6 101504627.05243  24788454.750    24788461.2704
        40.000          22.0004
 117956648.026 7  91914282.78345  22446405.602    22446409.2344
        45.600          30.7004
 20  9  1  0 57 30.0000000  0 10G22G01G31G32G10G25G11G03G04G21
 116225879.951 7  90565630.39745  22117047.438    22117048.7734
        47.500          34.9004
 111636920.996 7  86989839.93946  21243798.836    21243805.8874
        46.800          38.1004
 106881409.930 8  83284233.73946  20338854.344    20338857.4304
        49.100          40.1004
 115484652.837 7  89988064.12945  21975999.320    21976005.3244
        46.600          35.7004
 124045564.215 7  96658905.21644  23605087.797    23605095.0594
        42.000          26.1004
 128867290.185 5 100416100.87643  24522629.922    24522637.4534
        34.300          22.5004
 116261431.968 7  90593338.45645  22123815.891    22123819.9844
        44.000          32.6004
 123239232.596 7  96030607.71446  23451641.148    23451648.2154
        42.800          38.3004
 130184745.562 6 101442700.93043  24773331.695    24773338.2234
        40.500          21.3004
 118039815.379 7  91979088.47744  22462231.852    22462235.4734
        45.000          29.8004
 20  9  1  0 58  0.0000000  0 10G22G01G31G32G10G25G11G03G04G21
 116159571.584 8  90513961.54545  22104429.367    22104430.6954
        48.100          35.2004
 111613151.223 7  86971318.03646  21239275.594    21239282.6684
        46.700          38.6004
 106869539.528 8  83274984.08246  20336595.477    20336598.6254
        48.800          40.1004
 115548232.525 7  90037606.74246  21988098.148    21988104.1294
        46.600          36.3004
 124121609.113 6  96718160.94944  23619558.688    23619565.9224
        41.800          25.6004
 128852861.006 5 100404857.35043  24519884.109    24519891.5204
        35.100          23.3004
 116321288.980 7  90639980.27145  22135206.320    22135210.4344
        46.300          32.4004
 123153968.725 7  95964168.36146  23435415.961    23435423.0044
        42.700          38.7004
 130105405.691 6 101380877.71643  24758233.805    24758240.3204
        39.900          21.7004
 118123247.540 7  92044100.52044  22478108.492    22478112.1254
        45.000          29.7004
 20  9  1  0 58 30.0000000  0 10G22G01G31G32G10G25G11G03G04G21
 116093413.294 7  90462409.63845  22091839.852    22091841.1804
        47.900          35.3004
 111589976.492 7  86953259.80346  21234865.578    21234872.6684
        47.200          38.2004
 106858303.316 8  83266228.60146  20334457.289    20334460.4344
        48.600          39.9004
 115611908.167 7  90087224.10546  22000215.234    22000221.2424
        46.100          36.4004
 124197875.910 7  96777589.60844  23634071.813    23634079.0704
        42.300          26.5004
 128838929.206 5 100394001.36744  24517233.008    24517240.3134
        35.200          24.4004
 116381577.463 7  90686958.28445  22146678.859    22146683.0084
        44.100          32.8004
 123068733.920 7  95897751.64546  23419196.305    23419203.3244
        42.100          38.8004
 130026198.400 6 101319157.82243  24743161.141    24743167.6524
        39.800          22.9004
 118206941.921 7  92109316.89245  22494035.031    22494038.6564
        45.000          30.6004
 20  9  1  0 59  0.0000000  0 10G22G01G31G32G10G25G11G03G04G21
 116027406.926 8  90410976.12246  22079279.242    22079280.5984
        48.000          36.3004
 111567397.878 7  86935666.08046  21230569.008    21230576.1094
        47.600          38.5004
 106847701.699 7  83257967.60846  20332439.867    20332443.0164
        47.900          40.1004
 115675678.903 7  90136915.57746  22012350.422    22012356.4304
        47.500          36.0004
 124274364.459 6  96837191.04844  23648627.141    23648634.4574
        41.800          26.3004
 128825496.471 5 100383534.28544  24514676.867    24514684.0904
        34.300          25.5004
 116442294.616 7  90734270.33945  22158232.969    22158237.1254
        45.700          32.6004
 122983529.588 6  95831358.68246  23402982.438    23402989.4654
        41.800          39.2004
 129947124.084 6 101257541.55343  24728113.758    24728120.2114
        39.900          22.6004
 118290896.215 7  92174735.77744  22510011.023    22510014.6604
        45.300          29.6004
 20  9  1  0 59 30.0000000  0 10G22G01G31G32G10G25G11G03G04G21
 115961553.451 7  90359661.73545  22066747.734    22066749.1054
        47.800          35.7004
 111545415.889 7  86918537.25846  21226385.977    21226393.0984
        47.500          37.9004
 106837734.437 7  83250200.91546  20330543.141    20330546.2624
        47.900          39.2004
 115739543.314 8  90186680.04145  22024503.430    22024509.4264
        48.300          35.0004
 124351073.968 7  96896964.65644  23663224.516    23663231.8524
        42.900          26.4004
 128812563.778 5 100373456.82044  24512215.938    24512223.0044
        34.600          24.4004
 116503437.273 7  90781913.95045  22169868.055    22169872.1764
        45.200          31.2004
 122898356.529 7  95764990.08546  23386774.523    23386781.5434
        42.100          38.3004
 129868182.512 6 101196028.70343  24713091.648    24713098.0394
        39.200          22.8004
 118375108.100 7  92240355.40845  22526036.039    22526039.7194
        44.500          30.2004
 20  9  1  1  0  0.0000000  0 10G22G01G31G32G10G25G11G03G04G21
 115895854.570 7  90308467.81645  22054245.641    22054247.0204
        47.000          35.0004
 111524031.191 8  86901873.85946  21222316.609    21222323.7464
        48.200          37.7004
 106828401.400 7  83242928.43246  20328767.117    20328770.2304
        47.600          39.0004
 115803500.213 7  90236516.57545  22036674.031    22036679.9964
        47.600          34.9004
 124428003.947 7  96956910.06444  23677863.859    23677871.1684
        43.100          25.6004
 128800132.326 5 100363770.01444  24509850.297    24509857.4614
        33.800          25.8004
 116565002.371 7  90829886.73445  22181583.523    22181587.6054
        45.400          31.3004
 122813215.786 7  95698646.67446  23370572.758    23370579.7734
        42.400          38.5004
 129789373.699 6 101134619.32143  24698094.781    24698101.1334
        39.600          22.8004
 118459575.216 7  92306173.91344  22542109.617    22542113.3014
        43.700          29.3004
 20  9  1  1  0 30.0000000  0 10G22G01G31G32G10G25G11G03G04G21
 115830312.027 7  90257395.71045  22041773.297    22041774.6954
        47.200          35.4004
 111503245.044 8  86885676.85246  21218361.141    21218368.3014
        48.500          37.7004
 106819703.088 7  83236150.53646  20327111.875    20327114.9884
        47.800          39.4004
 115867549.000 7  90286424.71246  22048862.133    22048868.0784
        46.200          36.0004
 124505154.428 7  97017027.30544  23692545.180    23692552.4344
        42.900          26.3004
 128788203.882 5 100354475.17044  24507580.359    24507587.6374
        35.400          25.1004
 116626987.459 7  90878186.78245  22193378.906    22193382.9414
        43.000          31.8004
 122728109.024 6  95632329.74146  23354377.461    23354384.4774
        41.300          37.8004
 129710698.243 6 101073313.82443  24683123.320    24683129.5554
        40.900          22.8004
 118544295.033 7  92372189.32044  22558231.281    22558234.9734
        43.600          29.3004
 20  9  1  1  1  0.0000000  0 11G22G26G01G31G32G10G25G11G03G04G21
 115764927.592 7  90206446.81745  22029331.047    22029332.4304
        46.700          35.2004
 129217560.005 4                  24589279.555
        29.900
 111483058.319 8  86869946.93846  21214519.727    21214526.8954
        48.000          37.9004
 106811639.445 7  83229867.18246  20325577.406    20325580.5434
        47.300          40.2004
 115931688.759 7  90336403.72445  22061067.531    22061073.4884
        47.400          35.4004
 124582525.065 7  97077316.07244  23707268.344    23707275.5204
        42.600          26.2004
 128776779.978 5 100345573.45244  24505406.539    24505413.8204
        35.400          26.6004
 116689389.618 7  90926811.81645  22205253.648    22205257.6764
        43.900          31.0004
 122643037.538 7  95566040.30746  23338188.867    23338195.8954
        42.200          38.7004
 129632156.420 6 101012112.48343  24668177.273    24668183.4774
        40.600          22.9004
 118629265.043 7  92438399.66944  22574400.547    22574404.1994
        43.000          29.4004
 20  9  1  1  1 30.0000000  0 11G22G26G01G31G32G10G25G11G03G04G21
 115699702.893 7  90155622.38445  22016919.180    22016920.5474
        46.600          35.6004
 129133244.677 5                  24573233.773
        31.000
 111463471.691 8  86854684.62746  21210792.523    21210799.7274
        49.000          37.9004
 106804210.271 7  83224078.22246  20324163.680    20324166.7814
        47.800          39.2004
 115995918.364 7  90386452.75045  22073290.023    22073296.0124
        47.500          34.6004
 124660115.372 7  97137776.01444  23722033.336    23722040.4384
        43.600          26.3004
 128765861.754 5 100337065.78844  24503328.875    24503336.1914
        32.600          25.3004
 116752205.361 7  90975759.12745  22217207.094    22217211.1174
        44.500          30.8004
 122558002.497 7  95499779.26146  23322007.211    23322014.1954
        42.300          38.6004
 129553748.243 6 100951015.27743  24653256.664    24653262.7894
        40.400          22.5004
 118714483.134 7  92504803.33544  22590617.047    22590620.6884
        43.200          28.9004
 20  9  1  1  2  0.0000000  0 11G22G26G01G31G32G10G25G11G03G04G21
 115634639.414 7  90104923.57745  22004537.992    22004539.3714
        47.200          35.1004
 129048856.631 5                  24557174.781
        31.200
 111444486.035 8  86839890.60346  21207179.680    21207186.9064
        48.200          38.3004
 106797415.556 7  83218783.64446  20322870.688    20322873.8164
        47.700          40.1004
 116060236.908 7  90436571.08945  22085529.445    22085535.4144
        47.500          35.1004
 124737925.082 7  97198406.92444  23736840.070    23736847.1524
        43.600          26.7004
 128755450.638 5 100328953.21044  24501347.695    24501355.1454
        33.600          24.0004
 116815432.265 7  91025026.82645  22229238.781    22229242.7854
        45.500          30.5004
 122473005.258 7  95433547.67346  23305832.734    23305839.6524
        42.300          38.6004
 129475473.999 6 100890022.43143  24638361.539    24638367.5514
        41.000          21.8004
 118799947.067 7  92571398.57044  22606880.313    22606883.9414
        42.800          29.1004
 20  9  1  1  2 30.0000000  0 11G22G26G01G31G32G10G25G11G03G04G21
 115569738.520 7  90054351.46345  21992187.750    21992189.1374
        47.000          35.3004
 128964398.241 5                  24541102.664
        30.800
 111426101.741 8  86825565.17946  21203681.258    21203688.4804
        48.200          37.8004
 106791255.183 7  83213983.36546  20321698.406    20321701.5274
        47.900          40.3004
 116124643.115 7  90486757.73145  22097785.547    22097791.5044
        47.500          34.8004
 124815953.374 7  97259208.15744  23751688.414    23751695.4844
        43.700          26.8004
 128745547.590 5 100321236.57144  24499463.211    24499470.6844
        35.100          24.1004
 116879066.662 7  91074612.05445  22241348.016    22241352.0354
        44.500          30.6004
 122388046.714 6  95367346.24446  23289665.633    23289672.4774
        41.900          37.9004
 129397333.516 6 100829133.80643  24623491.867    24623497.8404
        41.800          22.0004
 118885654.024 7  92638183.16444  22623189.828    22623193.5004
        43.700          29.1004
 20  9  1  1  3  0.0000000  0 11G22G26G01G31G32G10G25G11G03G04G21
 115505002.083 7  90003907.49745  21979868.797    21979870.1884
        46.600          35.7004
 128879872.569 5                  24525017.883
        33.500
 111408319.853 8  86811709.16146  21200297.492    21200304.6914
        48.600          37.4004
 106785729.335 7  83209677.51946  20320646.875    20320649.9534
        46.400          40.1004
 116189136.317 8  90537012.16045  22110058.203    22110064.1414
        48.100          34.4004
 124894200.239 7  97320179.70644  23766578.367    23766585.5084
        43.600          28.1004
 128736154.154 5 100313917.01443  24497675.695    24497683.0664
        34.300          21.8004
 116943105.901 7  91124512.73545  22253534.289    22253538.2854
        45.000          30.0004
 122303128.506 7  95301176.24746  23273506.211    23273512.9804
        42.400          38.6004
 129319327.295 6 100768349.79743  24608647.758    24608653.7034
        40.800          22.8004
 118971601.966 7  92705155.55344  22639545.227    22639548.8674
        43.500          29.8004
 20  9  1  1  3 30.0000000  0 11G22G26G01G31G32G10G25G11G03G04G21
 115440432.301 7  89953593.39245  21967581.563    21967582.9614
        47.300          35.3004
 128795283.138 5                  24508921.383
        34.600
 111391141.660 7  86798323.55646  21197028.586    21197035.7504
        47.900          37.9004
 106780838.555 7  83205866.52946  20319716.180    20319719.2664
        47.300          39.0004
 116253716.251 7  90587334.17045  22122347.359    22122353.2854
        46.700          34.2004
 124972665.892 7  97381321.76944  23781509.930    23781517.1484
        43.400          25.9004
 128727272.229 5 100306996.05143  24495985.477    24495992.7774
        33.600          21.7004
 117007548.258 7  91174727.53845  22265797.273    22265801.2734
        45.200          30.7004
 122218252.590 7  95235039.20846  23257354.836    23257361.5634
        42.200          38.5004
 129241456.118 6 100707671.01543  24593829.328    24593835.2194
        40.900          22.5004
 119057789.330 7  92772314.51344  22655946.156    22655949.8094
        42.700          28.9004
 20  9  1  1  4  0.0000000  0 11G22G26G01G31G32G10G25G11G03G04G21
 115376029.428 7  89903409.34145  21955326.086    21955327.4844
        47.300          35.2004
 128710631.346 5 100294015.32542  24492812.805    24492822.3834
        34.100          17.8004
 111374566.626 8  86785407.94046  21193874.469    21193881.5904
        48.100          37.8004
 106776581.235 7  83202549.15046  20318906.031    20318909.0864
        47.800          39.6004
 116318380.703 7  90637722.04845  22134652.602    22134658.5124
        47.100          34.2004
 125051348.680 7  97442633.01144  23796482.789    23796490.0004
        43.400          26.2004
 128718901.844 5 100300473.69243  24494392.656    24494399.9454
        33.100          22.0004
 117072389.028 7  91225252.79645  22278136.078    22278140.0474
        45.200          30.8004
 122133419.035 6  95168935.17546  23241211.523    23241218.1604
        41.800          38.6004
 129163718.912 6 100647096.63143  24579036.383    24579042.2384
        40.900          21.7004
 119144212.109 7  92839656.89945  22672391.906    22672395.5634
        43.300          30.2004
 20  9  1  1  4 30.0000000  0 11G22G26G01G31G32G10G25G11G03G04G21
 115311795.542 7  89853356.97245  21943102.773    21943104.1604
        47.000          35.5004
 128625920.571 5 100228007.05542  24476693.055    24476702.2504
        34.900          16.3004
 111358595.922 8  86772963.24146  21190835.344    21190842.4304
        48.000          37.6004
 106772957.908 7  83199725.78846  20318216.516    20318219.5274
        47.500          39.5004
 116383129.275 7  90688175.46845  22146973.844    22146979.7234
        47.200          34.0004
 125130248.693 7  97504113.51444  23811497.000    23811504.1954
        43.600          27.1004
 128711044.744 5 100294351.27243  24492897.477    24492904.8164
        31.600          23.8004
 117137625.708 7  91276086.56045  22290550.219    22290554.1764
        45.000          30.8004
 122048629.662 7  95102865.56546  23225076.625    23225083.2234
        42.000          39.3004
 129086116.331 6 100586627.12244  24564269.086    24564274.8524
        40.400          24.2004
 119230868.363 7  92907181.21744  22688882.086    22688885.7774
        42.900          28.3004
 20  9  1  1  5  0.0000000  0 11G22G26G01G31G32G10G25G11G03G04G21
 115247732.442 7  89803437.68246  21930911.953    21930913.3634
        47.300          36.4004
 128541153.330 5 100161954.69242  24460562.609    24460571.5474
        35.400          17.4004
 111343229.909 8  86760989.72346  21187911.289    21187918.3444
        48.200          38.3004
 106769967.947 7  83197395.95546  20317647.539    20317650.5124
        47.800          38.7004
 116447960.800 8  90738693.52445  22159310.875    22159316.7544
        48.000          34.2004
 125209365.262 7  97565762.76544  23826552.438    23826559.6804
        44.100          26.4004
 128703701.835 5 100288629.53244  24491500.102    24491507.5704
        32.300          24.9004
 117203254.991 7  91327226.24045  22303039.078    22303042.9804
        44.600          30.9004
 121963885.608 7  95036831.27846  23208950.344    23208956.9304
        42.300          39.3004
 129008648.315 6 100526262.51443  24549527.367    24549533.1094
        40.900          22.6004
 119317755.544 7  92974885.47944  22705416.203    22705419.8954
        42.600          29.6004
 20  9  1  1  5 30.0000000  0 11G22G26G01G31G32G10G25G11G03G04G21
 115183841.953 7  89753652.89246  21918753.992    21918755.4184
        46.800          36.0004
 128456332.682 5 100095860.76442  24444421.547    24444430.5784
        33.700          16.9004
 111328469.406 8  86749488.02946  21185102.461    21185109.5004
        48.200          38.4004
 106767611.411 7  83195559.70046  20317199.086    20317202.0474
        47.000          39.2004
 116512874.576 7  90789275.67645  22171663.563    22171669.4264
        47.300          33.1004
 125288698.150 7  97627580.56044  23841649.023    23841656.2154
        43.000          25.2004
 128696874.416 5 100283309.48743  24490200.875    24490208.3914
        34.000          22.8004
 117269273.972 7  91378669.57145  22315602.102    22315605.9694
        45.500          31.1004
 121879188.392 7  94970833.47346  23192832.984    23192839.5434
        42.100          39.4004
 128931315.219 6 100466002.99643  24534811.367    24534817.0594
        40.100          22.5004
 119404871.294 7  93042767.83945  22721993.820    22721997.5354
        43.600          30.0004
 20  9  1  1  6  0.0000000  0 11G22G26G01G31G32G10G25G11G03G04G21
 115120125.907 7  89704004.02646  21906629.227    21906630.6604
        46.500          36.7004
 128371461.411 5 100029727.37642  24428271.156    24428279.5354
        35.900          17.4004
 111314314.991 8  86738458.61646  21182408.961    21182415.9884
        48.700          38.2004
 106765888.084 7  83194216.85446  20316871.125    20316874.1254
        47.500          39.4004
 116577869.675 7  90839921.20045  22184031.719    22184037.5824
        46.400          32.2004
 125368246.934 7  97689566.58744  23856786.703    23856793.6844
        42.700          24.7004
 128690563.714 5 100278392.05944  24489000.016    24489007.4184
        34.300          24.6004
 117335679.877 7  91430414.42445  22328238.742    22328242.6094
        45.900          30.7004
 121794539.383 7  94904873.23446  23176724.805    23176731.3524
        42.200          38.7004
 128854117.157 6 100405848.72743  24520121.031    24520126.6954
        40.600          22.9004
 119492213.047 7  93110826.31444  22738614.453    22738618.1764
        42.400          28.2004
 20  9  1  1  6 30.0000000  0 11G22G26G01G31G32G10G25G11G03G04G21
 115056585.428 7  89654491.96746  21894537.867    21894539.3164
        46.700          36.4004
 128286542.174 5  99963556.55742  24412111.328    24412119.9964
        34.500          17.8004
 111300767.003 8  86727901.74446  21179830.867    21179837.8984
        48.900          38.2004
 106764797.390 7  83193366.96446  20316663.555    20316666.5744
        46.600          39.7004
 116642945.062 7  90890629.27245  22196415.148    22196420.9964
        44.600          33.4004
 125448010.918 6  97751720.31243  23871965.297    23871972.2664
        41.000          22.3004
 128684770.665 5 100273877.96543  24487897.664    24487904.9654
        34.600          22.3004
 117402469.737 7  91482458.44345  22340948.453    22340952.3364
        43.300          30.9004
 121709939.760 7  94838951.48046  23160626.023    23160632.5554
        43.100          39.5004
 128777054.100 7 100345799.64343  24505456.406    24505461.9844
        42.000          23.0004
 119579778.642 7  93179059.21344  22755277.680    22755281.3984
        43.100          29.1004
 20  9  1  1  7  0.0000000  0 11G22G26G01G31G32G10G25G11G03G04G21
 114993222.696 7  89605118.41746  21882480.344    21882481.8094
        47.000          36.3004
 128201578.313 5  99897351.03042  24395942.750    24395952.2894
        33.100          16.9004
 111287826.446 8  86717818.19046  21177368.367    21177375.3794
        48.200          37.9004
 106764339.660 7  83193010.30046  20316576.445    20316579.4264
        46.600          39.3004
 116708100.320 7  90941399.58945  22208813.781    22208819.6454
        46.200          33.5004
 125527990.171 6  97814041.78843  23887184.836    23887191.8164
        41.700          22.6004
 128679496.791 5 100269768.44243  24486894.086    24486901.2424
        33.000          22.2004
 117469640.372 7  91534799.18145  22353730.625    22353734.5004
        45.300          31.5004
 121625391.358 7  94773069.63846  23144536.992    23144543.5274
        42.100          39.8004
 128700126.637 6 100285856.23743  24490817.594    24490823.1094
        41.800          23.0004
 119667566.102 7  93247464.97644  22771983.133    22771986.8914
        42.600          28.9004
 20  9  1  1  7 30.0000000  0 11G22G26G01G31G32G10G25G11G03G04G21
 114930039.754 7  89555884.95946  21870457.023    21870458.5044
        47.300          36.8004
 128116572.805 5  99831113.06342  24379766.641    24379776.2934
        34.200          15.6004
 111275493.943 8  86708208.45146  21175021.563    21175028.5704
        48.200          38.4004
 106764514.586 7  83193146.61546  20316609.727    20316612.7034
        47.400          39.3004
 116773334.692 7  90992231.55345  22221227.469    22221233.3794
        46.300          33.4004
 125608184.383 6  97876530.75643  23902445.266    23902452.3524
        41.100          21.3004
 128674743.321 5 100266064.42543  24485989.469    24485996.7194
        31.900          21.1004
 117537188.956 7  91587434.41845  22366584.711    22366588.5784
        44.900          30.4004
 121540895.717 7  94707228.89846  23128457.992    23128464.5274
        42.100          39.9004
 128623335.072 6 100226018.70443  24476204.648    24476210.0784
        41.600          23.3004
 119755572.673 7  93316041.47845  22788730.273    22788734.0594
        42.700          30.6004
 20  9  1  1  8  0.0000000  0 11G22G26G01G31G32G10G25G11G03G04G21
 114867038.025 7  89506792.71446  21858468.195    21858469.7154
        47.200          36.2004
 128031528.315 5  99764844.72842  24363583.297    24363592.5784
        35.700          16.3004
 111263769.886 8  86699072.82046  21172790.547    21172797.5634
        48.000          38.5004
 106765321.745 8  83193775.57646  20316763.328    20316766.3244
        48.000          40.5004
 116838647.208 7  91043124.39745  22233656.031    22233661.9414
        46.400          33.3004
 125688592.912 6  97939186.74643  23917746.516    23917753.6604
        41.100          23.0004
 128670511.169 5 100262766.68743  24485184.125    24485191.3754
        33.000          22.2004
 117605112.542 7  91640361.87145  22379510.148    22379514.0204
        44.700          30.2004
 121456454.150 7  94641430.28046  23112389.297    23112395.8524
        42.400          39.8004
 128546679.397 6 100166287.05843  24461617.563    24461623.0084
        41.700          23.3004
 119843795.941 7  93384786.83544  22805518.656    22805522.4884
        42.700          29.1004
 20  9  1  1  8 30.0000000  0 11G22G26G01G31G32G10G25G11G03G04G21
 114804218.134 7  89457842.15546  21846513.969    21846515.5044
        46.800          36.7004
 127946447.086 5  99698547.71042  24347393.086    24347401.8874
        34.100          16.3004
 111252653.962 7  86690411.06246  21170675.258    21170682.2774
        47.400          37.9004
 106766760.104 8  83194896.37246  20317037.047    20317040.0634
        48.900          39.9004
 116904036.271 7  91094076.90745  22246099.164    22246105.0904
        45.800          33.4004
 125769214.620 6  98002008.81344  23933088.344    23933095.5124
        41.700          24.7004
                                  24484478.039
        31.500          21.8004
 117673407.380 7  91693578.61644  22392506.242    22392510.0864
        44.300          29.5004
 121372067.312 6  94575674.31946  23096331.008    23096337.5784
        41.300          39.6004
 128470159.006 6 100106660.85843  24447056.195    24447061.5904
        41.400          21.7004
 119932232.690 7  93453698.55844  22822347.664    22822351.5434
        43.000          28.9004
 20  9  1  1  9  0.0000000  0 11G22G26G01G31G32G10G25G11G03G04G21
 114741582.626 7  89409035.27746  21834594.836    21834596.3554
        45.800          36.8004
 127861332.120 6  99632224.47042  24331196.414    24331204.7624
        36.100          16.3004
 111242146.830 8  86682223.69346  21168675.813    21168682.8524
        48.400          38.0004
 106768829.286 7  83196508.73246  20317430.797    20317433.8674
        46.400          39.7004
 116969501.271 7  91145088.58845  22258556.750    22258562.7114
        46.300          33.0004
 125850049.195 7  98064996.78843  23948470.672    23948477.8984
        42.100          22.3004
 128663613.142 5 100257391.62743  24483871.477    24483878.6524
        32.600          21.3004
 117742070.390 7  91747082.24345  22405572.391    22405576.2034
        44.500          30.2004
 121287736.901 6  94509962.32146  23080283.453    23080290.0434
        41.300          39.9004
 128393774.270 6 100047140.34543  24432520.633    24432525.9574
        41.700          22.5004
 120020880.735 6  93522774.92944  22839216.867    22839220.7894
        41.400          27.7004
 20  9  1  1  9 30.0000000  0 11G22G26G01G31G32G10G25G11G03G04G21
 114679132.907 7  89360373.16646  21822711.055    21822712.5514
        46.800          36.8004
 127776186.276 5  99565877.15342  24314993.844    24315001.8524
        35.200          17.4004
 111232248.848 8  86674510.98046  21166792.281    21166799.3524
        48.600          38.2004
 106771528.667 7  83198612.14646  20317944.477    20317947.5864
        47.900          40.0004
 117035041.354 7  91196158.76745  22271028.617    22271034.6024
        45.100          33.6004
 125931096.158 7  98128150.22043  23963893.445    23963900.5514
        42.400          22.2004
                                  24483364.609
        30.800          22.0004
 117811098.564 7  91800870.41245  22418708.023    22418711.8054
        43.900          30.4004
 121203464.246 7  94444295.33346  23064246.891    23064253.5084
        42.100          40.5004
 128317525.239 7  99987725.58243  24418010.906    24418016.1524
        42.000          23.2004
 120109737.543 7  93592013.96144  22856125.813    22856129.6954
        42.900          28.3004
 20  9  1  1 10  0.0000000  0 11G22G26G01G31G32G10G25G11G03G04G21
 114616871.074 7  89311857.46645  21810863.023    21810864.5004
        47.200          35.7004
 127691012.940 6  99499508.41242  24298785.773    24298793.7034
        36.300          17.8004
 111222960.823 8  86667273.55646  21165024.820    21165031.8984
        48.500          38.1004
 106774858.595 8  83201206.89546  20318578.148    20318581.2114
        48.500          40.3004
 117100656.126 7  91247287.13245  22283514.695    22283520.7234
        45.700          33.3004
 126012355.424 7  98191469.10243  23979356.602    23979363.7624
        42.600          23.0004
 128658810.879 5 100253649.66143  24482957.648    24482965.0204
        30.500          19.6004
 117880489.063 7  91854940.90344  22431912.609    22431916.3634
        44.500          29.8004
 121119251.273 7  94378674.85246  23048221.688    23048228.3754
        42.400          40.1004
 128241412.488 6  99928416.97943  24403527.109    24403532.3204
        41.300          22.9004
 120198801.195 7  93661414.15444  22873074.102    22873078.0204
        42.800          27.7004
 20  9  1  1 10 30.0000000  0 11G22G26G01G31G32G10G25G11G03G04G21
 114554798.920 7  89263489.56646  21799051.078    21799052.5314
        47.400          36.6004
 127605814.803 5  99433120.36142  24282572.656    24282580.8634
        34.600          17.8004
 111214282.964 8  86660511.58946  21163373.477    21163380.5634
        48.800          38.1004
 106778818.434 8  83204292.48446  20319331.680    20319334.7734
        48.100          38.9004
 117166344.614 7  91298472.95245  22296014.805    22296020.8954
        46.200          33.7004
 126093826.352 7  98254952.92843  23994860.047    23994867.2074
        42.500          21.8004
                                  24482650.859
        28.000          16.9004
 117950238.746 7  91909291.29345  22445185.539    22445189.2544
        44.600          30.0004
 121035099.285 7  94313101.88246  23032208.078    23032214.7894
        43.000          40.8004
 128165435.951 6  99869214.55143  24389069.219    24389074.3834
        40.900          22.3004
 120288069.099 7  93730973.50744  22890061.273    22890065.1524
        42.600          28.9004
 20  9  1  1 11  0.0000000  0 11G22G26G01G31G32G10G25G11G03G04G21
 114492917.732 7  89215270.47146  21787275.484    21787276.9224
        47.600          36.7004
 127520594.377 5  99366714.83542  24266355.188    24266363.8204
        34.100          16.9004
 111206215.181 8  86654225.00146  21161838.227    21161845.3204
        48.400          38.3004
 106783406.977 7  83207867.96046  20320204.836    20320207.9384
        47.500          39.7004
 117232105.612 7  91349715.27545  22308528.719    22308534.8634
        47.200          34.0004
 126175508.037 7  98318600.94843  24010403.602    24010410.7304
        42.900          22.6004
                                  24482444.398
        29.100          15.6004
 118020344.156 7  91963918.84745  22458526.172    22458529.8554
        44.300          30.2004
 120951009.324 7  94247577.25946  23016206.273    23016213.0164
        43.300          39.7004
 128089595.388 6  99810118.07543  24374637.195    24374642.3404
        40.600          22.6004
 120377538.435 7  93800689.84144  22907086.773    22907090.6414
        43.400          27.8004
 20  9  1  1 11 30.0000000  0 10G22G26G01G31G32G10G11G03G04G21
 114431228.853 7  89167201.22646  21775536.469    21775537.8874
        46.500          36.8004
 127435354.676 5  99300294.33342  24250133.992    24250143.5744
        34.300          17.8004
 111198757.847 7  86648414.08146  21160419.141    21160426.2384
        47.700          38.2004
 106788623.641 7  83211932.89246  20321197.516    20321200.5664
        47.800          39.0004
 117297938.372 7  91401013.52945  22321056.297    22321062.4844
        46.800          33.7004
 126257399.989 7  98382412.84644  24025987.164    24025994.3094
        42.000          24.1004
 118090802.171 7  92018821.17444  22471933.898    22471937.5784
        44.700          29.6004
 120866982.970 7  94182102.19846  23000216.586    23000223.2934
        43.900          40.0004
 128013890.924 6  99751127.62843  24360231.063    24360236.2034
        39.800          21.7004
 120467206.792 7  93870561.26244  22924150.141    22924153.9964
        42.700          27.6004
 20  9  1  1 12  0.0000000  0 10G22G26G01G31G32G10G11G03G04G21
 114369735.457 7  89119284.30546  21763834.656    21763836.0434
        47.000          36.9004
 127350099.402 5  99233861.73942  24233910.648    24233919.9844
        35.100          16.9004
 111191912.074 8  86643079.71246  21159116.430    21159123.5354
        48.000          37.8004
 106794469.052 8  83216487.76146  20322309.859    20322312.8754
        48.200          38.9004
 117363843.020 7  91452367.76945  22333597.547    22333603.7274
        47.000          33.0004
 126339502.615 7  98446388.89344  24041610.820    24041617.9654
        42.200          24.5004
 118161610.577 7  92073996.53944  22485408.313    22485412.0124
        44.300          29.8004
 120783022.571 7  94116678.52446  22984239.430    22984246.1294
        43.500          40.3004
 127938323.556 6  99692244.03543  24345851.008    24345856.1334
        39.500          23.5004
 120557072.400 7  93940586.37644  22941251.016    22941254.8524
        42.700          27.1004
 20  9  1  1 12 30.0000000  0 10G22G26G01G31G32G10G11G03G04G21
 114308438.057 7  89071520.11046  21752170.148    21752171.5004
        47.600          36.9004
 127264830.508 5  99167418.55242  24217684.898    24217693.7194
        35.200          17.8004
 111185677.024 8  86638221.22246  21157929.938    21157937.0704
        48.000          38.2004
 106800941.263 8  83221531.04946  20323541.484    20323544.4694
        48.400          39.6004
 117429817.634 7  91503776.54145  22346152.117    22346158.3284
        46.800          34.0004
 126421814.195 6  98510527.77243  24057274.227    24057281.3444
        40.800          22.6004
 118232765.184 7  92129441.65744  22498948.609    22498952.3204
        44.900          29.1004
 120699128.474 7  94051306.52345  22968274.914    22968281.5744
        44.500          35.0004
 127862892.245 6  99633466.44443  24331496.852    24331502.0634
        40.300          22.2004
 120647131.602 7  94010762.33244  22958388.742    22958392.5784
        43.000          26.6004
 20  9  1  1 13  0.0000000  0 10G22G26G01G31G32G10G11G03G04G21
 114247337.895 7  89023909.60746  21740543.156    21740544.4804
        47.300          36.7004
 127179550.690 5  99100966.82242  24201456.977    24201465.4964
        35.200          17.4004
 111180052.763 7  86633838.67046  21156859.664    21156866.8164
        47.800          38.1004
 106808039.657 8  83227062.27746  20324892.258    20324895.1914
        48.200          39.8004
 117495861.326 7  91555239.14845  22358719.836    22358726.0434
        47.000          33.9004
 126504334.144 6  98574829.00943  24072977.266    24072984.3834
        40.800          22.5004
 118304262.610 7  92185153.91144  22512554.133    22512557.8364
        44.400          28.1004
 120615302.099 7  93985987.28345  22952323.273    22952329.8954
        43.300          34.7004
 127787596.983 6  99574794.86943  24317168.570    24317173.8554
        40.200          22.9004
 120737381.908 7  94081087.21544  22975562.805    22975566.6454
        42.600          26.0004
 20  9  1  1 13 30.0000000  0 10G22G26G01G31G32G10G11G03G04G21
 114186437.994 8  88976455.15246  21728954.281    21728955.6254
        48.100          36.7004
 127094263.800 6  99034509.57843  24185227.594    24185235.9224
        36.100          19.0004
 111175040.403 8  86629932.93246  21155905.836    21155913.0124
        48.000          37.7004
 106815764.570 7  83233081.69646  20326362.266    20326365.2074
        47.000          39.6004
 117561974.219 7  91606755.67345  22371300.727    22371306.9454
        44.500          33.5004
 126587062.762 6  98639292.83643  24088720.008    24088727.1564
        40.500          21.1004
 118376100.630 7  92241131.56044  22526224.469    22526228.1684
        44.000          29.0004
 120531545.857 7  93920722.70045  22936384.992    22936391.5434
        42.400          30.0004
 127712438.738 6  99516230.03843  24302866.391    24302871.7074
        40.000          21.8004
 120827821.571 7  94151559.64144  22992772.930    22992776.7274
        42.400          25.7004
 20  9  1  1 14  0.0000000  0 10G22G26G01G31G32G10G11G03G04G21
 114125739.424 7  88929157.57846  21717403.719    21717405.0864
        47.400          37.0004
 127008972.163 5  98968048.67443  24168997.359    24169005.4734
        35.900          19.0004
 111170639.442 7  86626503.60246  21155068.359    21155075.5474
        47.200          37.8004
 106824114.374 7  83239588.05046  20327951.180    20327954.1174
        47.100          39.5004
 117628154.868 7  91658324.99845  22383894.492    22383900.7114
        45.300          33.9004
 126669998.805 6  98703918.29943  24104502.234    24104509.2704
        40.500          22.3004
 118448275.558 7  92297371.74244  22539958.914    22539962.6254
        43.800          29.3004
 120447860.578 7  93855513.41745  22920460.219    22920466.7464
        42.800          31.3004
 127637416.933 6  99457771.54443  24288590.141    24288595.5594
        39.300          22.0004
 120918447.505 6  94222177.19444  23010018.484    23010022.2704
        41.300          25.8004
 20  9  1  1 14 30.0000000  0 10G22G26G01G31G32G10G11G03G04G21
 114065243.948 7  88882018.26646  21705891.813    21705893.1994
        47.500          36.9004
 126923678.909 5  98901586.43943  24152766.578    24152774.6094
        34.800          18.3004
 111166850.128 7  86623550.88646  21154347.266    21154354.4574
        46.400          38.4004
 106833088.668 8  83246581.01446  20329658.938    20329661.8834
        48.500          39.8004
 117694402.738 7  91709946.70045  22396501.055    22396507.2894
        46.400          33.6004
 126753141.901 6  98768705.10543  24120323.875    24120330.8834
        40.500          21.8004
 118520784.439 7  92353872.14944  22553756.914    22553760.5864
        44.700          28.0004
 120364247.984 7  93790360.77845  22904549.266    22904555.7384
        44.000          30.9004
 127562531.799 6  99399419.54443  24274339.898    24274345.2584
        38.800          21.7004
 121009257.587 6  94292938.26244  23027299.094    23027302.8754
        41.600          25.3004
 20  9  1  1 15  0.0000000  0 10G22G26G01G31G32G10G11G03G04G21
 114004953.389 7  88835038.62246  21694418.898    21694420.2814
        47.300          37.9004
 126838387.105 5  98835125.34943  24136535.734    24136544.1454
        33.900          18.6004
 111163672.669 7  86621074.93446  21153742.609    21153749.8054
        47.300          37.9004
 106842686.634 8  83254059.95346  20331485.375    20331488.3874
        48.100          40.2004
 117760717.110 7  91761620.23145  22409120.281    22409126.4964
        47.000          33.6004
 126836491.557 6  98833652.85143  24136184.789    24136191.9144
        39.800          22.5004
 118593624.105 7  92410630.30544  22567617.852    22567621.5044
        44.300          29.3004
 120280709.673 7  93725266.01644  22888652.461    22888658.9264
        43.700          29.7004
 127487783.447 6  99341174.14143  24260115.688    24260121.0514
        39.400          21.8004
 121100249.126 6  94363840.72844  23044614.242    23044618.0204
        41.900          25.5004
 20  9  1  1 15 30.0000000  0 10G22G26G01G31G32G10G11G03G04G21
 113944869.782 7  88788220.24146  21682985.359    21682986.7194
        47.500          37.4004
 126753099.784 5  98768667.72043  24120305.727    24120314.6094
        34.500          18.6004
 111161107.262 7  86619075.91546  21153254.430    21153261.6294
        47.300          37.8004
 106852907.897 8  83262024.57946  20333430.406    20333433.4184
        48.400          39.6004
 117827097.396 7  91813345.11745  22421752.039    22421758.2624
        46.400          32.9004
 126920047.272 6  98898761.19943  24152084.883    24152092.0744
        39.700          21.3004
 118666791.468 7  92467643.81244  22581541.148    22581544.8164
        44.600          28.6004
 120197247.319 7  93660230.44145  22872770.102    22872776.5434
        44.200          30.4004
 127413172.141 6  99283035.49343  24245917.539    24245922.9924
        39.000          21.7004
 121191419.849 6  94434882.79744  23061963.453    23061967.2274
        41.100          26.2004
 20  9  1  1 16  0.0000000  0 10G22G26G01G31G32G10G11G03G04G21
 113884994.944 7  88741564.53646  21671591.555    21671592.8954
        47.500          37.5004
 126667819.904 5  98702215.91543  24104077.336    24104086.3834
        35.100          18.6004
 111159153.965 7  86617553.85946  21152882.727    21152889.9454
        46.800          38.2004
 106863751.366 8  83270474.03346  20335493.844    20335496.8834
        48.200          39.8004
 117893542.875 7  91865120.79045  22434396.195    22434402.3954
        46.500          32.3004
 127003808.469 6  98964029.64643  24168024.094    24168031.1374
        38.700          19.6004
 118740283.358 7  92524910.18844  22595526.203    22595529.8984
        43.700          28.4004
 120113862.459 7  93595255.25545  22856902.492    22856908.9024
        43.900          31.9004
 127338697.860 6  99225003.65243  24231745.492    24231750.8914
        38.600          22.2004
 121282767.471 6  94506062.70544  23079346.328    23079350.0984
        41.300          26.0004
 20  9  1  1 16 30.0000000  0 10G22G26G01G31G32G10G11G03G04G21
 113825330.082 8  88695072.45046  21660237.711    21660239.0354
        48.500          37.8004
 126582550.037 5  98635771.91343  24087850.844    24087860.0204
        34.800          19.3004
 111157812.275 7  86616508.38846  21152627.406    21152634.6334
        46.900          38.4004
 106875215.809 8  83279407.36746  20337675.438    20337678.5514
        48.000          39.6004
 117960052.283 7  91916946.29945  22447052.531    22447058.6804
        46.700          33.9004
 127087774.039 6  99029457.34143  24184002.211    24184009.2584
        40.000          20.9004
 118814096.127 7  92582426.60944  22609572.313    22609576.0594
        43.800          27.6004
 120030556.175 7  93530341.28845  22841049.836    22841056.2074
        44.400          31.1004
 127264360.198 6  99167078.26543  24217599.422    24217604.8094
        38.900          22.3004
 121374288.815 6  94577377.99544  23096762.242    23096766.1094
        40.900          25.3004
 20  9  1  1 17  0.0000000  0 10G22G26G01G31G32G10G11G03G04G21
 113765877.311 7  88648745.62946  21648924.234    21648925.5634
        47.600          37.5004
 126497293.362 6  98569338.22243  24071627.219    24071636.1604
        36.900          19.3004
 111157082.513 7  86615939.73446  21152488.547    21152495.7814
        46.700          38.6004
 106887300.650 8  83288824.13246  20339975.094    20339978.2464
        48.200          40.0004
 118026625.232 7  91968821.32345  22459720.961    22459727.0164
        46.700          32.5004
 127171943.712 6  99095044.08843  24200019.180    24200026.2734
        39.500          20.9004
 118888226.639 7  92640190.60944  22623678.891    22623682.6644
        43.400          28.9004
 119947330.337 7  93465490.02245  22825212.484    22825218.8094
        44.500          31.1004
 127190159.497 6  99109259.56943  24203479.430    24203484.7584
        38.900          21.7004
 121465981.341 6  94648826.67644  23114210.750    23114214.6334
        40.500          24.0004
 20  9  1  1 17 30.0000000  0 10G22G26G01G31G32G10G11G03G04G21
 113706637.947 8  88602585.09546  21637651.359    21637652.6684
        48.100          37.7004
 126412052.512 6  98502916.89543  24055406.766    24055415.1804
        36.500          19.9004
 111156964.256 7  86615847.58946  21152466.047    21152473.2854
        47.400          38.8004
 106900004.687 7  83298723.38346  20342392.586    20342395.7894
        47.900          40.0004
 118093260.662 7  92020745.03045  22472401.266    22472407.2664
        45.900          30.8004
 127256316.457 6  99160789.05543  24216074.766    24216081.9264
        39.900          20.6004
 118962671.575 7  92698199.62644  22637845.305    22637849.0864
        44.100          28.2004
 119864186.172 7  93400702.38045  22809390.680    22809396.9964
        45.000          31.9004
 127116095.417 6  99051547.35643  24189385.430    24189390.8014
        38.900          20.6004
 121557842.414 6  94720406.70744  23131691.328    23131695.1994
        40.600          24.0004
 20  9  1  1 18  0.0000000  0 10G22G26G01G31G32G10G11G03G04G21
 113647614.158 7  88556592.54646  21626419.508    21626420.7974
        47.500          38.2004
 126326830.834 5  98436510.42243  24039189.664    24039197.8754
        35.000          19.9004
 111157457.703 7  86616232.08446  21152559.953    21152567.1954
        46.700          38.6004
 106913327.145 7  83309104.52946  20344927.750    20344930.9694
        47.300          39.9004
 118159958.088 7  92072717.03045  22485093.367    22485099.3444
        45.500          31.5004
 127340891.905 6  99226691.96643  24232168.953    24232176.1024
        39.800          20.6004
 119037427.948 7  92756451.32544  22652070.984    22652074.8204
        43.800          28.1004
 119781125.507 7  93335979.81445  22793584.758    22793591.0554
        44.400          30.9004
 127042168.292 6  98993941.85143  24175317.508    24175322.9614
        38.600          21.1004
 121649869.841 6  94792116.35544  23149203.586    23149207.4104
        40.600          24.0004
 20  9  1  1 18 30.0000000  0 10G22G26G01G31G32G10G11G03G04G21
 113588807.947 8  88510769.53846  21615229.063    21615230.3164
        48.600          38.0004
 126241631.625 6  98370121.50043  24022976.727    24022984.9734
        36.100          19.9004
 111158563.091 7  86617093.43146  21152770.305    21152777.5594
        47.300          38.6004
 106927267.886 8  83319967.44646  20347580.578    20347583.8134
        48.400          40.3004
 118226717.157 7  92124737.08545  22497797.195    22497803.1254
        45.200          31.0004
 127425669.753 6  99292752.62743  24248301.641    24248308.8164
        39.000          20.1004
 119112493.096 7  92814943.60844  22666355.414    22666359.3164
        43.400          28.0004
 119698150.265 7  93271323.79345  22777795.094    22777801.3984
        44.600          32.1004
 126968378.497 6  98936443.36143  24161275.688    24161281.1994
        38.600          21.3004
 121742061.368 6  94863953.87544  23166747.063    23166750.8444
        39.900          25.5004
 20  9  1  1 19  0.0000000  0 10G22G26G01G31G32G10G11G03G04G21
 113530220.719 7  88465117.15746  21604080.273    21604081.4924
        47.000          38.1004
 126156457.438 5  98303752.09543  24006768.500    24006776.7774
        32.400          19.0004
 111160279.880 8  86618431.19146  21153097.000    21153104.2774
        48.100          37.9004
 106941825.078 8  83331310.72046  20350350.711    20350353.9494
        48.000          40.4004
 118293536.809 7  92176804.33244  22510512.539    22510518.4414
        44.700          29.7004
 127510648.909 6  99358970.12143  24264472.688    24264479.7934
        40.700          19.9004
 119187863.205 7  92873673.54544  22680697.875    22680701.8634
        44.100          28.0004
 119615261.625 7  93206735.27645  22762021.898    22762028.2154
        44.800          31.9004
 126894725.561 6  98879051.51243  24147259.922    24147265.4024
        38.700          20.4004
 121834413.937 6  94935916.87444  23184321.219    23184324.9844
        40.800          24.7004
 20  9  1  1 19 30.0000000  0 10G22G26G01G31G32G10G11G03G04G21
 113471854.604 7  88419637.07846  21592973.570    21592974.7464
        47.300          37.6004
 126071311.448 5  98237404.59943  23990565.445    23990574.0124
        32.500          18.6004
 111162607.965 8  86620245.28746  21153540.031    21153547.3364
        48.300          39.0004
 106956997.911 8  83343133.71446  20353238.000    20353241.1954
        48.200          40.0004
 118360416.390 7  92228918.28445  22523239.297    22523245.2114
        45.600          30.7004
 127595828.844 6  99425344.04243  24280681.938    24280688.9454
        40.000          20.6004
 119263535.068 7  92932638.60244  22695097.750    22695101.8094
        44.100          27.9004
 119532461.313 7  93142215.57245  22746265.523    22746271.8554
        44.400          32.4004
 126821209.638 6  98821766.39843  24133270.219    24133275.7074
        38.800          20.1004
 121926925.034 6  95008003.39443  23201925.523    23201929.2274
        40.200          23.6004
 20  9  1  1 20  0.0000000  0 10G22G26G01G31G32G10G11G03G04G21
 113413711.246 7  88374330.56846  21581909.250    21581910.4064
        46.300          37.4004
 125986196.588 5  98171081.37643  23974368.242    23974377.2384
        32.800          19.0004
 111165547.232 7  86622535.62246  21154099.359    21154106.6644
        47.800          38.8004
 106972785.352 7  83355435.62346  20356242.250    20356245.4534
        47.900          39.8004
 118427355.237 7  92281078.41945  22535977.352    22535983.2934
        45.600          32.1004
 127681208.863 6  99491873.93643  24296929.227    24296936.3244
        39.300          20.6004
 119339505.369 7  92991836.21744  22709554.422    22709558.5314
        43.400          28.3004
 119449750.904 7  93077765.91945  22730526.250    22730532.5944
        44.300          31.8004
 126747830.739 6  98764588.12043  24119306.617    24119312.0984
        39.500          21.1004
 122019592.138 6  95080211.48343  23219559.500    23219563.2424
        40.200          22.8004
 20  9  1  1 20 30.0000000  0 10G22G26G01G31G32G10G11G03G04G21
 113355792.073 7  88329198.74846  21570887.594    21570888.7464
        47.000          38.2004
 125901116.005 5  98104784.93343  23958177.781    23958187.0044
        35.000          19.9004
 111169097.585 8  86625302.12946  21154774.977    21154782.2774
        48.100          38.6004
 106989186.436 8  83368215.69946  20359363.266    20359366.4694
        48.700          40.0004
 118494352.855 7  92333284.33545  22548726.570    22548732.5314
        44.900          30.9004
 127766788.410 6  99558559.27243  24313214.461    24313221.5164
        39.400          20.9004
 119415771.369 7  93051264.22744  22724067.359    22724071.5004
        44.100          28.2004
 119367132.211 7  93013387.73945  22714804.430    22714810.7704
        44.500          31.9004
 126674589.017 6  98707516.68143  24105369.102    24105374.5004
        38.700          20.4004
 122112413.142 6  95152539.48943  23237222.766    23237226.5554
        40.700          22.5004
 20  9  1  1 21  0.0000000  0 10G22G26G01G31G32G10G11G03G04G21
 113298099.447 7  88284243.46246  21559909.047    21559910.1724
        47.700          37.1004
 125816072.899 5  98038517.64243  23941994.539    23942003.8204
        35.100          21.3004
 111173258.955 7  86628544.75946  21155566.867    21155574.1414
        46.700          38.1004
 107006200.396 8  83381473.33346  20362600.914    20362604.1174
        48.200          40.1004
 118561408.771 7  92385535.67745  22561486.867    22561492.8634
        43.300          30.8004
 127852567.009 6  99625399.73143  24329537.633    24329544.6844
        40.300          20.1004
 119492329.737 7  93110920.08144  22738635.961    22738640.1454
        44.500          27.9004
 119284607.028 7  92949082.42345  22699100.398    22699106.7464
        43.700          31.6004
 126601484.636 6  98650552.27543  24091457.750    24091463.0084
        38.800          21.7004
 122205385.422 6  95224985.36643  23254914.844    23254918.5744
        40.900          23.3004
 20  9  1  1 21 30.0000000  0 10G22G26G01G31G32G10G11G03G04G21
 113240634.850 7  88239465.86246  21548973.891    21548975.0274
        46.800          38.1004
 125731069.704 5  97972281.44743  23925818.984    23925828.2194
        34.800          18.6004
 111178030.539 7  86632262.88046  21156474.867    21156482.1214
        46.600          38.4004
 107023825.375 8  83395207.09346  20365954.836    20365958.0164
        48.300          39.7004
 118628521.681 7  92437831.44145  22574258.031    22574264.0514
        44.000          30.8004
 127938543.399 6  99692394.27043  24345898.430    24345905.4384
        38.500          19.3004
 119569176.582 7  93170800.70244  22753259.445    22753263.6454
        44.800          28.7004
 119202176.427 7  92884850.80545  22683414.375    22683420.7344
        43.800          32.3004
 126528517.054 6  98593694.46843  24077572.422    24077577.5744
        38.600          19.6004
 122298505.843 6  95297546.67544  23272635.148    23272638.8594
        40.500          25.2004
 20  9  1  1 22  0.0000000  0 10G22G26G01G31G32G10G11G03G04G21
 113183399.714 7  88194867.06146  21538082.398    21538083.5314
        46.600          38.4004
 125646109.541 6  97906078.80843  23909651.633    23909660.6054
        36.400          19.3004
 111183412.015 7  86636456.23946  21157498.930    21157506.1604
        47.000          38.9004
 107042060.277 8  83409416.10946  20369424.820    20369428.0044
        48.500          39.6004
 118695690.978 7  92490171.16544  22587039.938    22587045.9414
        44.000          29.8004
 128024716.824 6  99759542.37243  24362296.695    24362303.6994
        38.900          19.3004
 119646308.810 7  93230903.72644  22767937.258    22767941.4844
        44.700          29.1004
 119119842.063 7  92820694.17645  22667746.648    22667753.0274
        43.900          32.7004
 126455686.239 6  98536943.22843  24063713.117    24063718.2704
        38.700          20.6004
 122391771.875 6  95370221.46043  23290383.156    23290386.8674
        41.400          22.6004
 20  9  1  1 22 30.0000000  0 10G22G26G01G31G32G10G11G03G04G21
 113126396.371 7  88150448.87046  21527235.016    21527236.1294
        47.500          38.1004
 125561195.672 5  97839912.23843  23893493.023    23893501.8054
        34.700          21.3004
 111189403.295 7  86641124.77146  21158639.031    21158646.2544
        46.000          37.9004
 107060904.257 8  83424099.74046  20373010.711    20373013.9064
        48.000          40.2004
 118762916.284 7  92542554.50744  22599832.492    22599838.4774
        44.300          29.7004
 128111086.867 6  99826843.70243  24378732.398    24378739.5434
        39.000          20.4004
 119723723.321 7  93291226.69044  22782668.781    22782673.0314
        44.300          29.1004
 119037605.848 7  92756614.01845  22652097.609    22652103.9534
        43.200          32.2004
 126382992.459 6  98480298.79943  24049879.906    24049885.0354
        39.000          21.3004
 122485181.119 6  95443007.85143  23308158.383    23308162.0634
        40.300          22.6004
 20  9  1  1 23  0.0000000  0 10G22G26G01G31G32G10G11G03G04G21
 113069626.726 7  88106212.79246  21516432.109    21516433.2034
        47.300          38.2004
 125476330.935 5  97773783.92243  23877343.734    23877352.4654
        34.500          19.9004
 111196003.910 7  86646268.11346  21159895.086    21159902.3014
        47.300          37.9004
 107080356.196 8  83439257.09346  20376712.281    20376715.4924
        48.000          39.8004
 118830196.796 7  92594980.87645  22612635.539    22612641.5204
        45.100          30.6004
 128197652.645 6  99894297.50743  24395205.305    24395212.4924
        38.000          20.4004
 119801417.086 7  93351767.26944  22797453.453    22797457.6914
        43.800          29.3004
 118955469.299 7  92692611.54345  22636467.531    22636473.8554
        43.500          32.7004
 126310435.557 6  98423761.01943  24036072.734    24036077.8204
        38.600          21.1004
 122578731.243 6  95515904.02143  23325960.453    23325964.0904
        40.700          22.2004
 20  9  1  1 23 30.0000000  0 10G22G26G01G31G32G10G11G03G04G21
 113013092.707 7  88062160.31646  21505674.031    21505675.1484
        47.200          38.2004
 125391518.878 5  97707696.69943  23861204.453    23861213.1374
        35.800          19.9004
 111203213.971 7  86651886.34146  21161267.109    21161274.3014
        47.500          38.8004
 107100415.340 7  83454887.59746  20380529.406    20380532.6524
        47.800          39.1004
 118897532.380 7  92647450.15645  22625449.078    22625455.0784
        45.700          30.9004
 128284413.883 6  99961903.68043  24411715.406    24411722.6134
        37.700          20.1004
 119879387.092 7  93412523.09144  22812290.672    22812294.8794
        43.500          29.1004
 118873434.580 7  92628688.40645  22620856.828    22620863.0824
        43.600          32.4004
 126238015.933 6  98367330.17943  24022291.703    24022296.8164
        37.700          20.6004
 122672420.033 6  95588908.23143  23343788.945    23343792.5784
        41.300          23.8004
 20  9  1  1 24  0.0000000  0 10G22G26G01G31G32G10G11G03G04G21
 112956794.884 7  88018291.89046  21494960.914    21494962.0634
        47.300          38.3004
 125306761.833 6  97641652.27343  23845075.680    23845084.2814
        37.000          21.1004
 111211032.317 7  86657978.56546  21162754.898    21162762.0744
        47.600          37.9004
 107121079.328 8  83470989.40346  20384461.633    20384464.8754
        48.600          39.0004
 118964921.652 7  92699961.25945  22638272.844    22638278.8754
        44.900          32.3004
 128371369.150 6 100029660.99643  24428262.500    24428269.6844
        38.700          19.0004
 119957629.327 7  93473491.03144  22827179.688    22827183.8954
        44.000          27.3004
 118791502.610 7  92564845.33545  22605265.680    22605271.8794
        44.100          32.7004
 126165732.848 6  98311005.74043  24008536.680    24008541.7584
        38.700          21.1004
 122766243.912 7  95662017.69944  23361643.047    23361646.7034
        42.000          24.6004
 20  9  1  1 24 30.0000000  0 10G22G26G01G31G32G10G11G03G04G21
 112900736.318 7  87974609.89246  21484293.313    21484294.4964
        47.600          38.1004
 125222063.324 6  97575653.49543  23828958.086    23828966.6884
        37.900          22.6004
 111219459.013 7  86664544.81946  21164358.445    21164365.6024
        47.400          37.9004
 107142347.560 7  83487562.06246  20388508.844    20388512.0354
        47.400          40.1004
 119032364.511 7  92752514.12545  22651106.805    22651112.8634
        44.500          30.7004
 128458518.137 6 100097569.22843  24444846.391    24444853.4344
        37.400          19.9004
 120036141.031 7  93534668.95144  22842120.000    22842124.2424
        43.200          27.8004
 118709675.603 7  92501084.05945  22589694.516    22589700.6644
        44.000          32.2004
 126093586.832 6  98254788.13643  23994807.719    23994812.8594
        38.700          20.9004
 122860201.067 7  95735231.00743  23379522.609    23379526.2034
        42.100          23.5004
 20  9  1  1 25  0.0000000  0 10G22G26G01G31G32G10G11G03G04G21
 112844918.497 7  87931115.49846  21473671.523    21473672.7344
        47.200          38.3004
 125137426.313 6  97509702.64143  23812852.242    23812860.8984
        38.800          23.2004
 111228493.513 8  86671584.68946  21166077.656    21166084.7894
        48.100          38.3004
 107164218.795 8  83504604.58546  20392670.805    20392673.9924
        48.300          39.6004
 119099860.254 7  92805108.21145  22663950.836    22663956.8634
        45.000          30.0004
 128545860.009 6 100165627.85243  24461467.016    24461474.0634
        38.000          19.9004
 120114918.640 7  93596054.08544  22857110.914    22857115.1414
        43.300          28.2004
 118627955.145 7  92437405.80445  22574143.609    22574149.7194
        43.700          32.5004
 126021577.701 6  98198677.13743  23981104.805    23981109.8484
        40.200          21.7004
 122954288.684 6  95808545.98443  23397426.891    23397430.5904
        41.700          22.6004
 20  9  1  1 25 30.0000000  0 10G22G26G01G31G32G10G11G03G04G21
 112789343.180 7  87887810.06346  21463095.883    21463097.1174
        47.300          38.1004
 125052853.971 6  97443802.15743  23796758.719    23796767.4454
        38.700          23.0004
 111238135.369 7  86679097.81846  21167912.438    21167919.5474
        47.900          38.6004
 107186691.868 8  83522116.07846  20396947.297    20396950.4844
        48.800          40.0004
 119167408.335 7  92857743.06745  22676804.828    22676810.8094
        44.200          30.2004
 128633394.057 6 100233836.17043  24478124.219    24478131.3284
        37.700          21.5004
 120193959.197 7  93657644.09444  22872151.852    22872156.0554
        43.700          28.2004
 118546343.009 7  92373811.96645  22558613.320    22558619.4384
        44.100          32.8004
 125949705.472 6  98142672.88543  23967427.953    23967432.9064
        39.700          20.6004
 123048504.182 7  95881960.62943  23415355.633    23415359.2584
        42.200          23.3004
 20  9  1  1 26  0.0000000  0 10G22G26G01G31G32G10G11G03G04G21
 112734012.210 7  87844695.03346  21452566.742    21452568.0164
        47.900          37.8004
 124968349.099 6  97377954.24443  23780678.039    23780686.8054
        38.800          22.6004
 111248383.859 7  86687083.64846  21169862.672    21169869.7774
        47.900          38.4004
 107209764.878 8  83540095.05746  20401337.945    20401341.0904
        48.800          39.8004
 119235007.961 7  92910418.08545  22689668.609    22689674.5634
        43.700          31.1004
 128721119.300 6 100302193.49043  24494817.813    24494825.0394
        37.900          20.9004
 120273259.197 7  93719436.27344  22887242.164    22887246.3634
        43.900          27.8004
 118464840.672 7  92310303.68145  22543103.922    22543110.0234
        44.300          33.6004
 125877969.876 6  98086775.04043  23953777.109    23953781.9884
        39.500          22.0004
 123142844.983 6  95955472.89043  23433308.070    23433311.8164
        41.800          22.6004
 20  9  1  1 26 30.0000000  0 10G22G26G01G31G32G10G11G03G04G21
 112678927.562 7  87801771.93946  21442084.469    21442085.7734
        47.300          38.1004
 124883915.192 6  97312161.66343  23764610.797    23764619.4844
        39.200          22.8004
 111259238.823 8  86695542.06046  21171928.313    21171935.4224
        48.500          38.2004
 107233437.317 8  83558541.11746  20405842.672    20405845.7974
        48.300          38.9004
 119302658.896 7  92963133.08345  22702542.172    22702548.1804
        44.600          30.8004
 128809035.295 6 100370699.46943  24511547.672    24511555.0204
        38.700          19.9004
 120352815.826 7  93781428.42344  22902381.297    22902385.4734
        44.100          27.6004
 118383450.253 7  92246882.59845  22527615.820    22527621.9224
        43.500          33.1004
 125806371.265 6  98030983.96843  23940152.313    23940157.1484
        40.400          21.3004
 123237308.857 6  96029081.06143  23451283.984    23451287.6994
        40.400          23.8004
 20  9  1  1 27  0.0000000  0 10G22G26G01G31G32G10G11G03G04G21
 112624090.812 7  87759042.01846  21431649.375    21431650.6884
        47.100          37.5004
 124799554.885 6  97246426.42543  23748557.539    23748566.0634
        39.000          22.3004
 111270699.253 8  86704472.25746  21174109.164    21174116.2814
        48.300          38.7004
 107257706.908 8  83577452.48946  20410461.023    20410464.1644
        48.600          39.1004
 119370360.158 7  93015887.31245  22715425.313    22715431.3014
        44.900          30.3004
 128897140.923 6 100439353.16643  24528313.664    24528320.9414
        37.900          20.6004
 120432625.182 7  93843617.50844  22917568.523    22917572.7194
        43.400          28.0004
 118302173.067 7  92183549.74745  22512149.273    22512155.3594
        44.500          33.9004
 125734909.175 6  97975299.27443  23926553.508    23926558.2814
        39.500          21.5004
 123331892.545 6  96102782.58344  23469282.695    23469286.4774
        41.800          24.1004
 20  9  1  1 27 30.0000000  0 10G22G26G01G31G32G10G11G03G04G21
 112569503.918 7  87716506.80046  21421261.813    21421263.1374
        47.800          37.5004
 124715271.515 6  97180751.13443  23732518.914    23732527.2304
        39.800          21.8004
 111282764.810 8  86713873.98146  21176405.164    21176412.2854
        48.500          38.3004
 107282572.683 8  83596828.43046  20415192.813    20415195.9264
        48.600          38.6004
 119438111.412 7  93068680.49245  22728317.961    22728323.9534
        44.500          30.4004
 128985435.553 6 100508154.15643  24545115.617    24545122.8204
        38.100          20.9004
 120512684.153 7  93906001.09244  22932803.242    22932807.3954
        43.500          26.9004
 118221011.094 7  92120306.68345  22496704.648    22496710.7464
        45.000          33.8004
 125663583.777 6  97919721.09643  23912980.703    23912985.5434
        39.800          21.7004
 123426594.572 6  96176576.33943  23487303.914    23487307.7774
        40.200          22.8004
 20  9  1  1 28  0.0000000  0 10G22G26G01G31G32G10G11G03G04G21
 112515168.396 7  87674167.43946  21410922.094    21410923.4064
        47.200          37.7004
 124631068.164 6  97115138.20943  23716495.469    23716503.7194
        38.800          21.7004
 111295434.864 8  86723746.74946  21178816.195    21178823.3324
        48.200          37.7004
 107308033.063 7  83616667.69246  20420037.766    20420040.8554
        47.500          38.6004
 119505912.119 7  93121512.21045  22741220.023    22741225.9804
        44.600          30.6004
 129073918.397 6 100577101.80643  24561953.367    24561960.5354
        38.300          21.7004
 120592989.883 7  93968576.96444  22948084.938    22948089.1094
        43.400          27.5004
 118139966.069 7  92057154.73145  22481282.281    22481288.3754
        44.700          33.0004
 125592395.006 6  97864249.35143  23899433.898    23899438.7154
        41.100          21.7004
 123521411.112 7  96250459.29143  23505346.898    23505350.8204
        42.000          22.8004
 20  9  1  1 28 30.0000000  0 10G22G26G01G31G32G10G11G03G04G21
 112461086.805 7  87632025.94746  21400630.695    21400632.0164
        47.500          38.1004
 124546948.141 6  97049590.21443  23700487.891    23700496.0394
        40.200          21.7004
 111308709.015 8  86734090.23046  21181342.188    21181349.3324
        48.400          38.3004
 107334087.059 7  83636969.51846  20424995.672    20424998.7664
        47.200          38.9004
 119573761.960 7  93174382.19645  22754131.422    22754137.4384
        44.300          31.3004
 129162588.869 6 100646195.65543  24578826.852    24578833.9924
        39.200          22.3004
 120673538.690 7  94031342.22144  22963412.875    22963417.0514
        42.600          26.3004
 118059040.000 7  91994095.48445  22465882.547    22465888.6334
        44.300          34.4004
 125521343.077 6  97808884.24543  23885913.133    23885917.9844
        40.600          20.4004
 123616340.217 6  96324429.97043  23523411.344    23523415.2664
        39.900          22.6004
 20  9  1  1 29  0.0000000  0 10G22G26G01G31G32G10G11G03G04G21
 112407260.705 7  87590083.54746  21390387.922    21390389.2504
        47.800          38.4004
 124462914.256 6  96984109.28843  23684496.781    23684504.8164
        40.700          22.8004
 111322586.287 7  86744903.68046  21183982.945    21183990.0824
        47.600          38.3004
 107360733.197 7  83657732.74046  20430066.258    20430069.3834
        46.700          39.3004
 119641660.072 7  93227289.79945  22767052.016    22767058.0744
        44.600          31.6004
 129251445.891 6 100715434.86643  24595735.805    24595742.8364
        38.400          20.9004
 120754327.622 7  94094294.60844  22978786.516    22978790.7504
        42.900          27.5004
 117978234.396 7  91931130.09645  22450505.734    22450511.7974
        45.100          33.7004
 125450427.628 6  97753625.50143  23872418.328    23872423.2734
        40.000          21.1004
 123711379.431 6  96398486.48744  23541496.773    23541500.7114
        40.900          24.9004
 20  9  1  1 29 30.0000000  0 10G22G26G01G31G32G10G11G03G04G21
 112353691.691 7  87548341.46746  21380194.063    21380195.4024
        47.200          38.7004
 124378969.500 6  96918697.85743  23668522.547    23668530.6254
        38.600          22.5004
 111337065.879 7  86756186.47346  21186738.320    21186745.4694
        47.800          37.9004
 107387969.494 7  83678955.83946  20435249.148    20435252.2974
        46.200          39.2004
 119709605.817 7  93280234.53345  22779981.672    22779987.7384
        44.700          30.9004
 129340488.433 6 100784818.63543  24612680.063    24612687.0554
        38.700          21.3004
 120835353.040 7  94157431.26244  22994205.156    22994209.3634
        42.700          26.3004
 117897550.861 7  91868259.82345  22435152.148    22435158.2034
        44.800          33.9004
 125379648.458 6  97698472.93443  23858949.477    23858954.3674
        40.700          21.5004
 123806526.281 6  96472626.82943  23559602.695    23559606.6414
        40.800          22.2004
 20  9  1  1 30  0.0000000  0 10G22G26G01G31G32G10G11G03G04G21
 112300381.765 7  87506801.27246  21370049.516    21370050.8404
        47.200          38.1004
 124295117.000 6  96853358.28243  23652565.867    23652574.0394
        39.400          22.8004
 111352147.083 8  86767938.05046  21189608.172    21189615.3404
        48.000          38.1004
 107415794.329 7  83700637.53346  20440544.031    20440547.2074
        47.300          39.6004
 119777598.732 7  93333216.00945  22792920.297    22792926.3834
        44.400          31.7004
 129429715.786 6 100854346.40743  24629659.484    24629666.4574
        38.800          20.6004
 120916611.682 7  94220749.65244  23009668.188    23009672.4064
        42.600          25.8004
 117816991.253 7  91805486.13345  22419822.141    22419828.2034
        44.700          33.5004
 125309005.586 6  97643426.53843  23845506.555    23845511.4104
        41.000          21.5004
 123901777.741 6  96546848.69243  23577728.469    23577732.4414
        40.800          22.2004
 20  9  1  1 30 30.0000000  0 10G22G26G01G31G32G10G11G03G04G21
 112247332.856 7  87465464.46746  21359954.641    21359955.9574
        47.600          38.3004
 124211360.253 6  96788093.32144  23636627.422    23636635.7704
        40.600          24.7004
 111367829.524 8  86780158.12846  21192592.438    21192599.6134
        48.500          38.2004
 107444207.029 7  83722777.30646  20445950.789    20445954.0124
        47.600          39.2004
 119845638.661 7  93386234.11045  22805867.875    22805874.0434
        44.800          31.8004
 129519127.474 6 100924017.80843  24646674.008    24646680.8364
        38.200          22.2004
 120998100.612 7  94284247.49244  23025175.047    23025179.2464
        43.500          27.2004
 117736557.728 7  91742810.66345  22404516.133    22404522.1644
        45.200          33.7004
 125238499.258 6  97588486.63443  23832089.609    23832094.5474
        40.700          21.3004
 123997131.397 6  96621150.18643  23595873.719    23595877.6764
        41.300          21.8004
 20  9  1  1 31  0.0000000  0 11G22G26G01G31G32G10G25G11G03G04G21
 112194546.625 7  87424332.34746  21349909.750    21349911.0664
        47.100          38.1004
 124127701.958 6  96722905.07844  23620707.758    23620716.1994
        40.600          24.5004
 111384112.021 7  86792845.77646  21195690.898    21195698.0784
        47.800          38.1004
 107473205.264 7  83745373.33646  20451468.961    20451472.1764
        47.100          39.2004
 119913724.641 7  93439288.10645  22818824.211    22818830.4184
        45.000          32.1004
 129608722.181 6 100993831.82843  24663723.344    24663730.1884
        37.200          22.5004
 129051999.471 5 100560016.20943  24557775.719    24557783.0394
        31.200          19.9004
 121079816.269 7  94347922.00344  23040725.047    23040729.2154
        43.000          26.5004
 117656251.482 7  91680234.38645  22389234.344    22389240.3794
        44.600          33.6004
 125168129.042 6  97533652.71843  23818698.570    23818703.3874
        39.200          21.3004
 124092584.572 6  96695529.21243  23614037.906    23614041.8364
        39.600          21.1004
 20  9  1  1 31 30.0000000  0 11G22G26G01G31G32G10G25G11G03G04G21
 112142024.640 7  87383406.13146  21339915.148    21339916.4804
        47.200          38.9004
 124044145.092 6  96657795.87643  23604807.359    23604815.8094
        38.400          22.6004
 111400993.570 7  86806000.21846  21198903.359    21198910.5164
        47.900          38.6004
 107502787.015 7  83768424.05546  20457098.180    20457101.3554
        47.800          39.8004
 119981855.980 7  93492377.46145  22831789.188    22831795.4144
        45.400          31.9004
 129698498.928 6 101063787.71143  24680807.313    24680814.3284
        37.900          22.2004
 129072985.131 5 100576368.71143  24561769.227    24561776.5944
        33.700          23.8004
 121161755.169 7  94411770.46344  23056317.531    23056321.6724
        42.900          25.8004
 117576074.578 7  91617758.89345  22373977.156    22373983.2344
        45.000          33.9004
 125097894.648 6  97478924.64243  23805333.375    23805338.1334
        39.900          21.1004
 124188134.474 6  96769983.62543  23632220.469    23632224.3634
        39.600          22.0004
 20  9  1  1 32  0.0000000  0 11G22G26G01G31G32G10G25G11G03G04G21
 112089768.900 7  87342687.37246  21329971.203    21329972.5394
        47.900          38.7004
 123960693.001 6  96592768.32343  23588926.922    23588935.2274
        39.900          22.6004
 111418473.582 8  86819620.99446  21202229.695    21202236.8444
        48.200          38.1004
 107532951.219 8  83791928.64246  20462838.234    20462841.3874
        48.100          39.4004
 120050032.483 7  93545502.00445  22844762.750    22844768.9884
        45.100          32.0004
 129788457.057 6 101133884.93943  24697925.781    24697933.0314
        37.900          22.8004
 129094513.169 5 100593143.76843  24565865.992    24565872.9534
        35.700          22.3004
 121243914.017 7  94475790.31144  23071951.875    23071956.0554
        43.100          27.6004
 117496028.815 7  91555385.59145  22358744.930    22358751.0164
        45.100          33.3004
 125027796.236 6  97424302.56643  23791994.063    23791998.7774
        40.100          21.1004
 124283778.827 6  96844511.62943  23650421.039    23650424.9574
        39.300          21.3004
 20  9  1  1 32 30.0000000  0 11G22G26G01G31G32G10G25G11G03G04G21
 112037781.630 8  87302177.81846  21320078.359    21320079.6954
        48.000          38.7004
 123877349.068 6  96527825.04243  23573067.078    23573075.3364
        40.400          22.3004
 111436551.526 8  86833707.69846  21205669.820    21205676.9574
        48.500          38.4004
 107563696.520 7  83815886.02546  20468688.867    20468692.0164
        47.200          39.7004
 120118253.938 7  93598661.56545  22857744.875    22857751.1604
        44.700          31.9004
 129878596.037 6 101204123.06043  24715078.609    24715085.9024
        38.400          23.3004
 129116583.629 5 100610341.53843  24570065.750    24570072.3714
        34.700          22.0004
 121326290.116 7  94539979.45044  23087627.563    23087631.7504
        43.300          26.7004
 117416116.378 7  91493116.16345  22343538.078    22343544.1954
        45.200          33.3004
 124957834.046 6  97369786.59943  23778680.664    23778685.3524
        40.500          22.2004
 124379515.368 6  96919111.48243  23668639.094    23668643.0204
        39.500          21.3004
 20  9  1  1 33  0.0000000  0 11G22G26G01G31G32G10G25G11G03G04G21
 111986064.616 8  87261878.85146  21310236.938    21310238.2464
        48.200          38.9004
 123794116.355 6  96462968.44143  23557228.398    23557236.4494
        40.100          23.5004
 111455226.396 7  86848259.53746  21209223.531    21209230.6484
        47.900          37.5004
 107595021.110 7  83840294.80146  20474649.734    20474652.9024
        47.300          39.6004
 120186519.762 7  93651855.70445  22870735.422    22870741.7664
        45.000          32.7004
 129968914.901 6 101274501.36043  24732265.734    24732273.0004
        38.400          22.5004
 129139196.258 5 100627961.74544  24574368.672    24574375.3284
        35.700          25.8004
 121408880.483 7  94604335.54544  23103344.023    23103348.2074
        42.800          26.5004
 117336338.960 7  91430951.96045  22328356.914    22328363.0234
        45.100          33.1004
 124888007.860 6  97315376.65143  23765393.156    23765397.9184
        40.500          21.1004
 124475341.292 6  96993780.98643  23686874.164    23686878.1484
        39.400          22.2004
 20  9  1  1 33 30.0000000  0 11G22G26G01G31G32G10G25G11G03G04G21
 111934619.688 7  87221791.90046  21300447.289    21300448.5824
        47.900          38.6004
 123710997.998 6  96398200.92143  23541411.477    23541419.3284
        40.300          22.9004
 111474497.335 8  86863275.84046  21212890.680    21212897.7774
        48.100          38.5004
 107626923.720 7  83865153.98146  20480720.602    20480723.7114
        47.300          39.0004
 120254829.522 7  93705084.06945  22883734.344    22883740.7234
        44.500          30.4004
 130059412.759 6 101345019.13644  24749486.922    24749494.2194
        38.400          24.1004
 129162350.881 6 100646004.33344  24578774.828    24578781.6484
        37.600          27.5004
 121491680.902 7  94668855.32844  23119100.445    23119104.6254
        42.600          26.9004
 117256698.476 7  91368894.45545  22313201.805    22313207.9344
        45.000          34.0004
 124818317.678 6  97261072.65643  23752131.531    23752136.3714
        40.100          22.6004
 124571254.335 6  97068518.34343  23705125.797    23705129.7974
        38.300          20.4004
 20  9  1  1 34  0.0000000  0 11G22G26G01G31G32G10G25G11G03G04G21
 111883448.620 8  87181918.34946  21290709.742    21290711.0514
        48.200          38.3004
 123627996.932 6  96333524.80444  23525616.844    23525624.6764
        38.700          25.6004
 111494363.143 8  86878755.68946  21216671.023    21216678.1174
        48.600          38.0004
 107659402.055 7  83890461.77646  20486901.016    20486904.0984
        47.000          39.5004
 120323182.507 7  93758346.13245  22896741.492    22896747.8674
        44.800          31.3004
 130150088.437 6 101415675.48544  24766741.953    24766749.2734
        39.200          24.8004
 129186047.054 5 100664468.87444  24583284.039    24583290.8754
        35.900          26.6004
 121574688.673 7  94733536.67144  23134896.328    23134900.5204
        42.800          26.8004
 117177196.540 7  91306944.91445  22298073.070    22298079.1884
        44.700          33.7004
 124748763.161 6  97206874.35743  23738895.727    23738900.5314
        41.600          21.3004
 124667251.564 6  97143321.33643  23723393.453    23723397.5744
        38.800          19.0004
 20  9  1  1 34 30.0000000  0 11G22G26G01G31G32G10G25G11G03G04G21
 111832553.229 8  87142259.60946  21281024.664    21281025.9924
        48.200          38.5004
 123545116.501 6  96268942.70144  23509845.188    23509853.1334
        39.700          25.3004
 111514823.068 8  86894698.48046  21220564.430    21220571.5204
        48.600          38.4004
 107692455.002 7  83916217.32746  20493190.781    20493193.8484
        47.300          39.2004
 120391578.460 7  93811641.67244  22909756.813    22909763.2034
        44.000          29.3004
 130240941.353 6 101486469.93644  24784030.680    24784038.0004
        38.600          24.3004
 129210284.646 5 100683355.33344  24587896.219    24587903.0784
        35.600          25.1004
 121657900.204 7  94798376.78344  23150730.992    23150735.1804
        42.300          25.6004
 117097835.212 7  91245104.92345  22282971.094    22282977.1844
        45.300          33.7004
 124679344.428 6  97152781.86843  23725685.750    23725690.5204
        41.700          21.7004
 124763330.394 6  97218187.90143  23741676.711    23741680.8404
        38.500          20.1004
 20  9  1  1 35  0.0000000  0 11G22G26G01G31G32G10G25G11G03G04G21
 111781935.315 7  87102817.08446  21271392.391    21271393.7074
        47.600          38.5004
 123462359.638 6  96204456.85943  23494097.055    23494105.0864
        40.400          23.5004
 111535875.916 7  86911103.28346  21224570.664    21224577.7544
        47.800          38.1004
 107726080.155 7  83942418.75146  20499589.430    20499592.4414
        47.200          39.2004
 120460016.715 7  93864970.17244  22922780.180    22922786.5474
        43.700          29.3004
 130331970.255 6 101557401.52944  24801352.891    24801360.2664
        38.800          25.3004
 129235063.207 5 100702663.30344  24592611.273    24592618.2304
        34.300          25.4004
 121741312.077 7  94863373.02944  23166603.781    23166607.8954
        42.200          25.9004
 117018616.127 7  91183375.77845  22267896.188    22267902.2424
        45.100          33.3004
 124610061.147 6  97098794.94143  23712501.547    23712506.3404
        40.800          22.3004
 124859488.229 6  97293116.01643  23759975.000    23759979.0784
        37.700          20.1004
 20  9  1  1 35 30.0000000  0 11G22G26G01G31G32G10G25G11G03G04G21
 111731596.569 7  87063592.09546  21261813.234    21261814.5434
        47.900          38.9004
 123379729.397 6  96140069.71144  23478373.039    23478381.0004
        39.900          26.0004
 111557520.595 8  86927969.26146  21228689.523    21228696.6054
        48.000          37.5004
 107760275.756 7  83969064.67146  20506096.633    20506099.6484
        47.500          38.9004
 120528496.770 7  93918331.23945  22935811.500    22935817.8594
        43.900          30.0004
 130423174.218 6 101628469.50944  24818708.438    24818715.9144
        39.400          27.4004
 129260382.337 6 100722392.54044  24597429.383    24597436.3594
        36.300          26.6004
 121824921.208 7  94928522.96644  23182514.109    23182518.2074
        42.800          27.1004
 116939541.135 7  91121758.91445  22252848.703    22252854.7774
        45.400          33.7004
 124540913.132 6  97044913.39743  23699343.094    23699347.7894
        41.600          21.5004
 124955722.282 6  97368103.47843  23778287.719    23778291.9024
        37.500          19.3004
 20  9  1  1 36  0.0000000  0 11G22G26G01G31G32G10G25G11G03G04G21
 111681539.267 7  87024586.41546  21252287.633    21252288.8984
        47.900          38.6004
 123297229.162 6  96075783.85944  23462673.773    23462681.6994
        40.600          25.5004
 111579756.298 8  86945295.77746  21232920.844    21232927.9024
        48.600          38.1004
 107795040.571 8  83996154.14646  20512712.156    20512715.1414
        48.300          39.2004
 120597018.361 7  93971724.68945  22948850.750    22948857.1214
        44.500          31.1004
 130514552.558 6 101699673.38044  24836097.180    24836104.6914
        40.400          27.4004
 129286241.947 5 100742542.89844  24602350.320    24602357.3284
        34.300          27.5004
 121908724.574 7  94993824.24344  23198461.398    23198465.5394
        42.000          25.2004
 116860612.295 7  91060255.93445  22237829.031    22237835.1024
        45.900          34.4004
 124471900.562 6  96991137.42743  23686210.414    23686215.0664
        41.100          22.2004
 125052030.201 6  97443148.55243  23796614.523    23796618.8404
        38.100          20.4004
 20  9  1  1 36 30.0000000  0 11G22G26G01G31G32G10G25G11G03G04G21
 111631765.427 8  86985801.61546  21242815.977    21242817.1954
        48.000          38.4004
 123214861.971 6  96011601.68044  23446999.789    23447007.7584
        39.200          25.6004
 111602581.844 7  86963081.90746  21237264.406    21237271.4734
        47.300          38.1004
 107830372.544 7  84023685.55646  20519435.609    20519438.5824
        47.800          39.2004
 120665580.994 7  94025150.10645  22961897.797    22961904.1054
        44.200          31.2004
 130606104.242 6 101771012.34044  24853518.922    24853526.3984
        40.300          27.4004
 129312641.574 5 100763114.04144  24607373.859    24607381.0164
        33.000          26.4004
 121992718.761 7  95059274.24044  23214444.969    23214449.1334
        42.600          25.1004
 116781831.449 7  90998868.27845  22222837.523    22222843.5634
        45.600          34.3004
 124403023.184 6  96937466.78043  23673103.445    23673108.0634
        41.700          22.2004
 125148409.133 6  97518248.95743  23814954.977    23814959.3164
        38.300          19.3004
 20  9  1  1 37  0.0000000  0 11G22G26G01G31G32G10G25G11G03G04G21
 111582275.625 7  86947238.15146  21233398.375    21233399.5904
        47.800          38.8004
 123132630.587 6  95947525.32344  23431351.625    23431359.4924
        39.700          25.2004
 111625995.769 7  86981326.52146  21241719.930    21241727.0044
        47.800          38.3004
 107866269.334 7  84051657.08446  20526266.523    20526269.5164
        47.700          39.3004
 120734183.851 7  94078606.86145  22974952.508    22974958.8324
        44.300          31.6004
 130697827.935 6 101842485.30844  24870973.398    24870980.8874
        41.200          28.1004
 129339580.434 5 100784105.39644  24612500.188    24612507.2974
        35.500          29.6004
 122076900.013 7  95124869.98544  23230464.141    23230468.3634
        42.800          25.0004
 116703200.070 7  90937597.08645  22207874.453    22207880.4924
        45.800          34.4004
 124334280.512 6  96883901.09543  23660022.117    23660026.7584
        40.600          20.6004
 125244856.782 6  97593402.93643  23833308.359    23833312.7504
        36.900          18.3004
 20  9  1  1 37 30.0000000  0 11G22G26G01G31G32G10G25G11G03G04G21
 111533072.709 7  86908898.23446  21224035.367    21224036.5824
        47.300          38.4004
 123050538.696 6  95883557.67844  23415729.992    23415737.8404
        39.700          24.5004
 111649997.466 8  87000029.13646  21246287.305    21246294.3914
        48.600          38.4004
 107902729.629 7  84080067.71246  20533204.688    20533207.6484
        47.700          39.1004
 120802827.062 7  94132095.05945  22988014.891    22988021.2274
        44.200          30.0004
 130789723.216 6 101914091.99844  24888460.492    24888468.0044
        40.900          25.9004
 129367058.693 5 100805517.01544  24617729.148    24617736.2504
        33.900          26.5004
 122161265.487 7  95190609.28744  23246518.375    23246522.6134
        43.300          25.9004
 116624720.622 7  90876444.28845  22192940.305    22192946.3204
        45.600          33.6004
 124265672.981 6  96830440.73143  23646966.508    23646971.1334
        41.700          21.7004
 125341370.778 6  97668608.53843  23851674.398    23851678.7704
        37.900          20.4004
 20  9  1  1 38  0.0000000  0 11G22G26G01G31G32G10G25G11G03G04G21
 111484158.703 7  86870783.43746  21214727.328    21214728.5394
        47.500          38.1004
 122968589.554 6  95819701.25744  23400135.508    23400143.3594
        39.900          24.5004
 111674585.889 7  87019188.93846  21250966.328    21250973.4344
        47.600          38.1004
 107939752.039 7  84108916.34446  20540249.820    20540252.7704
        47.700          39.8004
 120871510.267 7  94185614.43544  23001084.883    23001091.1644
        44.500          29.8004
 130881789.250 6 101985831.72244  24905980.117    24905987.5394
        40.600          26.2004
 129395075.960 5 100827348.72244  24623060.680    24623067.8444
        34.200          27.0004
 122245812.146 7  95256489.76344  23262607.086    23262611.3554
        42.700          25.4004
 116546395.071 7  90815411.39945  22178035.438    22178041.4344
        46.100          33.4004
 124197200.563 6  96777085.62343  23633936.602    23633941.2664
        40.600          22.3004
 125437948.474 6  97743863.80043  23870052.563    23870056.9654
        36.200          18.6004
 20  9  1  1 38 30.0000000  0 11G22G26G01G31G32G10G25G11G03G04G21
 111435535.421 7  86832895.18246  21205474.617    21205475.7934
        47.300          38.8004
 122886785.997 6  95755958.26044  23384568.727    23384576.5634
        39.300          27.2004
 111699759.565 7  87038804.78946  21255756.727    21255763.8714
        47.200          37.9004
 107977333.989 8  84138200.98446  20547401.430    20547404.4304
        48.400          40.0004
 120940232.804 7  94239164.47244  23014162.367    23014168.5784
        45.300          29.7004
 130974024.734 7 102057703.51244  24923531.984    24923539.3014
        42.000          27.3004
 129423631.538 6 100849599.80745  24628494.648    24628501.8594
        37.300          32.1004
 122330536.454 7  95322508.67244  23278729.609    23278733.8834
        42.600          26.2004
 116468225.061 7  90754499.72145  22163160.164    22163166.1684
        45.800          34.7004
 124128862.846 6  96723835.51443  23620932.313    23620937.0314
        40.800          22.3004
 125534587.136 6  97819166.58243  23888442.359    23888446.8984
        36.000          19.0004
 20  9  1  1 39  0.0000000  0 11G22G26G01G31G32G10G25G11G03G04G21
 111387204.380 7  86795234.64446  21196277.516    21196278.6764
        47.600          38.3004
 122805131.209 6  95692331.21244  23369030.273    23369038.1684
        41.500          26.1004
 111725517.302 7  87058875.75346  21260658.258    21260665.4224
        47.100          38.1004
 108015473.824 7  84167920.33146  20554659.203    20554662.2234
        47.300          39.2004
 121008994.259 7  94292744.82745  23027247.242    23027253.3834
        45.300          30.2004
 131066428.681 7 102129706.54744  24941115.922    24941123.1884
        42.000          28.0004
 129452724.877 5 100872270.00444  24634030.969    24634038.1174
        35.500          29.8004
 122415435.111 7  95388663.44544  23294885.313    23294889.6024
        42.100          25.0004
 116390212.545 7  90693710.76545  22148314.859    22148320.8594
        46.300          34.9004
 124060659.728 6  96670690.25143  23607953.656    23607958.3984
        41.400          22.3004
 125631284.393 6  97894515.00743  23906843.180    23906847.9264
        36.000          18.6004
 20  9  1  1 39 30.0000000  0 11G22G26G01G31G32G10G25G11G03G04G21
 111339167.400 7  86757803.24346  21187136.375    21187137.5084
        47.800          38.6004
 122723628.312 6  95628822.52244  23353520.781    23353528.7664
        41.600          25.6004
 111751857.888 7  87079400.88246  21265670.711    21265677.8554
        46.400          38.3004
 108054169.399 7  84198072.74146  20562022.727    20562025.7504
        47.400          39.3004
 121077794.229 7  94346355.17844  23040339.453    23040345.5084
        44.900          29.9004
 131159000.145 6 102201840.12844  24958731.727    24958738.9804
        41.100          28.1004
 129482355.495 6 100895358.76745  24639669.492    24639676.7034
        38.600          31.2004
 122500504.898 6  95454951.55244  23311073.578    23311077.8954
        41.800          24.9004
 116312359.425 7  90633046.01145  22133499.898    22133505.9064
        46.000          34.5004
 123992591.029 7  96617649.71443  23595000.578    23595005.2814
        42.000          22.3004
 125728037.421 6  97969906.92943  23925254.711    23925259.4494
        36.700          18.6004
 20  9  1  1 40  0.0000000  0 11G22G26G01G31G32G10G25G11G03G04G21
 111291426.431 7  86720602.50446  21178051.563    21178052.6604
        47.100          38.7004
 122642280.576 6  95565434.72744  23338040.789    23338048.8484
        41.100          26.5004
 111778780.160 7  87100379.26646  21270793.852    21270800.9884
        47.700          37.9004
 108093419.051 7  84228656.88046  20569491.688    20569494.7734
        46.400          39.2004
 121146632.436 7  94399995.34044  23053438.938    23053444.9844
        44.800          29.3004
 131251738.235 6 102274103.54644  24976379.219    24976386.5164
        41.700          27.1004
 129512523.015 6 100918865.94245  24645410.156    24645417.3834
        38.100          30.2004
 122585742.527 7  95521370.45844  23327293.789    23327298.0594
        43.000          24.4004
 116234667.761 7  90572507.06845  22118715.648    22118721.6524
        46.200          34.9004
 123924656.780 6  96564713.97543  23582073.086    23582077.7974
        41.200          22.3004
 125824843.679 5  98045340.30042  23943676.383    23943681.0704
        34.300          17.8004
 20  9  1  1 40 30.0000000  0 11G22G26G01G31G32G10G25G11G03G04G21
 111243983.291 7  86683633.83046  21169023.430    21169024.5164
        46.600          38.2004
 122561091.077 6  95502170.20644  23322590.906    23322598.9574
        39.800          25.1004
 111806282.739 7  87121809.84846  21276027.430    21276034.5434
        46.100          37.9004
 108133220.737 7  84259671.17946  20577065.695    20577068.8164
        46.700          39.2004
 121215508.413 7  94453664.93344  23066545.609    23066551.6604
        44.300          27.7004
 131344641.856 7 102346495.95044  24994058.211    24994065.4884
        42.100          27.3004
 129543226.683 6 100942790.91545  24651252.898    24651260.0944
        37.400          32.2004
 122671144.737 7  95587917.59243  23343545.328    23343549.5314
        42.600          23.2004
 116157139.376 7  90512095.36045  22103962.484    22103968.5004
        45.600          35.0004
 123856856.717 7  96511882.77943  23569171.133    23569175.8284
        42.500          22.2004
 125921700.795 5  98120813.25342  23962107.664    23962112.4344
        35.200          17.8004
 20  9  1  1 41  0.0000000  0 11G22G26G01G31G32G10G25G11G03G04G21
 111196839.817 7  86646898.67046  21160052.320    21160053.4104
        47.400          38.1004
 122480063.033 6  95439031.52344  23307171.727    23307179.6604
        40.200          24.7004
 111834364.386 7  87143691.64946  21281371.195    21281378.2704
        46.300          37.8004
 108173572.510 7  84291114.12346  20584744.375    20584747.5044
        46.600          39.2004
 121284421.879 7  94507363.71544  23079659.398    23079665.4264
        43.100          28.3004
 131437710.086 7 102419016.62544  25011768.531    25011775.8094
        42.500          26.5004
 129574466.040 6 100967133.29345  24657197.539    24657204.8054
        38.700          33.0004
 122756708.354 7  95654590.51943  23359827.586    23359831.7034
        43.200          23.4004
 116079776.330 7  90451812.48445  22089240.766    22089246.8014
        45.400          34.9004
 123789190.799 7  96459156.14143  23556294.695    23556299.4304
        42.600          22.2004
 126018606.112 6  98196323.84843  23980548.273    23980553.0004
        37.300          20.1004
 20  9  1  1 41 30.0000000  0 11G22G26G01G31G32G10G25G11G03G04G21
 111149997.965 7  86610398.53246  21151138.609    21151139.7114
        47.400          38.3004
 122399199.515 6  95376021.03944  23291783.898    23291791.7194
        39.700          26.7004
 111863023.705 7  87166023.58846  21286824.891    21286831.9344
        46.100          38.1004
 108214472.364 7  84322984.14246  20592527.367    20592530.5474
        46.700          39.4004
 121353372.358 7  94561091.35744  23092780.227    23092786.2504
        43.300          27.6004
 131530941.782 6 102491664.68644  25029509.961    25029517.2424
        41.600          26.8004
 129606240.392 6 100991892.53245  24663244.016    24663251.2854
        37.600          34.2004
 122842430.102 7  95721386.63943  23376139.945    23376144.0004
        42.600          23.5004
 116002580.456 7  90391659.87645  22074550.875    22074556.9344
        45.500          34.8004
 123721658.820 6  96406533.83343  23543443.758    23543448.4734
        41.500          23.0004
 126115557.127 6  98271870.05143  23998997.578    23999002.2344
        37.200          18.3004
 20  9  1  1 42  0.0000000  0 11G22G26G01G31G32G10G25G11G03G04G21
 111103459.640 7  86574134.91146  21142282.648    21142283.7814
        47.600          38.4004
 122318503.818 6  95313141.33444  23276428.016    23276435.7704
        40.700          26.9004
 111892259.515 7  87188804.73346  21292388.289    21292395.3164
        47.800          38.2004
 108255918.324 7  84355279.69746  20600414.273    20600417.4574
        46.400          38.9004
 121422359.620 7  94614847.66744  23105908.070    23105914.0704
        43.900          28.0004
 131624336.173 7 102564439.51044  25047282.336    25047289.6724
        42.300          27.3004
 129638549.285 6 101017068.25345  24669392.203    24669399.4884
        38.900          33.6004
 122928306.650 7  95788303.40543  23392481.766    23392485.7384
        43.900          23.6004
 115925553.894 7  90331639.19045  22059893.188    22059899.2114
        45.900          34.6004
 123654260.778 7  96354015.91643  23530618.297    23530623.0354
        42.200          23.9004
 126212551.486 5  98347449.98742  24017454.992    24017459.6564
        35.800          17.8004
 20  9  1  1 42 30.0000000  0 11G22G26G01G31G32G10G25G11G03G04G21
 111057226.836 7  86538109.35946  21133484.844    21133485.9774
        47.600          38.5004
 122237979.207 6  95250394.90844  23261104.656    23261112.3754
        41.300          26.4004
 111922070.448 7  87212034.03446  21298061.133    21298068.1564
        47.500          37.5004
 108297908.656 7  84387999.44846  20608404.766    20608407.8874
        47.000          39.2004
 121491383.396 7  94668632.43144  23119042.852    23119048.8674
        43.400          27.5004
 131717892.291 6 102637340.39844  25065085.477    25065092.9184
        41.100          26.2004
 129671392.027 6 101042660.06745  24675641.977    24675649.2384
        38.900          34.2004
 123014334.828 7  95855338.31943  23408852.422    23408856.3874
        43.000          22.6004
 115848698.696 7  90271752.03745  22045268.117    22045274.1294
        45.800          34.9004
 123586996.560 7  96301602.26243  23517818.305    23517823.1294
        42.400          22.3004
 126309586.607 5  98423061.65843  24035920.180    24035924.9534
        35.900          19.3004
 20  9  1  1 43  0.0000000  0 11G22G26G01G31G32G10G25G11G03G04G21
 111011300.934 7  86502322.94345  21124745.422    21124746.5634
        47.800          31.9004
 122157628.635 6  95187784.10043  23245814.438    23245822.1214
        40.200          21.1004
 111952454.993 7  87235710.30045  21303843.117    21303850.1484
        47.900          31.2004
 108340441.070 7  84421141.59445  20616498.414    20616501.5164
        47.400          32.9004
 121560443.130 7  94722445.22043  23132184.484    23132190.4964
        43.200          20.9004
 131811608.905 6 102710366.35143  25082919.164    25082926.6884
        41.700          20.6004
 129704767.896 6 101068667.25344  24681993.188    24682000.4924
        38.300          28.4004
 123100511.444 7  95922488.86543  23425251.320    23425255.2544
        43.800          19.3004
 115772016.628 7  90211999.79644  22030676.000    22030682.0044
        46.800          28.8004
 123519865.915 7  96249292.70743  23505043.742    23505048.7384
        42.500          18.3004
 126406659.522 6  98498702.90642  24054392.516    24054397.3914
        36.200          14.8004
 20  9  1  1 43 30.0000000  0 11G22G26G01G31G32G10G25G11G03G04G21
 110965684.113 7  86466777.38046  21116064.820    21116065.9734
        47.600          38.8004
 122077455.330 6  95125311.46144  23230557.961    23230565.6644
        40.900          27.3004
 111983411.719 7  87259832.42246  21309734.000    21309741.0554
        46.900          38.2004
 108383513.401 8  84454704.45746  20624694.813    20624697.9184
        48.500          38.8004
 121629538.557 7  94776285.80844  23145332.891    23145338.8324
        44.100          27.8004
 131905484.934 6 102783516.49344  25100783.180    25100790.6454
        40.800          24.7004
 129738676.136 6 101095089.27845  24688445.719    24688453.0824
        38.800          34.9004
 123186833.084 7  95989752.47743  23441677.805    23441681.7234
        42.400          22.6004
 115695509.731 7  90152384.05445  22016117.211    22016123.2114
        47.000          34.8004
 123452868.692 7  96197087.11444  23492294.555    23492299.5744
        42.700          24.9004
 126503768.103 6  98574378.84543  24072871.719    24072876.7384
        36.400          18.3004
 20  9  1  1 44  0.0000000  0 11G22G26G01G31G32G10G25G11G03G04G21
 110920377.991 7  86431473.91446  21107443.344    21107444.4924
        47.800          38.5004
 121997462.401 6  95062979.36244  23215335.773    23215343.4144
        40.600          26.7004
 112014939.161 7  87284399.25546  21315733.477    21315740.5084
        47.400          37.9004
 108427123.339 8  84488686.23746  20632993.516    20632996.6024
        48.200          39.2004
 121698669.309 7  94830153.92544  23158488.031    23158493.9614
        44.900          28.1004
 131999519.368 6 102856790.07843  25118677.313    25118684.6884
        41.000          22.6004
 129773116.061 6 101121925.61145  24694999.406    24695006.7664
        40.200          34.9004
 123273296.690 7  96057126.69044  23458131.297    23458135.1454
        43.200          24.7004
 115619179.958 7  90092906.32346  22001592.133    22001598.0984
        47.000          36.0004
 123386004.746 7  96144985.34444  23479570.742    23479575.7384
        42.200          24.7004
 126600909.354 6  98650073.24543  24091357.211    24091361.7504
        37.900          18.3004
 20  9  1  1 44 30.0000000  0 11G22G26G01G31G32G10G25G11G03G04G21
 110875384.694 7  86396414.20846  21098881.398    21098882.5434
        47.700          38.9004
 121917653.217 6  95000790.41444  23200148.547    23200156.2234
        40.800          27.0004
 112047036.044 7  87309409.80546  21321841.313    21321848.3364
        45.800          38.1004
 108471269.314 7  84523085.70146  20641394.219    20641397.3094
        47.800          39.0004
 121767835.229 7  94884049.46644  23171649.867    23171655.7854
        43.800          27.0004
 132093711.391 6 102930186.46844  25136601.445    25136608.7934
        40.100          24.6004
 129808087.033 6 101149175.74646  24701654.164    24701661.4264
        39.200          36.0004
 123359898.991 7  96124608.97443  23474611.203    23474615.0164
        42.500          22.8004
 115543029.507 7  90033568.32945  21987101.180    21987107.1024
        47.200          35.3004
 123319274.068 7  96092987.46544  23466872.281    23466877.3404
        43.000          24.9004
 126698081.009 6  98725791.32743  24109848.461    24109852.9344
        36.200          18.3004
 20  9  1  1 45  0.0000000  0 11G22G26G01G31G32G10G25G11G03G04G21
 110830705.820 7  86361599.50846  21090379.281    21090380.4144
        46.900          38.6004
 121838030.751 6  94938746.96144  23184996.844    23185004.6214
        40.200          26.7004
 112079700.651 7  87334862.73546  21328057.188    21328064.2234
        47.300          38.4004
 108515949.035 8  84557901.06546  20649896.477    20649899.5594
        48.700          39.0004
 121837035.785 7  94937971.96644  23184818.297    23184824.2154
        44.100          26.0004
 132188059.703 6 103003704.66543  25154555.328    25154562.7034
        40.600          23.0004
 129843588.169 6 101176838.97045  24708409.805    24708417.0434
        40.400          35.8004
 123446636.945 6  96192196.97143  23491116.906    23491120.7114
        41.700          23.5004
 115467060.212 7  89974371.49145  21972644.695    21972650.6024
        46.000          35.4004
 123252676.345 7  96041093.16244  23454199.133    23454204.2034
        42.400          25.3004
 126795280.412 5  98801531.06042  24128344.836    24128349.5314
        34.900          17.8004
 20  9  1  1 45 30.0000000  0 11G22G26G01G31G32G10G25G11G03G04G21
 110786343.281 7  86327031.30246  21081937.352    21081938.4734
        47.600          38.1004
 121758598.235 6  94876851.53844  23169881.289    23169889.0704
        41.600          25.0004
 112112931.574 7  87360756.95546  21334380.828    21334387.8874
        46.700          38.6004
 108561160.310 8  84593130.63946  20658499.891    20658502.9694
        48.100          38.8004
 121906270.799 7  94991921.33344  23197993.273    23197999.2114
        43.900          26.4004
 132282563.268 6 103077343.81543  25172538.750    25172546.0944
        41.600          21.8004
 129879618.746 6 101204914.76646  24715266.188    24715273.4264
        40.900          36.2004
 123533506.843 7  96259887.75943  23507647.703    23507651.5044
        42.700          22.2004
 115391274.115 7  89915317.40545  21958223.078    21958228.9694
        46.700          35.4004
 123186211.526 7  95989302.43444  23441551.266    23441556.4264
        42.300          24.6004
 126892505.343 5  98877290.69742  24146846.211    24146850.9844
        34.800          16.9004
 20  9  1  1 46  0.0000000  0 11G22G26G01G31G32G10G25G11G03G04G21
 110742298.954 8  86292711.05346  21073555.984    21073557.0744
        48.000          38.9004
 121679358.744 6  94815106.53644  23154802.484    23154810.1884
        41.400          25.1004
 112146727.157 7  87387091.16746  21340811.914    21340819.0084
        47.400          38.3004
 108606901.001 8  84628772.73746  20667204.047    20667207.1174
        48.000          38.2004
 121975539.826 7  95045897.19344  23211174.727    23211180.6884
        43.500          26.5004
 132377220.986 6 103151103.10843  25190551.484    25190558.6374
        39.400          22.2004
 129916177.811 6 101233402.37546  24722223.148    24722230.3834
        41.100          36.7004
 123620505.519 7  96327678.91043  23524203.008    23524206.8204
        42.300          23.2004
 115315673.223 7  89856407.63845  21943836.703    21943842.5864
        46.300          35.4004
 123119879.345 7  95937615.06144  23428928.648    23428933.8754
        43.100          25.1004
 126989753.118 5  98953068.00242  24165351.828    24165356.7704
        34.600          17.8004
 20  9  1  1 46 30.0000000  0 10G22G26G01G31G32G25G11G03G04G21
 110698575.007 7  86258640.45546  21065235.578    21065236.6374
        47.500          38.6004
 121600315.894 6  94753514.74944  23139761.102    23139768.7034
        41.600          26.2004
 112181086.317 7  87413864.52946  21347350.258    21347357.3714
        47.600          38.3004
 108653169.405 7  84664826.03846  20676008.625    20676011.7154
        47.600          38.6004
 122044843.048 7  95099899.68244  23224362.695    23224368.7464
        43.800          27.0004
 129953264.937 6 101262301.47745  24729280.594    24729287.8324
        39.100          35.8004
 123707630.372 7  96395568.36543  23540782.320    23540786.1294
        42.300          22.8004
 115240259.922 7  89797644.04945  21929486.023    21929491.8914
        46.000          35.5004
 123053680.131 7  95886031.30244  23416331.328    23416336.6214
        42.400          25.3004
 127087021.320 5  99028861.36943  24183861.234    24183866.5234
        34.300          19.6004
 20  9  1  1 47  0.0000000  0 10G22G26G01G31G32G25G11G03G04G21
 110655172.725 7  86224820.50146  21056976.398    21056977.4184
        47.700          38.4004
 121521472.404 6  94692078.30944  23124757.656    23124765.1914
        41.300          25.8004
 112216006.974 7  87441075.41846  21353995.453    21354002.6054
        47.300          38.6004
 108699962.826 7  84701288.45146  20684913.117    20684916.1724
        47.200          37.9004
 122114179.719 7  95153928.26244  23237557.031    23237563.0474
        43.600          25.6004
 129990878.889 6 101291611.06345  24736438.289    24736445.5164
        38.700          35.3004
 123794877.689 7  96463553.27543  23557384.945    23557388.6844
        43.100          22.3004
 115165035.875 7  89739027.92545  21915171.344    21915177.2234
        46.400          35.1004
 122987613.254 7  95834550.64844  23403759.195    23403764.5554
        43.000          26.0004
 127184307.089 5  99104668.38243  24202374.258    24202379.5984
        34.800          19.6004
 20  9  1  1 47 30.0000000  0 10G22G26G01G31G32G25G11G03G04G21
 110612094.023 7  86191252.69046  21048778.781    21048779.7624
        47.600          38.1004
 121442831.336 6  94630799.59244  23109792.711    23109800.2074
        40.900          25.9004
 112251487.410 7  87468722.50246  21360747.164    21360754.3594
        47.800          38.5004
 108747278.768 7  84738158.00846  20693917.031    20693920.0824
        47.500          38.3004
 122183549.414 7  95207982.57544  23250757.656    23250763.6334
        43.900          27.9004
 130029018.664 6 101321330.39445  24743696.031    24743703.2544
        39.600          34.5004
 123882244.022 6  96531630.89543  23574010.211    23574014.0044
        41.900          21.7004
 115090003.003 7  89680560.77045  21900893.055    21900898.9304
        45.000          35.2004
 122921678.467 7  95783172.93144  23391212.195    23391217.5984
        43.200          26.6004
 127281607.733 5  99180486.99442  24220890.039    24220895.4024
        35.900          17.8004
 20  9  1  1 48  0.0000000  0 10G22G26G01G31G32G25G11G03G04G21
 110569340.925 7  86157938.60646  21040643.133    21040644.0824
        46.600          38.4004
 121364396.099 6  94569681.25644  23094866.938    23094874.4884
        40.900          26.9004
 112287526.303 7  87496804.74546  21367605.141    21367612.3914
        47.100          38.4004
 108795115.586 7  84775433.45146  20703020.063    20703023.1024
        47.000          37.9004
 122252952.143 7  95262062.62044  23263964.563    23263970.5744
        43.400          26.7004
 130067683.580 6 101351458.95845  24751053.711    24751060.8444
        39.700          33.6004
 123969726.570 6  96599799.09043  23590657.609    23590661.4534
        41.800          22.9004
 115015163.579 7  89622244.35945  21886651.570    21886657.4304
        45.700          35.0004
 122855875.863 7  95731898.21844  23378690.352    23378695.7774
        43.700          26.7004
 127378921.010 5  99256315.45143  24239408.297    24239413.5554
        35.400          19.0004
 20  9  1  1 48 30.0000000  0 10G22G26G01G31G32G25G11G03G04G21
 110526914.978 7  86124879.43146  21032569.742    21032570.6484
        47.500          38.4004
 121286169.677 6  94508725.65344  23079980.922    23079988.5204
        41.300          26.3004
 112324121.750 7  87525320.67046  21374569.031    21374576.3204
        47.800          38.9004
 108843470.821 7  84813112.85446  20712221.750    20712224.8094
        47.600          38.7004
 122322387.469 7  95316168.06444  23277177.672    23277183.6684
        43.500          26.0004
 130106872.583 6 101381995.86545  24758511.117    24758518.2384
        39.800          34.0004
 124057321.977 6  96668055.21543  23607326.469    23607330.3834
        41.800          22.2004
 114940519.504 7  89564080.16245  21872447.266    21872453.1414
        46.000          35.2004
 122790205.081 7  95680726.22444  23366193.586    23366199.0434
        43.000          25.4004
 127476244.436 5  99332151.82643  24257928.414    24257933.5784
        35.700          18.6004
 20  9  1  1 49  0.0000000  0 10G22G26G01G31G32G25G11G03G04G21
 110484818.163 7  86092076.73246  21024558.977    21024559.8484
        47.300          38.6004
 121208155.427 6  94447935.37544  23065135.266    23065142.9454
        40.800          26.8004
 112361272.260 7  87554269.11146  21381638.547    21381645.8794
        47.500          39.2004
 108892342.666 7  84851194.80846  20721521.742    20721524.7974
        47.500          37.4004
 122391855.293 7  95370298.82144  23290396.977    23290402.9614
        43.400          28.1004
 130146584.866 6 101412940.52045  24766068.094    24766075.2274
        38.900          33.5004
 124145027.322 6  96736397.01943  23624016.266    23624020.2234
        41.200          22.6004
 114866072.981 7  89506069.90545  21858280.547    21858286.4184
        46.600          35.2004
 122724666.159 7  95629656.97444  23353721.922    23353727.4454
        44.100          26.1004
 127573575.549 6  99407994.20943  24276450.008    24276455.0234
        37.700          19.6004
 20  9  1  1 49 30.0000000  0 10G22G26G01G31G32G25G11G03G04G21
 110443052.277 7  86059531.90346  21016611.188    21016612.0164
        47.600          39.4004
 121130356.367 6  94387312.75144  23050330.563    23050338.3404
        40.200          27.3004
 112398976.005 8  87583648.64446  21388813.344    21388820.6994
        48.000          38.8004
 108941728.288 7  84889677.12646  20730919.516    20730922.5704
        47.200          38.4004
 122461355.155 7  95424454.55844  23303622.359    23303628.3834
        44.100          27.1004
 130186819.301 6 101444292.03245  24773724.438    24773731.4574
        39.200          32.6004
 124232838.988 6  96804821.64843  23640726.305    23640730.3094
        41.500          22.8004
 114791825.954 7  89448215.09245  21844151.797    21844157.6644
        47.000          35.0004
 122659258.760 7  95578690.22944  23341275.273    23341280.8054
        43.100          25.3004
 127670911.527 6  99483840.35743  24294972.414    24294977.4574
        36.100          19.0004
 20  9  1  1 50  0.0000000  0 10G22G26G01G31G32G25G11G03G04G21
 110401619.123 7  86027246.33846  21008726.719    21008727.5434
        47.000          38.7004
 121052775.651 6  94326860.27544  23035567.422    23035575.2774
        40.800          26.6004
 112437231.259 7  87613457.92446  21396093.086    21396100.4494
        47.500          38.9004
 108991625.455 7  84928558.02946  20740414.625    20740417.6844
        47.700          37.9004
 122530886.886 7  95478635.10744  23316853.828    23316859.8674
        44.100          26.4004
 130227574.874 6 101476049.65145  24781479.945    24781486.8444
        38.800          32.5004
 124320754.083 6  96873326.89243  23657456.047    23657460.0394
        41.100          21.8004
 114717780.508 7  89390517.36345  21830061.406    21830067.2464
        46.100          35.7004
 122593982.783 7  95527825.86044  23328853.641    23328859.1994
        43.200          26.7004
 127768250.215 5  99559688.63343  24313495.375    24313500.5164
        35.500          19.6004
 20  9  1  1 50 30.0000000  0 10G22G26G01G31G32G25G11G03G04G21
 110360520.679 7  85995221.58646  21000905.938    21000906.7774
        47.200          38.7004
 120975416.579 6  94266580.52444  23020846.484    23020854.2194
        41.500          27.8004
 112476036.464 8  87643695.74146  21403477.492    21403484.8634
        48.300          39.1004
 109042032.216 7  84967836.04246  20750006.711    20750009.7114
        47.900          37.4004
 122600450.378 7  95532840.42944  23330091.336    23330097.3594
        44.400          26.5004
 130268850.754 6 101508212.71345  24789334.453    24789341.3054
        38.700          31.4004
 124408769.331 7  96941910.15143  23674204.852    23674208.8714
        42.100          22.5004
 114643938.874 7  89332978.44545  21816009.797    21816015.6094
        46.600          35.9004
 122528838.205 7  95477063.89344  23316457.016    23316462.5824
        42.800          26.5004
 127865588.992 6  99635536.97843  24332018.367    24332023.6334
        37.200          20.1004
 20  9  1  1 51  0.0000000  0 10G22G26G01G31G32G25G11G03G04G21
 110319758.818 7  85963459.10846  20993149.203    20993150.0744
        45.100          39.0004
 120898282.167 6  94206475.84444  23006168.289    23006175.8204
        39.900          26.9004
 112515389.611 7  87674360.52046  21410966.156    21410973.5234
        45.800          38.6004
 109092946.066 7  85007509.17946  20759695.289    20759698.2704
        46.100          38.4004
 122670045.205 7  95587070.13944  23343334.797    23343340.8634
        43.200          27.2004
 130310645.761 6 101540780.27545  24797287.727    24797294.5314
        36.600          30.7004
 124496881.404 7  97010568.88843  23690972.078    23690976.1764
        42.100          22.2004
 114570302.936 7  89275599.80745  21801997.336    21802003.1334
        45.300          35.5004
 122463824.651 7  95426404.01544  23304085.320    23304090.8984
        42.600          26.4004
 127962925.234 5  99711383.30443  24350540.836    24350546.1724
        35.700          19.3004
 20  9  1  1 51 30.0000000  0 10G22G26G01G31G32G25G11G03G04G21
 110279334.794 7  85931959.87846  20985456.766    20985457.6844
        46.800          38.9004
 120821375.642 6  94146548.69844  22991533.445    22991540.9024
        41.600          26.2004
 112555289.018 7  87705450.95546  21418558.773    21418566.1334
        47.300          38.0004
 109144364.805 7  85047575.73346  20769479.953    20769482.9454
        47.300          38.4004
 122739671.184 7  95641324.15844  23356584.203    23356590.2894
        44.000          27.1004
 130352958.856 5 101573751.52644  24805339.609    24805346.2974
        35.800          28.7004
 124585086.967 6  97079300.43943  23707757.133    23707761.3094
        41.100          22.2004
 114496874.872 7  89218383.15045  21788024.438    21788030.1914
        47.200          35.5004
 122398942.055 7  95375846.18644  23291738.539    23291744.1684
        42.600          27.4004
 128060256.527 6  99787225.79143  24369062.461    24369067.7544
        37.000          19.3004
 20  9  1  1 52  0.0000000  0 10G22G26G01G31G32G25G11G03G04G21
 110239251.095 7  85900725.83646  20977829.086    20977830.0394
        46.500          39.1004
 120744700.233 6  94086801.66644  22976942.586    22976950.1414
        41.400          26.6004
 112595732.935 7  87736965.68646  21426255.000    21426262.3524
        47.000          37.9004
 109196286.151 7  85088033.92846  20779360.258    20779363.2504
        46.800          38.2004
 122809328.163 7  95695602.31044  23369839.484    23369845.6214
        44.100          26.5004
 130395789.028 6 101607125.70744  24813489.875    24813496.3794
        36.300          29.0004
 124673383.467 6  97148102.85543  23724559.461    23724563.6914
        41.600          21.8004
 114423656.833 7  89161330.14946  21774091.500    21774097.2194
        47.200          36.1004
 122334190.298 7  95325390.29644  23279416.656    23279422.3444
        43.000          28.5004
 128157580.418 6  99863062.54543  24387582.648    24387587.8324
        37.300          21.1004
 20  9  1  1 52 30.0000000  0 11G22G26G01G31G32G16G25G11G03G04G21
 110199509.310 7  85869758.22046  20970266.477    20970267.4574
        46.700          39.4004
 120668259.160 6  94027237.21644  22962396.289    22962403.9304
        39.000          25.8004
 112636719.585 7  87768903.32546  21434054.516    21434061.8554
        47.200          38.8004
 109248707.979 7  85128882.11346  20789335.797    20789338.7774
        47.400          38.7004
 122879016.004 7  95749904.52244  23383100.648    23383106.8364
        44.100          26.9004
                                  25208616.047
        34.800
 130439135.265 6 101640901.98344  24821738.359    24821744.7464
        36.300          29.9004
 124761767.485 6  97216973.48243  23741378.438    23741382.7304
        41.100          22.8004
 114350651.026 7  89104442.52146  21760198.953    21760204.6564
        47.100          36.8004
 122269569.282 7  95275036.30344  23267119.656    23267125.3874
        42.500          27.3004
 128254894.492 6  99938891.62943  24406100.992    24406106.1764
        38.700          21.1004
 20  9  1  1 53  0.0000000  0 11G22G26G01G31G32G16G25G11G03G04G21
 110160110.818 7  85839058.09846  20962769.188    20962770.2114
        46.800          39.3004
 120592055.282 6  93967857.61144  22947895.133    22947902.8054
        39.800          25.8004
 112678246.835 7  87801262.21046  21441956.891    21441964.2344
        47.800          38.3004
 109301627.572 7  85170118.16646  20799406.063    20799409.0354
        47.200          38.7004
 122948734.224 7  95804230.41344  23396367.602    23396373.8054
        44.400          27.3004
 132374294.964 5                  25189990.523
        32.800
 130482996.160 6 101675079.28645  24830084.789    24830091.0824
        39.400          30.5004
 124850235.503 6  97285909.56343  23758213.391    23758217.7734
        40.700          21.5004
 114277859.222 8  89047721.65246  21746347.125    21746352.8134
        48.100          36.1004
 122205078.594 7  95224783.85344  23254847.453    23254853.1174
        42.700          27.1004
 128352196.134 6 100014710.97543  24424616.891    24424622.1054
        38.600          20.6004
 20  9  1  1 53 30.0000000  0 11G22G26G01G31G32G16G25G11G03G04G21
 110121057.779 7  85808627.16346  20955337.633    20955338.6644
        46.100          38.8004
 120516091.905 6  93908665.40844  22933439.734    22933447.4104
        39.700          26.2004
 112720312.976 7  87834041.01246  21449961.820    21449969.1414
        47.800          37.9004
 109355042.595 7  85211740.26446  20809570.602    20809573.6454
        46.900          38.4004
 123018482.786 7  95858579.94344  23409640.336    23409646.5084
        43.500          26.0004
 132276248.450 5                  25171332.609
        32.400
 130527370.726 6 101709656.89845  24838528.977    24838535.2424
        39.400          30.9004
 124938784.769 6  97354908.93443  23775063.805    23775068.2424
        40.500          21.8004
 114205283.771 7  88991169.36346  21732536.469    21732542.1564
        46.800          36.9004
 122140718.215 7  95174632.93844  23242600.047    23242605.6454
        42.000          27.2004
 128449482.735 6 100090518.64943  24443129.938    24443135.1884
        38.600          21.5004
 20  9  1  1 54  0.0000000  0 11G22G26G01G31G32G16G25G11G03G04G21
 110082352.380 7  85778467.11446  20947972.234    20947973.2664
        47.200          39.1004
 120440372.383 6  93849663.20544  22919030.758    22919038.4454
        40.500          26.4004
 112762916.316 7  87867238.40746  21458068.969    21458076.2734
        47.600          38.6004
 109408951.096 7  85253746.88946  20819829.055    20819832.1374
        47.000          39.0004
 123088261.681 7  95912953.08244  23422918.828    23422924.9844
        43.000          25.9004
 132178034.492 5 102995898.12342  25152642.758    25152650.2584
        34.600          15.6004
 130572257.992 6 101744633.99345  24847070.734    24847076.9534
        38.800          30.7004
 125027412.272 6  97423969.29343  23791929.086    23791933.6094
        40.500          21.5004
 114132926.935 7  88934787.41946  21718767.406    21718773.0944
        47.500          36.9004
 122076488.177 7  95124583.59044  23230377.438    23230382.9614
        42.300          26.6004
 128546752.334 6 100166313.07443  24461639.719    24461645.0664
        38.600          21.1004
 20  9  1  1 54 30.0000000  0 11G22G26G01G31G32G16G25G11G03G04G21
 110043995.868 7  85748578.92546  20940673.227    20940674.2624
        47.100          39.1004
 120364899.487 6  93790853.20544  22904668.695    22904676.4264
        40.000          26.6004
 112806054.550 8  87900852.60746  21466277.914    21466285.1954
        48.600          38.0004
 109463350.329 7  85296135.90746  20830180.883    20830183.9734
        47.200          39.2004
 123158070.313 7  95967349.40244  23436202.945    23436209.1604
        43.100          26.2004
 132079655.562 5 102919239.39042  25133921.570    25133928.4224
        33.000          16.3004
 130617656.380 6 101780009.33245  24855709.758    24855715.8874
        40.400          31.9004
 125116114.794 6  97493088.10443  23808808.625    23808813.0984
        39.800          20.1004
 114060790.485 7  88878577.21146  21705040.289    21705045.9844
        47.500          36.3004
 122012387.920 7  95074635.36344  23218179.516    23218185.0084
        42.600          27.8004
 128644002.087 6 100242092.02043  24480145.820    24480151.0554
        38.100          21.3004
 20  9  1  1 55  0.0000000  0 11G22G26G01G31G32G16G25G11G03G04G21
 110005989.847 7  85718963.85046  20933440.914    20933441.9574
        47.000          39.2004
 120289676.585 6  93732237.99844  22890354.195    22890361.9184
        39.000          26.6004
 112849725.936 7  87934882.24846  21474588.305    21474595.5594
        47.300          37.7004
 109518237.880 7  85338905.43046  20840625.633    20840628.7584
        47.800          38.4004
 123227908.724 7  96021768.93544  23449492.750    23449499.0274
        42.900          25.3004
 131981114.893 5 102842454.53042  25115169.469    25115176.2584
        32.600          15.6004
 130663564.837 6 101815782.18945  24864445.836    24864452.0514
        39.500          32.7004
 125204888.830 6  97562262.63143  23825701.766    23825706.2584
        39.200          21.1004
 113988876.701 7  88822540.50946  21691355.531    21691361.2504
        47.200          36.7004
 121948417.479 7  95024788.31544  23206006.305    23206011.8164
        42.200          27.7004
 128741229.224 6 100317853.32143  24498647.609    24498652.7894
        38.400          21.8004
 20  9  1  1 55 30.0000000  0 11G22G26G01G31G32G16G25G11G03G04G21
 109968336.694 7  85689623.73646  20926275.750    20926276.7894
        47.500          39.3004
 120214707.026 6  93673820.18544  22876087.906    22876095.5664
        39.400          26.7004
 112893928.703 8  87969325.95446  21482999.820    21483007.0594
        48.400          37.5004
 109573611.430 7  85382053.65946  20851162.875    20851166.0394
        47.200          38.4004
 123297776.935 7  96076211.69644  23462788.227    23462794.4654
        43.900          24.7004
 131882414.531 5 102765545.24642  25096387.094    25096393.9184
        33.100          12.6004
 130709982.425 6 101851951.75445  24873278.813    24873285.1804
        41.600          34.4004
 125293731.655 6  97631490.73643  23842607.992    23842612.5394
        40.400          20.4004
 113917187.966 7  88766679.16146  21677713.609    21677719.3794
        46.500          36.8004
 121884576.914 6  94975042.45044  23193857.813    23193863.3054
        41.600          28.3004
 128838431.659 6 100393595.43243  24517144.586    24517149.8594
        39.200          20.6004
 20  9  1  1 56  0.0000000  0 11G22G26G01G31G32G16G25G11G03G04G21
 109931037.906 7  85660559.75246  20919178.031    20919179.0664
        47.100          39.0004
 120139993.617 6  93615601.99844  22861870.367    22861878.0594
        40.400          27.1004
 112938660.622 7  88004181.98446  21491512.039    21491519.2664
        47.800          38.3004
 109629468.611 7  85425578.73746  20861792.148    20861795.2894
        47.300          38.7004
 123367674.434 7  96130677.29843  23476089.281    23476095.4844
        43.800          22.9004
                                  25077574.227
        29.100          13.9004
 130756907.540 7 101888516.78545  24882208.375    24882214.8244
        42.000          32.4004
 125382639.874 6  97700769.84543  23859526.688    23859531.2664
        38.800          20.4004
 113845726.149 7  88710994.64046  21664114.859    21664120.6844
        46.900          37.4004
 121820865.731 6  94925397.40044  23181733.945    23181739.4494
        41.600          27.9004
 128935606.712 6 100469316.17443  24535636.531    24535641.7384
        38.600          21.3004
 20  9  1  1 56 30.0000000  0 11G22G26G01G31G32G16G25G11G03G04G21
 109894095.235 7  85631773.25846  20912148.063    20912149.0984
        46.900          39.4004
 120065539.493 6  93557585.84344  22847702.180    22847709.9224
        39.800          27.7004
 112983919.630 7  88039448.73146  21500124.547    21500131.7704
        46.800          38.2004
 109685806.989 7  85469478.77946  20872512.992    20872516.0904
        47.100          39.4004
 123437601.084 7  96185165.62343  23489395.875    23489402.0594
        43.500          22.5004
 131684544.934 5 102611361.28842  25058732.000    25058740.2304
        31.600          15.6004
 130804338.883 6 101925476.27445  24891234.258    24891240.8404
        39.800          32.3004
 125471610.427 6  97770097.49443  23876457.250    23876461.9264
        38.700          20.1004
 113774493.322 7  88655488.55546  21650559.695    21650565.5434
        46.800          37.1004
 121757283.720 6  94875853.01144  23169634.664    23169640.1484
        41.600          27.9004
 129032752.390 6 100545014.04143  24554122.828    24554128.0004
        38.800          19.3004
 20  9  1  1 57  0.0000000  0 11G22G26G01G31G32G16G25G11G03G04G21
 109857509.840 7  85603265.16646  20905186.094    20905187.1334
        47.300          39.2004
 119991347.528 6  93499773.98144  22833583.883    22833591.6094
        39.500          27.6004
 113029703.471 7  88075124.43946  21508836.938    21508844.1374
        47.300          38.1004
 109742623.710 7  85513751.54746  20883324.859    20883327.9494
        47.000          38.1004
 123507556.446 7  96239676.30643  23502707.930    23502714.0744
        43.100          23.5004
 131585380.832 5 102534090.72242  25039861.758    25039869.2814
        32.900          16.9004
 130852274.926 6 101962829.05245  24900356.172    24900362.9384
        39.500          30.4004
 125560640.114 6  97839471.23343  23893399.047    23893403.7464
        38.800          19.3004
 113703491.416 7  88600162.41046  21637048.469    21637054.3594
        46.600          37.4004
 121693830.543 6  94826409.02444  23157559.898    23157565.4304
        41.500          28.3004
 129129865.354 6 100620686.40443  24572602.953    24572608.0314
        38.100          19.6004
 20  9  1  1 57 30.0000000  0 11G22G26G01G31G32G16G25G11G03G04G21
 109821284.507 7  85575037.64346  20898292.633    20898293.6644
        46.600          39.7004
 119917421.391 6  93442169.25444  22819516.188    22819523.9344
        40.900          27.5004
 113076010.632 7  88111207.93746  21517648.906    21517656.0904
        46.600          38.6004
 109799916.678 7  85558395.42446  20894227.344    20894230.4064
        46.800          38.9004
 123577540.863 7  96294209.64443  23516025.500    23516031.5314
        42.200          22.3004
 131486067.982 5 102456704.11242  25020963.313    25020970.7154
        32.800          15.6004
 130900714.904 6 102000574.51944  24909574.000    24909580.8834
        37.800          28.1004
 125649725.928 6  97908888.71043  23910351.531    23910356.2034
        38.600          20.4004
 113632723.115 7  88545018.29546  21623581.695    21623587.6294
        47.800          37.6004
 121630506.450 6  94777065.61444  23145509.711    23145515.2544
        41.400          28.5004
 129226943.614 6 100696331.73243  24591076.336    24591081.5084
        39.900          19.3004
 20  9  1  1 58  0.0000000  0 11G22G26G01G31G32G16G25G11G03G04G21
 109785420.762 7  85547091.87446  20891467.992    20891469.0124
        47.200          39.2004
 119843764.029 6  93384773.97744  22805499.625    22805507.3324
        40.800          26.2004
 113122838.863 7  88147697.45446  21526560.023    21526567.1994
        46.600          37.5004
 109857683.672 7  85603408.66546  20905220.047    20905223.0554
        46.900          38.7004
 123647554.098 6  96348765.41943  23529348.563    23529354.5164
        41.600          22.9004
 131386608.894 5 102379203.55342  25002036.797    25002044.2934
        33.000          14.8004
 130949657.303 6 102038711.49944  24918887.422    24918894.3324
        38.500          27.2004
 125738864.792 6  97978347.50043  23927314.094    23927318.7424
        38.300          18.6004
 113562190.368 7  88490057.72546  21610159.758    21610165.7114
        47.300          37.3004
 121567311.174 6  94727822.55144  23133484.031    23133489.5944
        39.900          28.5004
 129323985.000 6 100771948.35343  24609542.742    24609547.9614
        39.900          19.6004
 20  9  1  1 58 30.0000000  0 11G22G26G01G31G32G16G25G11G03G04G21
 109749919.559 7  85519428.61246  20884712.336    20884713.3484
        47.600          39.4004
 119770378.391 6  93327590.40444  22791534.758    22791542.5044
        40.500          27.8004
 113170185.948 7  88184591.28046  21535569.883    21535577.0474
        46.600          37.1004
 109915921.989 7  85648789.17546  20916302.430    20916305.4184
        46.500          38.2004
 123717595.734 7  96403343.32343  23542677.023    23542683.0314
        42.600          22.3004
 131287005.989 5 102301591.00942  24983083.406    24983090.5634
        35.000          15.6004
 130999100.610 6 102077238.77844  24928296.172    24928303.1294
        37.500          25.2004
 125828053.365 6  98047845.08443  23944286.133    23944290.7504
        38.900          19.3004
 113491895.188 7  88435282.27546  21596783.016    21596788.9654
        46.900          37.9004
 121504244.347 6  94678679.61744  23121482.805    23121488.3594
        41.100          29.3004
 129420986.664 6 100847534.01743  24628001.656    24628006.8874
        39.500          19.0004
 20  9  1  1 59  0.0000000  0 11G22G26G01G31G32G16G25G11G03G04G21
 109714783.062 7  85492049.53646  20878026.086    20878027.0744
        47.300          39.4004
 119697267.446 6  93270620.88444  22777622.180    22777629.9454
        41.600          28.1004
 113218049.577 7  88221887.60146  21544678.031    21544685.2034
        47.500          37.4004
 109974628.527 7  85694534.53446  20927473.914    20927476.8674
        47.300          38.4004
 123787665.498 7  96457943.15043  23556010.836    23556016.8164
        42.700          22.3004
 131187262.183 5 102223868.59242  24964103.086    24964109.9964
        34.400          16.3004
 131049043.240 5 102116155.13544  24937799.945    24937806.9964
        35.000          25.6004
 125917288.547 6  98117378.94643  23961267.047    23961271.6294
        39.100          19.3004
 113421839.558 7  88380693.49346  21583451.867    21583457.7974
        47.200          37.5004
 121441305.616 6  94629636.47844  23109505.953    23109511.5394
        40.400          27.7004
 129517946.568 6 100923087.13243  24646452.563    24646457.7584
        39.000          18.6004
 20  9  1  1 59 30.0000000  0 11G22G26G01G31G32G16G25G11G03G04G21
 109680013.470 7  85464956.35846  20871409.641    20871410.6054
        47.600          39.6004
 119624434.802 6  93213868.22444  22763762.563    22763770.1724
        41.600          27.9004
 113266428.177 7  88259585.20246  21553884.172    21553891.3524
        47.000          37.7004
 110033801.761 7  85740643.55746  20938734.195    20938737.1294
        47.200          38.3004
 123857763.780 7  96512565.21343  23569350.086    23569356.0354
        43.300          22.6004
 131087380.314 5 102146038.60042  24945096.336    24945102.9964
        33.900          15.6004
 131099484.334 5 102155459.89443  24947398.531    24947405.6884
        34.200          22.2004
 126006567.824 6  98186947.14343  23978256.328    23978260.9384
        38.400          18.3004
 113352026.216 7  88326293.50346  21570166.820    21570172.7584
        47.900          37.7004
 121378495.359 6  94580693.45644  23097553.555    23097559.1844
        41.300          28.2004
 129614861.856 6 100998605.49243  24664894.945    24664900.1884
        38.000          18.6004
 20  9  1  2  0  0.0000000  0 11G22G26G01G31G32G16G25G11G03G04G21
 109645612.228 7  85438150.19846  20864863.297    20864864.2544
        47.400          39.4004
 119551883.328 6  93157334.66244  22749956.461    22749963.9454
        41.800          28.3004
 113315319.338 7  88297682.20046  21563187.852    21563195.0514
        46.800          37.1004
 110093438.832 7  85787114.00746  20950082.750    20950085.6804
        47.500          37.3004
 123927890.176 7  96567209.13844  23582694.695    23582700.6094
        43.000          25.4004
 130987363.001 5 102068103.23442  24926063.836    24926070.1174
        33.900          16.3004
 131150422.208 5 102195151.77843  24957091.680    24957099.0394
        33.200          19.9004
 126095887.668 6  98256547.00942  23995253.328    23995258.0084
        38.300          17.8004
 113282457.060 7  88272083.79046  21556928.242    21556934.1884
        47.900          38.3004
 121315813.144 6  94531850.20244  23085625.508    23085631.1564
        40.800          28.4004
 129711730.044 6 101074087.14243  24683328.383    24683333.6724
        39.500          19.6004
 20  9  1  2  0 30.0000000  0 11G22G26G01G31G32G16G25G11G03G04G21
 109611581.018 7  85411632.38145  20858387.375    20858388.3524
        47.900          32.4004
 119479615.969 7  93101022.49543  22736204.406    22736211.8524
        42.000          20.9004
 113364720.812 7  88336176.83844  21572588.641    21572595.8714
        47.000          28.9004
 110153537.293 8  85833943.98144  20961519.109    20961522.0164
        48.400          29.8004
 123998044.501 7  96621874.85242  23596044.617    23596050.5164
        42.900          16.9004
 130887213.039 5                  24907006.109
        35.600
 131201855.399 5 102235229.55142  24966879.078    24966886.3674
        30.700          13.9004
 126185245.033 6  98326176.04542  24012257.469    24012262.1484
        38.100          13.9004
 113213134.151 7  88218065.95745  21543736.523    21543742.4694
        47.300          30.8004
 121253258.695 6  94483106.51443  23073721.781    23073727.4304
        40.900          21.7004
 129808549.095 6 101149530.48042  24701752.344    24701757.7544
        38.300          14.8004
 20  9  1  2  1  0.0000000  0 11G22G26G01G31G32G16G25G11G03G04G21
 109577921.573 7  85385404.24946  20851982.188    20851983.1954
        47.000          39.9004
 119407635.956 6  93044934.20044  22722507.047    22722514.4574
        40.600          28.2004
 113414630.486 7  88375067.48046  21582086.133    21582093.3754
        46.900          36.8004
 110214094.324 7  85881131.28246  20973042.727    20973045.5944
        47.500          37.2004
 124068226.688 7  96676562.28943  23609399.844    23609405.8014
        42.300          22.2004
 130786933.109 6                  24887923.672
        36.100
 131253782.486 4                  24976760.383
        28.900
 126274637.290 6  98395832.34843  24029268.320    24029272.8634
        37.500          18.3004
 113144059.734 7  88164241.74846  21530592.094    21530598.0354
        47.300          38.6004
 121190831.895 6  94434462.29444  23061842.352    23061847.9574
        41.200          28.1004
 129905316.587 6 101224933.61343  24720166.672    24720171.9454
        41.600          19.6004
 20  9  1  2  1 30.0000000  0 11G22G26G01G31G32G16G25G11G03G04G21
 109544634.874 7  85359466.56946  20845647.938    20845648.9454
        47.200          40.1004
 119335945.879 6  92989071.86244  22708864.859    22708872.3054
        41.400          29.4004
 113465045.677 7  88414352.02846  21591679.820    21591687.0904
        46.800          37.2004
 110275106.985 7  85928673.62246  20984653.047    20984655.8674
        47.000          37.3004
 124138436.148 6  96731270.94443  23622760.273    23622766.2704
        41.900          22.3004
 130686525.649 6 101833661.86942  24868816.836    24868820.7384
        36.300          15.6004
 131306201.446 5 102316530.25243  24986735.359    24986742.5084
        30.100          19.9004
 126364060.553 6  98465512.75243  24046285.047    24046289.5234
        38.100          19.3004
 113075235.498 7  88110612.48746  21517495.266    21517501.2034
        47.500          38.0004
 121128532.079 6  94385917.02144  23049987.070    23049992.6604
        41.100          28.5004
 130002029.427 7 101300294.14943  24738570.578    24738575.7504
        42.000          19.9004
 20  9  1  2  2  0.0000000  0 11G22G26G01G31G32G16G25G11G03G04G21
 109511723.894 7  85333821.66046  20839385.180    20839386.1954
        47.700          40.1004
 119264549.624 6  92933438.46744  22695278.602    22695286.0314
        40.800          28.5004
 113515964.967 7  88454029.37746  21601369.438    21601376.7074
        47.000          36.2004
 110336573.625 7  85976569.70546  20996349.750    20996352.5434
        47.500          37.9004
 124208673.554 6  96786001.37743  23636126.008    23636131.9614
        41.800          22.0004
 130585994.004 6 101755325.61642  24849686.313    24849690.0234
        36.800          16.3004
                                  24996803.852
        26.400          16.9004
 126453512.423 6  98535215.47543  24063307.250    24063311.7154
        37.500          18.3004
 113006664.477 7  88057180.53046  21504446.625    21504452.5394
        47.600          38.1004
 121066359.909 7  94337471.19744  23038156.086    23038161.6524
        42.300          28.0004
 130098685.916 6 101375610.87543  24756963.789    24756969.0234
        41.100          21.1004
 20  9  1  2  2 30.0000000  0 10G22G26G01G31G32G16G11G03G04G21
 109479189.907 7  85308470.51146  20833194.164    20833195.1724
        47.300          40.2004
 119193450.039 7  92878036.22644  22681748.789    22681756.2304
        42.300          29.4004
 113567385.901 7  88494097.62346  21611154.516    21611161.7894
        47.000          36.6004
 110398491.581 7  86024817.46946  21008132.344    21008135.1564
        47.300          38.1004
 124278938.572 6  96840753.34343  23649497.000    23649502.9734
        40.700          21.5004
 130485340.572 5 101676894.41742  24830532.680    24830536.2234
        34.600          16.3004
 126542989.751 6  98604938.07343  24080334.328    24080338.7974
        37.300          19.6004
 112938348.612 8  88003947.40246  21491446.531    21491452.4384
        48.000          37.5004
 121004314.930 6  94289124.50544  23026349.297    23026354.8524
        41.300          29.3004
 130195283.759 6 101450881.84543  24775345.773    24775351.0434
        41.400          19.6004
 20  9  1  2  3  0.0000000  0 10G22G26G01G31G32G16G11G03G04G21
 109447034.120 7  85283414.05346  20827075.125    20827076.1254
        47.200          40.5004
 119122649.815 7  92822867.24944  22668275.945    22668283.4494
        43.400          29.7004
 113619305.846 7  88534554.70646  21621034.555    21621041.8324
        46.700          36.6004
 110460857.992 7  86073414.67446  21020000.266    21020003.1054
        47.400          38.1004
 124349230.765 6  96895526.45643  23662873.164    23662879.1644
        41.300          21.1004
 130384568.185 5 101598370.53642  24811356.359    24811359.8094
        35.900          14.8004
 126632489.724 6  98674678.24143  24097365.688    24097370.1374
        37.600          18.3004
 112870289.714 7  87950914.51046  21478495.336    21478501.2424
        47.800          38.1004
 120942396.636 6  94240876.50444  23014566.609    23014572.1414
        41.800          28.0004
 130291819.893 6 101526104.76342  24793716.141    24793721.3134
        39.000          17.8004
 20  9  1  2  3 30.0000000  0 10G22G26G01G31G32G16G11G03G04G21
 109415258.745 7  85258654.02346  20821028.469    20821029.4574
        47.500          40.3004
 119052152.464 7  92767934.28544  22654860.727    22654868.2194
        42.100          29.2004
 113671722.932 7  88575399.17846  21631009.195    21631016.4844
        46.900          36.3004
 110523670.532 7  86122359.51246  21031953.086    21031955.9494
        47.000          38.2004
 124419550.404 6  96950320.97643  23676254.555    23676260.4654
        41.300          21.5004
 130283680.010 6 101519756.55742  24792158.141    24792161.3524
        37.300          17.4004
 126722008.803 6  98744433.33443  24114400.664    24114405.0944
        37.500          19.0004
 112802490.390 7  87898083.88046  21465593.539    21465599.4774
        47.500          38.1004
 120880605.241 7  94192727.40744  23002808.078    23002813.6054
        42.200          28.1004
 130388293.024 6 101601278.54543  24812074.406    24812079.5984
        40.300          20.1004
 20  9  1  2  4  0.0000000  0 10G22G26G01G31G32G16G11G03G04G21
 109383865.092 7  85234191.44646  20815054.453    20815055.4414
        47.800          39.9004
 118981960.789 7  92713239.50144  22641503.664    22641511.1174
        42.000          29.3004
 113724634.624 7  88616629.05046  21641077.961    21641085.2504
        46.500          36.9004
 110586926.272 8  86171649.70646  21043990.242    21043993.1644
        48.200          38.2004
 124489897.184 6  97005136.64743  23689641.117    23689647.0164
        41.600          21.7004
 130182678.569 5 101441054.18842  24772938.328    24772941.3794
        35.000          15.6004
 126811543.908 6  98814200.90942  24131438.695    24131443.1054
        37.100          17.8004
 112734952.590 7  87845457.02846  21452741.508    21452747.4774
        47.900          37.5004
 120818940.301 6  94144676.83944  22991073.609    22991079.1214
        41.200          28.9004
 130484699.524 6 101676400.41143  24830419.992    24830425.2624
        37.300          19.0004
 20  9  1  2  4 30.0000000  0 10G22G26G01G31G32G16G11G03G04G21
 109352854.828 7  85210027.61145  20809153.391    20809154.3874
        47.600          33.2004
 118912077.815 7  92658785.27043  22628205.336    22628212.6684
        42.100          21.7004
 113778038.583 7  88658242.50644  21651240.406    21651247.7274
        46.600          29.6004
 110650622.692 7  86221283.28045  21056111.266    21056114.2344
        47.300          30.4004
 124560270.982 7  97059973.33242  23703032.805    23703038.8554
        42.500          16.3004
 130081566.696 6                  24753697.141
        36.400
 126901092.469 6  98883978.95842  24148479.281    24148483.7664
        36.900          15.6004
 112667678.509 7  87793035.66845  21439939.656    21439945.6484
        47.700          31.0004
 120757401.665 7  94096724.70143  22979363.195    22979368.6884
        42.600          22.0004
 130581037.333 6                  24848752.500
        37.900
 20  9  1  2  5  0.0000000  0 10G22G26G01G31G32G16G11G03G04G21
 109322230.272 7  85186164.33246  20803325.719    20803326.7424
        47.200          40.8004
 118842506.985 7  92604574.27644  22614966.438    22614973.6374
        43.200          29.2004
 113831932.860 7  88700238.03446  21661496.164    21661503.5044
        46.300          36.6004
 110714757.653 7  86271258.57946  21068315.734    21068318.6454
        47.700          38.2004
 124630672.061 7  97114831.36143  23716429.695    23716435.8484
        42.000          22.5004
 129980347.594 6                  24734435.727
        36.700
 126990651.602 6  98953765.23043  24165521.797    24165526.6334
        36.000          19.0004
 112600670.689 7  87740821.80246  21427188.469    21427194.5004
        47.500          37.8004
 120695989.492 7  94048871.07544  22967676.836    22967682.2774
        42.100          29.4004
 130677304.611 6 101826501.15043  24867071.672    24867078.2274
        37.500          18.3004
 20  9  1  2  5 30.0000000  0  9G22G26G01G31G32G16G11G03G04
 109291992.554 7  85162602.47346  20797571.672    20797572.7194
        47.200          40.4004
 118773250.881 7  92550608.52244  22601787.422    22601794.6214
        42.600          29.8004
 113886314.664 7  88742613.45146  21671844.688    21671852.0234
        46.500          36.4004
 110779328.090 8  86321573.21346  21080603.078    21080605.9844
        48.200          38.3004
 124701099.934 6  97169710.21643  23729831.688    23729837.9064
        41.300          22.5004
 129879023.746 6                  24715154.320
        37.300
 127080217.934 6  99023557.14343  24182565.750    24182570.4064
        36.700          19.0004
 112533930.915 7  87688816.78646  21414488.289    21414494.3284
        47.600          38.2004
 120634703.184 6  94001115.56244  22956014.430    22956019.8444
        41.600          28.3004
 20  9  1  2  6  0.0000000  0  9G22G26G01G31G32G16G11G03G04
 109262143.420 7  85139343.42246  20791891.563    20791892.6174
        47.600          40.2004
 118704312.703 7  92496890.50744  22588668.906    22588676.2074
        42.600          29.7004
 113941181.791 7  88785367.04246  21682285.563    21682292.8794
        45.700          36.6004
 110844331.540 7  86372225.24846  21092972.820    21092975.7544
        47.500          37.8004
 124771554.684 6  97224609.98343  23743238.773    23743245.0704
        40.700          22.5004
 129777598.214 5                  24695853.508
        35.600
 127169788.638 6  99093352.46743  24199610.516    24199615.0664
        37.000          19.3004
 112467461.559 7  87637022.48946  21401839.586    21401845.6174
        47.500          38.5004
 120573542.722 7  93953458.08844  22944375.977    22944381.3054
        42.800          29.0004
 20  9  1  2  6 30.0000000  0  9G22G26G01G31G32G16G11G03G04
 109232683.669 7  85116387.76446  20786285.547    20786286.5944
        47.300          40.2004
 118635695.151 6  92443422.30544  22575611.375    22575618.7344
        40.900          28.9004
 113996531.523 7  88828496.68646  21692818.289    21692825.5984
        46.200          36.2004
 110909764.742 8  86423212.16246  21105424.344    21105427.2504
        48.700          37.9004
 124842035.923 6  97279530.45443  23756650.891    23756657.2344
        41.200          22.3004
 129676073.310 5                  24676533.828
        35.000
 127259359.999 5  99163148.26442  24216655.320    24216659.9494
        35.400          17.4004
 112401264.493 7  87585440.36946  21389242.688    21389248.7194
        47.300          38.1004
 120512507.572 7  93905898.26244  22932761.367    22932766.5984
        42.000          28.9004
 20  9  1  2  7  0.0000000  0  9G22G26G01G31G32G16G11G03G04
 109203615.825 7  85093737.50046  20780754.117    20780755.1414
        46.100          40.0004
 118567401.830 7  92390206.76844  22562615.563    22562622.8954
        42.300          28.5004
 114052362.051 7  88872000.97145  21703442.500    21703449.8244
        45.200          35.7004
 110975626.269 8  86474532.84046  21117957.367    21117960.2774
        48.000          37.6004
 124912544.162 6  97334471.91643  23770068.156    23770074.5864
        41.300          21.7004
 129574452.615 6                  24657195.844
        36.000
 127348930.045 5  99232943.02742  24233699.875    24233704.6484
        34.000          17.4004
 112335342.518 7  87534072.60646  21376698.141    21376704.1524
        47.800          38.8004
 120451598.171 6  93858436.43144  22921170.688    22921175.8164
        41.400          28.8004
 20  9  1  2  7 30.0000000  0  9G22G26G01G31G32G16G11G03G04
 109174941.831 7  85071394.13146  20775297.625    20775298.6414
        47.000          40.8004
 118499435.726 7  92337246.20644  22549682.016    22549689.2344
        42.900          29.5004
 114108670.958 7  88915878.02546  21714157.742    21714165.0664
        45.500          36.3004
 111041912.915 8  86526184.77446  21130571.289    21130574.2344
        48.200          37.9004
 124983079.296 6  97389434.33843  23783490.539    23783496.9964
        40.200          21.7004
 129472738.884 5                  24637840.102
        33.200
 127438495.970 5  99302734.62243  24250743.578    24250748.4694
        34.800          19.9004
 112269697.810 7  87482920.89946  21364206.359    21364212.3484
        47.500          38.6004
 120390814.306 6  93811072.40844  22909603.891    22909608.9104
        41.600          29.8004
 20  9  1  2  8  0.0000000  0  9G22G26G01G31G32G16G11G03G04
 109146663.468 7  85049359.04946  20769916.430    20769917.4184
        46.600          40.9004
 118431799.798 7  92284542.92844  22536811.305    22536818.4064
        43.000          29.3004
 114165455.733 7  88960125.88246  21724963.531    21724970.8634
        45.000          36.2004
 111108622.312 7  86578166.12246  21143265.648    21143268.5594
        47.700          37.1004
 125053641.254 6  97444417.69843  23796918.031    23796924.4734
        39.900          22.5004
 129370935.046 5                  24618467.227
        34.000
 127528054.790 5  99372520.65843  24267786.086    24267790.9344
        33.400          19.0004
 112204332.538 7  87431986.93446  21351767.750    21351773.6844
        47.400          38.8004
 120330155.743 6  93763806.03844  22898060.938    22898065.8444
        41.400          28.7004
 20  9  1  2  8 30.0000000  0  9G22G26G01G31G32G16G11G03G04
 109118781.519 7  85027632.84846  20764610.672    20764611.6414
        47.300          40.4004
 118364496.650 6  92232098.95444  22524003.906    22524010.9534
        41.800          29.6004
 114222713.538 7  89004742.34345  21735859.352    21735866.6954
        44.000          35.9004
 111175751.265 8  86630474.39646  21156039.859    21156042.7464
        48.000          37.6004
 125124229.607 6  97499421.61843  23810350.555    23810356.9534
        40.700          22.8004
 129269043.619 5                  24599077.742
        32.800
 127617602.721 5  99442298.21342  24284826.453    24284831.6954
        34.400          17.8004
 112139248.532 7  87381272.13646  21339382.680    21339388.5784
        47.500          39.0004
 120269621.922 6  93716636.85544  22886541.711    22886546.4774
        41.400          29.2004
 20  9  1  2  9  0.0000000  0  9G22G26G01G31G32G16G11G03G04
 109091297.521 7  85006216.74746  20759380.641    20759381.5944
        47.800          41.3004
 118297529.338 6  92179916.66045  22511260.398    22511267.5274
        39.900          30.0004
 114280441.950 7  89049725.50046  21746844.719    21746852.0634
        44.500          36.1004
 111243297.151 8  86683107.56546  21168893.414    21168896.2814
        48.000          37.9004
 125194844.291 6  97554446.03443  23823788.086    23823794.4884
        39.900          22.8004
 129167068.012 5                  24579672.211
        33.000
 127707136.966 5  99512065.12343  24301864.234    24301869.6994
        34.600          19.0004
 112074448.048 7  87330778.26246  21327051.547    21327057.4384
        47.400          39.2004
 120209212.712 7  93669564.77444  22875046.188    22875050.8134
        42.400          28.9004
 20  9  1  2  9 30.0000000  0  9G22G26G01G31G32G16G11G03G04
 109064213.544 7  84985112.35446  20754226.734    20754227.6884
        47.500          40.8004
 118230901.086 7  92127998.56944  22498581.422    22498588.6134
        42.300          29.1004
 114338638.791 7  89095073.67046  21757919.219    21757926.5744
        44.900          36.5004
 111311257.740 7  86736063.87446  21181825.883    21181828.7424
        47.800          37.9004
 125265485.608 6  97609491.23943  23837230.688    23837237.1094
        40.300          21.8004
 129065010.810 5                  24560251.039
        32.500
 127796654.988 5  99581819.33543  24318898.977    24318904.4384
        35.400          19.0004
 112009933.608 7  87280507.28346  21314774.859    21314780.7424
        47.400          38.6004
 120148928.203 7  93622589.85844  22863574.398    22863578.9454
        42.600          29.3004
 20  9  1  2 10  0.0000000  0  9G22G26G01G31G32G16G11G03G04
 109037531.107 7  84964320.84946  20749149.234    20749150.1844
        47.800          40.9004
 118164614.908 6  92076347.03644  22485967.555    22485974.7854
        40.900          29.6004
 114397301.599 7  89140784.93145  21769082.391    21769089.7464
        45.200          35.5004
 111379630.475 8  86789341.33246  21194836.773    21194839.6804
        48.300          38.3004
 125336153.593 6  97664557.19543  23850678.352    23850684.7424
        39.100          22.6004
 128962875.122 5                  24540815.180
        32.900
 127886153.791 6  99651558.61242  24335930.133    24335935.4804
        36.100          17.4004
 111945707.489 7  87230460.97346  21302553.031    21302558.8914
        47.000          39.4004
 120088768.321 7  93575712.06544  22852126.328    22852130.8164
        43.100          29.4004
 20  9  1  2 10 30.0000000  0  9G22G26G01G31G32G16G11G03G04
 109011251.761 8  84943843.44346  20744148.438    20744149.3914
        48.800          41.4004
 118098673.618 7  92024964.24544  22473419.305    22473426.5664
        42.800          29.6004
 114456427.634 7  89186857.14846  21780333.711    21780341.0664
        45.800          36.1004
 111448412.235 8  86842937.51246  21207925.508    21207928.4024
        48.500          37.9004
 125406847.952 6  97719643.70343  23864131.047    23864137.4454
        40.400          22.2004
 128860663.749 5                  24521364.719
        31.800
 127975630.377 6  99721280.54943  24352957.000    24352962.2894
        36.800          19.6004
 111881771.668 8  87180640.87546  21290386.445    21290392.2704
        48.000          39.2004
 120028732.619 6  93528931.02944  22840701.883    22840706.3874
        41.700          29.0004
 20  9  1  2 11  0.0000000  0  9G22G26G01G31G32G16G11G03G04
 108985376.619 8  84923680.99546  20739224.563    20739225.5274
        48.400          40.7004
 118033079.934 7  91973852.31244  22460937.203    22460944.4494
        42.300          28.6004
 114516014.194 7  89233288.21746  21791672.680    21791680.0274
        46.200          36.5004
 111517600.262 8  86896850.26746  21221091.555    21221094.4454
        48.000          37.7004
 125477568.472 6  97774750.59444  23877588.711    23877595.0664
        41.100          24.2004
 128758379.597 5                  24501900.328
        33.900
 128065081.472 6  99790982.67743  24369979.078    24369984.3364
        38.300          19.6004
 111818128.195 7  87131048.57446  21278275.484    21278281.2704
        47.900          38.7004
 119968820.748 7  93482246.49344  22829301.000    22829305.5354
        42.600          29.2004
 20  9  1  2 11 30.0000000  0  9G22G26G01G31G32G16G11G03G04
 108959908.295 8  84903835.55946  20734378.102    20734379.0864
        48.000          41.3004
 117967837.386 6  91923014.00444  22448521.914    22448529.1684
        41.300          29.4004
 114576059.258 7  89280076.56846  21803098.891    21803106.2464
        45.500          36.1004
 111587192.409 8  86951077.90946  21234334.492    21234337.4104
        48.200          37.7004
 125548315.650 6  97829878.26844  23891051.445    23891057.8164
        39.900          26.2004
 128656026.263 5                  24482423.172
        33.900
 128154504.809 6  99860663.12943  24386995.828    24387001.1024
        38.000          21.3004
 111754779.811 7  87081686.21146  21266220.688    21266226.4384
        46.800          39.2004
 119909033.102 7  93435658.73844  22817923.758    22817928.3984
        43.000          29.1004
 20  9  1  2 12  0.0000000  0  9G22G26G01G31G32G16G11G03G04
 108934847.130 8  84884307.38846  20729609.125    20729610.1134
        48.500          41.1004
 117902948.268 6  91872451.08544  22436173.914    22436181.1684
        40.800          29.7004
 114636559.652 7  89327219.71146  21814611.750    21814619.1254
        45.600          36.1004
 111657185.449 8  87005617.94046  21247653.719    21247656.6094
        48.500          37.2004
 125619088.880 6  97885026.25544  23904519.148    23904525.5274
        41.000          24.0004
 128553606.036 5                  24462933.047
        31.200
 128243897.009 6  99930319.34643  24404006.719    24404011.8954
        37.500          21.1004
 111691728.135 7  87032555.04846  21254222.344    21254228.0704
        46.100          39.2004
 119849368.856 7  93389167.14545  22806569.984    22806574.7274
        42.500          30.2004
 20  9  1  2 12 30.0000000  0  9G22G26G01G31G32G16G11G03G04
 108910194.903 8  84865097.86846  20724917.969    20724918.9614
        48.700          41.3004
 117838415.611 7  91822165.94645  22423893.742    22423900.9844
        42.500          30.2004
 114697512.918 7  89374715.74045  21826210.789    21826218.1844
        45.400          35.8004
 111727576.562 8  87060468.16946  21261048.703    21261051.6094
        49.000          37.9004
 125689888.244 6  97940194.57144  23917991.828    23917998.1684
        41.700          26.2004
 128451121.890 5 100091791.87242  24443430.977    24443438.3714
        34.000          14.8004
 128333255.176 6  99999949.06343  24421011.125    24421016.2194
        38.300          20.9004
 111628975.500 7  86983656.90946  21242280.906    21242286.6414
        46.300          39.2004
 119789827.981 6  93342771.68145  22795239.719    22795244.5944
        41.600          30.2004
 20  9  1  2 13  0.0000000  0  9G22G26G01G31G32G16G11G03G04
 108885953.010 8  84846208.08646  20720304.898    20720305.8714
        48.700          41.5004
 117774242.232 7  91772160.76345  22411681.914    22411689.1604
        42.800          30.1004
 114758916.314 7  89422562.52345  21837895.484    21837902.8754
        44.700          35.6004
 111798363.165 8  87115626.56446  21274518.953    21274521.8404
        48.800          37.8004
 125760713.557 6  97995383.17243  23931469.469    23931475.8244
        40.000          23.0004
 128348576.729 5 100011886.60742  24423917.398    24423924.3984
        34.400          15.6004
 128422576.051 6 100069549.67743  24438008.430    24438013.4104
        38.600          22.0004
 111566523.985 7  86934993.40546  21230396.773    21230402.5274
        47.500          39.5004
 119730410.117 7  93296472.07445  22783932.844    22783937.8484
        43.700          30.3004
 20  9  1  2 13 30.0000000  0  9G22G26G01G31G32G16G11G03G04
 108862124.087 8  84827640.09746  20715770.398    20715771.3594
        48.500          41.8004
 117710431.660 7  91722438.27445  22399539.141    22399546.3554
        42.700          30.5004
 114820767.894 7  89470758.54546  21849665.469    21849672.8594
        45.300          36.0004
 111869543.128 8  87171091.47146  21288064.047    21288066.9304
        48.800          37.3004
 125831565.549 6  98050592.47643  23944952.141    23944958.4884
        39.600          21.5004
 128245974.122 5  99931936.64742  24404392.828    24404399.1294
        34.500          16.9004
 128511857.716 6 100139119.74043  24454998.266    24455003.1254
        39.500          22.0004
 111504376.488 7  86886566.79646  21218570.492    21218576.2344
        47.200          39.7004
 119671115.799 7  93250268.73245  22772649.477    22772654.5704
        44.300          30.4004
 20  9  1  2 14  0.0000000  0  9G22G26G01G31G32G16G11G03G04
 108838709.096 8  84809394.65746  20711314.672    20711315.6294
        48.300          41.8004
 117646986.882 7  91673000.80945  22387465.961    22387473.2074
        42.800          30.2004
 114883065.129 7  89519301.83245  21861520.250    21861527.6174
        44.200          35.7004
 111941113.729 8  87226860.77446  21301683.477    21301686.3674
        49.000          37.4004
 125902444.291 6  98105822.62443  23958439.867    23958446.2734
        36.100          19.6004
 128143317.290 5  99851944.32442  24384857.938    24384864.0314
        33.500          16.9004
 128601097.420 6 100208657.12343  24471980.078    24471984.8324
        38.600          22.0004
 111442535.288 8  86838378.86346  21206802.492    21206808.1884
        48.200          40.0004
 119611944.928 7  93204161.57745  22761389.609    22761394.8134
        43.100          30.2004
 20  9  1  2 14 30.0000000  0  9G22G26G01G31G32G16G11G03G04
 108815709.415 8  84791472.84046  20706937.984    20706938.9264
        48.900          41.6004
 117583910.436 6  91623850.36045  22375462.891    22375470.2034
        41.100          30.6004
 114945805.089 7  89568190.09946  21873459.289    21873466.6254
        45.400          36.1004
 112013072.033 8  87282932.18346  21315376.688    21315379.5474
        49.000          37.9004
 125973349.364 6  98161073.33843  23971932.578    23971939.1374
        36.300          19.0004
 128040608.942 5  99771912.02142  24365313.195    24365319.1054
        34.500          16.9004
 128690291.906 6 100278159.27143  24488953.250    24488958.0004
        39.500          22.0004
 111381002.355 7  86790431.13546  21195093.172    21195098.8554
        46.700          40.1004
 119552897.019 6  93158150.23545  22750153.133    22750158.4104
        41.800          30.4004
 20  9  1  2 15  0.0000000  0  9G22G26G01G31G32G16G11G03G04
 108793127.026 8  84773876.18546  20702640.695    20702641.6214
        49.000          41.8004
 117521205.370 6  91574989.30045  22363530.492    22363537.7854
        40.900          30.4004
 115008985.157 7  89617421.30646  21885482.078    21885489.4104
        45.300          36.1004
 112085415.338 8  87339303.59546  21329143.156    21329146.0314
        48.400          37.2004
 126044280.952 6  98216344.66843  23985430.320    23985437.0164
        37.500          18.3004
 127937852.167 5  99691841.88042  24345759.375    24345765.1214
        35.500          15.6004
 128779438.454 6 100347624.08643  24505917.305    24505921.9844
        39.900          21.8004
 111319779.905 7  86742725.34246  21183442.922    21183448.5944
        47.300          39.6004
 119493971.936 7  93112234.61145  22738940.047    22738945.4024
        42.500          30.4004
 20  9  1  2 15 30.0000000  0  9G22G26G01G31G32G16G11G03G04
 108770962.274 8  84756604.95246  20698422.883    20698423.7894
        48.300          41.4004
 117458873.877 7  91526419.33145  22351669.180    22351676.4654
        42.800          30.7004
 115072602.064 7  89666992.90746  21897587.992    21897595.3484
        45.500          36.0004
 112158140.674 8  87395972.68646  21342982.320    21342985.2274
        48.000          37.1004
 126115238.385 5  98271636.20843  23998933.063    23998939.7814
        35.000          19.0004
 127835049.386 5  99611735.86842  24326196.789    24326202.5204
        34.600          15.6004
 128868533.722 6 100417048.89143  24522871.594    24522876.3094
        39.700          21.3004
 111258869.617 8  86695262.78646  21171852.070    21171857.7504
        48.200          40.0004
 119435168.960 7  93066414.12345  22727750.188    22727755.5704
        42.800          30.4004
 20  9  1  2 16  0.0000000  0  9G22G26G01G31G32G16G11G03G04
 108749217.051 8  84739660.61847  20694284.898    20694285.7974
        48.100          42.1004
 117396919.181 7  91478142.98745  22339879.578    22339886.8164
        43.400          30.4004
 115136653.529 7  89716903.12045  21909776.602    21909783.9884
        45.800          35.9004
 112231245.272 7  87452937.31246  21356893.664    21356896.6094
        47.900          37.9004
 126186222.016 6  98326948.13143  24012440.766    24012447.4384
        38.100          21.3004
 127732204.052 5  99531596.78642  24306626.055    24306631.8404
        35.100          16.9004
 128957575.121 6 100486431.75843  24539815.680    24539820.3754
        39.800          22.8004
 111198274.047 8  86648045.47146  21160321.117    21160326.8054
        48.000          40.2004
 119376488.281 7  93020688.95145  22716583.609    22716588.9694
        42.400          31.3004
 20  9  1  2 16 30.0000000  0  9G22G26G01G31G32G16G11G03G04
 108727893.439 8  84723044.81946  20690227.141    20690228.0354
        48.400          41.3004
 117335344.552 7  91430162.79945  22328162.297    22328169.4614
        42.600          31.1004
 115201137.226 7  89767150.13845  21922047.453    21922054.8714
        46.500          35.5004
 112304727.097 8  87510195.87946  21370876.789    21370879.7544
        48.400          37.3004
 126257232.309 6  98382280.83443  24025953.570    24025960.2344
        38.600          21.7004
 127629319.490 5  99451427.08042  24287047.836    24287053.4774
        35.200          15.6004
 129046559.891 6 100555770.47043  24556748.930    24556753.7074
        39.200          20.1004
 111137995.834 7  86601075.44746  21148850.539    21148856.2424
        46.700          40.4004
 119317930.111 7  92975059.22245  22705440.352    22705445.6954
        42.100          30.3004
 20  9  1  2 17  0.0000000  0  9G22G26G01G31G32G16G11G03G04
 108706992.210 8  84706758.14446  20686249.766    20686250.6524
        48.400          41.3004
 117274152.407 7  91382480.64145  22316517.789    22316524.9264
        43.400          30.6004
 115266050.075 7  89817731.56045  21934399.977    21934407.4064
        46.200          35.6004
 112378582.548 7  87567745.58346  21384931.016    21384934.0004
        47.100          37.6004
 126328268.898 6  98437634.00143  24039471.398    24039478.0204
        40.100          22.9004
 127526398.771 5  99371229.13842  24267462.719    24267468.2194
        35.000          16.9004
 129135485.285 6 100625062.93343  24573670.898    24573675.6844
        39.000          20.6004
 111078036.787 7  86554354.11446  21137440.711    21137446.4264
        46.700          40.1004
 119259493.906 7  92929524.53545  22694320.305    22694325.5664
        43.300          31.6004
 20  9  1  2 17 30.0000000  0  9G22G26G01G31G32G16G11G03G04
 108686515.308 7  84690802.12046  20682353.133    20682354.0204
        47.100          41.1004
 117213345.808 7  91335098.90745  22304946.656    22304953.8284
        42.800          30.4004
 115331389.584 7  89868645.43445  21946833.688    21946841.1254
        44.000          35.5004
 112452809.239 7  87625584.56146  21399055.883    21399058.8714
        45.500          37.7004
 126399332.020 6  98493007.86743  24052994.297    24053000.9144
        40.000          22.8004
 127423444.849 5  99291005.38242  24247871.289    24247876.7074
        35.800          17.4004
 129224348.625 6 100694307.03443  24590581.078    24590585.9104
        39.400          21.5004
 111018399.385 7  86507883.41746  21126092.078    21126097.7934
        45.800          39.5004
 119201179.724 7  92884084.93945  22683223.484    22683228.6454
        42.600          31.7004
 20  9  1  2 18  0.0000000  0  9G22G26G01G31G32G16G11G03G04
 108666464.076 8  84675177.78246  20678537.500    20678538.4024
        49.100          41.4004
 117152927.592 6  91288019.80345  22293449.422    22293456.6174
        41.800          30.9004
 115397152.996 7  89919889.63646  21959348.063    21959355.4734
        45.700          36.0004
 112527404.907 7  87683711.05546  21413250.961    21413253.9574
        47.800          37.7004
 126470421.660 6  98548402.42343  24066522.219    24066528.8364
        39.500          23.3004
 127320460.868 6  99210758.19942  24228274.078    24228279.5704
        36.400          15.6004
 129313147.095 6 100763500.59843  24607478.859    24607483.7194
        38.900          21.5004
 110959085.809 7  86461665.05546  21114805.063    21114810.7814
        47.000          39.8004
 119142987.408 7  92838740.30145  22672149.852    22672154.9064
        42.600          30.9004
 20  9  1  2 18 30.0000000  0  9G22G26G01G31G32G16G11G03G04
 108646839.485 8  84659885.90047  20674803.063    20674803.9884
        48.700          42.1004
 117092900.203 7  91241245.24445  22282026.570    22282033.7704
        43.600          31.5004
 115463337.249 7  89971461.76245  21971942.516    21971949.9304
        46.400          35.2004
 112602366.289 7  87742122.51846  21427515.633    21427518.6214
        47.600          37.7004
 126541537.579 6  98603817.38443  24080055.133    24080061.6884
        38.100          21.7004
 127217449.661 5  99130489.76342  24208671.656    24208677.1254
        35.900          14.8004
 129401877.606 6 100832641.19043  24624363.711    24624368.5704
        37.900          19.9004
 110900097.963 7  86415700.50546  21103580.039    21103585.7774
        46.800          39.5004
 119084916.461 7  92793490.24545  22661099.320    22661104.2934
        43.100          30.9004
 20  9  1  2 19  0.0000000  0  9G22G26G01G31G32G16G11G03G04
 108627643.500 8  84644927.99347  20671150.188    20671151.1374
        50.000          42.5004
 117033266.869 7  91194777.75045  22270678.711    22270685.9104
        43.300          31.2004
 115529940.031 7  90023360.01546  21984616.625    21984624.0434
        46.200          36.0004
 112677690.938 8  87800817.05446  21441849.445    21441852.4184
        48.400          37.1004
 126612680.223 6  98659253.20843  24093593.156    24093599.6994
        39.100          21.7004
 127114414.708 6  99050202.87442  24189064.719    24189069.9734
        36.900          14.8004
 129490537.879 6 100901727.08443  24641235.219    24641240.1994
        38.500          19.0004
 110841438.544 7  86369991.88246  21092417.508    21092423.2544
        47.000          39.5004
 119026967.168 7  92748334.97445  22650071.938    22650076.8244
        43.400          31.0004
