     2.11           OBSERVATION DATA    G (GPS)             RINEX VERSION / TYPE
teqc  2019Feb25     UNAVCO Archive Ops  20200902 03:31:56UTCPGM / RUN BY / DATE
Solaris x86 5.10|AMD64|cc SC5.8 -xarch=amd64|=+|=+          COMMENT
BIT 2 OF LLI FLAGS DATA COLLECTED UNDER A/S CONDITION       COMMENT
WIDC                                                        MARKER NAME
49917M001                                                   MARKER NUMBER
Ken Hudnut          U.S. Geological Survey                  OBSERVER / AGENCY
5250K54799          TRIMBLE NETR9       5.37                REC # / TYPE / VERS
5000115156          TRM57971.00     NONE                    ANT # / TYPE
 -2354850.1700 -4745524.0100  3540693.1000                  APPROX POSITION XYZ
        0.0083        0.0000        0.0000                  ANTENNA: DELTA H/E/N
     1     1                                                WAVELENGTH FACT L1/2
     7    L1    L2    C1    P2    P1    S1    S2            # / TYPES OF OBSERV
    30.0000                                                 INTERVAL
Forced Modulo Decimation to 30 seconds                      COMMENT
input file: widc200901.bnx                                  COMMENT
RINEX file created by UNAVCO GPS Archive.                   COMMENT
For more information contact archive-gps@unavco.org         COMMENT
Monument ID: 19457                                          COMMENT
UNAVCO 4-char name:   WIDC                                  COMMENT
4-char name from Log or data file: WIDC                     COMMENT
Monument location: 33.934757339 -116.391781172 445.0448     COMMENT
Visit ID: 126491                                            COMMENT
doi:10.7283/T56D5R7Z                                        COMMENT
End of DB comments                                          COMMENT
 SNR is mapped to RINEX snr flag value [0-9]                COMMENT
  L1 & L2: min(max(int(snr_dBHz/6), 0), 9)                  COMMENT
  2020     9     1     0     0    0.0000000     GPS         TIME OF FIRST OBS
                                                            END OF HEADER
 20  9  1  0  0  0.0000000  0 11G22G23G01G31G32G20G08G10G21G27G11
 124794997.309 7  97242867.56144  23747698.477    23747701.3874
        43.300          27.8004
 127894929.568 6  99658413.87743  24337595.953    24337602.4184
        37.500          20.6004
 118175052.020 7  92084489.87445  22487964.773    22487973.0164
        43.800          31.0004
 112093018.179 7  87345227.60946  21330592.070    21330596.6214
        47.800          37.2004
 109088547.053 8  85004090.98146  20758860.266    20758867.1174
        50.500          41.5004
 127892174.139 5  99656262.80842  24337071.477    24337077.2774
        35.100          15.6004
 126328270.836 6  98437649.95043  24039470.711    24039479.4064
        39.400          21.5004
 116547240.278 7  90816060.78345  22178202.391    22178209.6764
        47.000          35.3004
 110728500.468 7  86281965.88946  21070933.086    21070937.3634
        47.300          39.0004
 131259222.717 6 102279951.89643  24977799.586    24977808.8484
        39.000          22.6004
 113132091.861 7  88154895.48745  21528321.289    21528325.9304
        47.200          34.5004
 20  9  1  0  0 30.0000000  0 11G22G23G01G31G32G20G08G10G21G27G11
 124719372.448 7  97183939.11744  23733307.516    23733310.4384
        43.200          28.2004
 127970484.947 6  99717288.16343  24351973.555    24351980.0234
        36.100          20.9004
 118094082.303 7  92021396.61745  22472556.727    22472564.8714
        43.400          30.6004
 112016243.371 7  87285403.13246  21315982.273    21315986.8484
        47.600          37.1004
 109131540.682 8  85037592.51047  20767041.672    20767048.5514
        50.300          42.1004
 127975478.300 5  99721175.13142  24352923.695    24352929.5204
        33.500          14.8004
 126396881.363 6  98491112.66344  24052526.852    24052535.5354
        40.100          24.5004
 116596594.595 7  90854518.70445  22187594.227    22187601.5704
        46.400          35.5004
 110768362.004 8  86313026.81746  21078518.492    21078522.7424
        48.000          39.2004
 131346487.781 6 102347950.60043  24994405.617    24994415.0744
        38.200          21.5004
 113127692.364 7  88151467.30145  21527484.063    21527488.7304
        47.500          34.3004
 20  9  1  0  1  0.0000000  0 11G22G23G01G31G32G20G08G10G21G27G11
 124643763.910 7  97125023.39844  23718919.672    23718922.6214
        43.100          27.4004
 128046167.787 6  99776261.73443  24366375.438    24366381.9144
        37.200          21.3004
 118013478.213 7  91958588.25845  22457218.250    22457226.3014
        43.200          30.6004
 111939915.283 7  87225926.74846  21301457.500    21301462.1094
        47.400          38.0004
 109174790.903 8  85071293.98346  20775271.922    20775278.8054
        50.500          41.4004
 128058927.059 5                  24368803.352
        32.000
 126465676.702 6  98544719.36343  24065618.148    24065627.0164
        39.600          22.3004
 116646169.635 8  90893148.59646  22197028.078    22197035.4264
        48.800          36.1004
 110808682.396 7  86344445.30046  21086191.234    21086195.4884
        47.500          39.6004
 131433664.419 6 102415880.38944  25010994.578    25011004.1214
        40.600          24.1004
 113123921.860 7  88148529.24145  21526766.555    21526771.1804
        45.000          33.9004
 20  9  1  0  1 30.0000000  0 11G22G23G01G31G32G20G08G10G21G27G11
 124568171.927 6  97066120.59244  23704534.953    23704537.9734
        41.700          27.6004
 128121977.289 6  99835334.03243  24380801.539    24380807.9924
        37.000          21.1004
 117933241.578 7  91896066.22545  22441949.703    22441957.7384
        43.600          31.9004
 111864035.996 7  87166800.07546  21287018.125    21287022.8204
        47.500          37.3004
 109218295.311 8  85105193.52446  20783550.531    20783557.3984
        50.400          41.2004
 128142519.338 5                  24384710.266
        31.300
 126534652.713 6  98598466.91843  24078743.859    24078752.5984
        39.700          22.3004
 116695965.033 8  90931950.19445  22206503.852    22206511.1134
        49.100          35.7004
 110849460.469 7  86376220.41246  21093951.047    21093955.3164
        47.600          39.5004
 131520748.946 6 102483738.40643  25027566.484    25027576.0474
        38.500          21.5004
 113120779.686 7  88146080.79545  21526168.625    21526173.1954
        46.600          34.5004
 20  9  1  0  2  0.0000000  0 11G22G23G01G31G32G20G08G10G21G27G11
 124492597.042 7  97007231.08844  23690153.484    23690156.5204
        42.400          27.2004
 128197913.280 6  99894504.87844  24395251.750    24395258.2114
        39.600          24.1004
 117853375.004 7  91833832.54445  22426751.578    22426759.6884
        42.700          31.2004
 111788608.263 7  87108025.26646  21272664.672    21272669.3984
        46.300          37.1004
 109262052.141 8  85139289.75846  20791877.180    20791884.0234
        50.500          40.9004
 128226254.604 5                  24400644.555
        31.600
 126603806.685 6  98652353.07943  24091903.391    24091912.2734
        38.600          23.0004
 116745980.975 7  90970923.63946  22216021.586    22216028.8954
        47.900          36.7004
 110890694.975 7  86408351.17846  21101797.727    21101802.0314
        47.900          39.2004
 131607738.810 6 102551522.65143  25044119.789    25044129.6954
        38.100          21.1004
 113118265.326 7  88144121.57145  21525690.180    21525694.6954
        47.300          34.6004
 20  9  1  0  2 30.0000000  0 11G22G23G01G31G32G20G08G10G21G27G11
 124417040.057 6  96948355.55644  23675775.430    23675778.4574
        41.000          28.3004
 128273975.806 6  99953774.36344  24409726.180    24409732.4734
        39.500          25.0004
 117773881.201 7  91771889.34745  22411624.391    22411632.6374
        43.400          31.6004
 111713634.810 7  87049604.44446  21258397.672    21258402.4104
        46.400          37.7004
 109306059.799 8  85173581.43846  20800251.555    20800258.3874
        48.000          41.7004
 128310132.470 5                  24416606.047
        31.600
 126673135.774 6  98706375.70943  24105096.305    24105105.3134
        39.400          23.5004
 116796217.949 7  91010069.30745  22225581.367    22225588.7504
        46.300          34.6004
 110932384.826 7  86440836.75646  21109731.039    21109735.3874
        45.100          38.7004
 131694631.211 6 102619230.96544  25060655.063    25060664.7274
        38.800          24.7004
 113116378.219 7  88142651.09245  21525331.078    21525335.5634
        45.100          33.7004
 20  9  1  0  3  0.0000000  0 11G22G23G01G31G32G20G08G10G21G27G11
 124341502.154 6  96889494.91544  23661401.008    23661404.0514
        40.900          28.8004
 128350165.088 6 100013142.60244  24424224.641    24424230.8834
        40.500          25.5004
 117694763.049 7  91710238.86945  22396568.695    22396577.1214
        44.100          32.9004
 111639118.660 7  86991539.94846  21244217.695    21244222.3954
        45.500          37.4004
 109350316.853 8  85208067.44946  20808673.398    20808680.2274
        49.700          41.4004
 128394153.060 5                  24432594.695
        31.300
 126742637.286 6  98760532.70944  24118321.992    24118330.9184
        40.400          24.4004
 116846676.532 7  91049387.67845  22235183.313    22235190.5554
        44.800          33.7004
 110974530.143 7  86473677.24646  21117751.039    21117755.4224
        46.600          38.6004
 131781423.798 6 102686861.48543  25077171.109    25077180.8244
        37.900          22.3004
 113115118.877 7  88141669.79245  21525091.438    21525095.8794
        45.500          34.0004
 20  9  1  0  3 30.0000000  0 11G22G23G01G31G32G20G08G10G21G27G11
 124265983.652 7  96830649.40344  23647030.273    23647033.3404
        42.600          27.4004
 128426480.710 6 100072609.30544  24438747.180    24438753.4064
        40.400          25.4004
 117616022.915 7  91648882.92945  22381584.945    22381593.5044
        42.800          31.7004
 111565062.463 7  86933833.85646  21230125.242    21230129.8874
        46.700          37.9004
 109394821.372 8  85242746.29146  20817142.320    20817149.1454
        48.400          41.6004
 128478315.195 5                  24448610.367
        33.200
 126812307.565 6  98814821.22544  24131579.820    24131588.8634
        39.800          24.2004
 116897356.777 7  91088878.74545  22244827.430    22244834.8674
        46.400          33.9004
 111017128.995 7  86506871.15546  21125857.336    21125861.7304
        45.400          38.9004
 131868113.603 6 102754411.93543  25093667.469    25093677.2234
        36.600          21.8004
 113114486.399 7  88141176.94645  21524971.070    21524975.5084
        46.600          33.7004
 20  9  1  0  4  0.0000000  0 11G22G23G01G31G32G20G08G10G21G27G11
 124190485.391 6  96771819.63344  23632663.398    23632666.5354
        41.100          27.4004
 128502922.947 6 100132174.63944  24453293.781    24453300.0474
        40.800          26.7004
 117537663.710 7  91587823.82645  22366673.656    22366682.3014
        42.300          32.0004
 111491469.065 7  86876488.38246  21216120.859    21216125.4694
        47.000          38.3004
 109439571.922 8  85277616.85046  20825658.070    20825664.9024
        49.800          41.2004
 128562618.875 5                  24464652.875
        33.000
 126882144.278 6  98869239.41443  24144869.344    24144878.3634
        40.100          22.6004
 116948259.326 7  91128543.05245  22254513.844    22254521.1024
        45.500          32.6004
 111060180.976 7  86540418.15146  21134049.867    21134054.2584
        45.300          38.6004
 131954698.158 6 102821880.36143  25110144.211    25110153.8164
        40.500          22.6004
 113114479.854 7  88141171.83745  21524969.813    21524974.2854
        46.500          34.2004
 20  9  1  0  4 30.0000000  0 12G22G23G01G31G32G20G08G10G21G27G11G03
 124115008.089 7  96713006.19844  23618300.516    23618303.7114
        42.400          27.9004
 128579491.780 6 100191838.66244  24467864.344    24467870.7074
        40.000          25.9004
 117459688.144 7  91527063.65945  22351835.375    22351844.0004
        42.500          30.9004
 111418341.117 7  86819505.58946  21202205.047    21202209.6484
        46.600          37.6004
 109484566.965 8  85312677.92346  20834220.344    20834227.1884
        49.500          40.4004
 128647064.334 5                  24480722.477
        32.900
 126952144.200 6  98923784.79743  24158189.938    24158198.8324
        40.500          23.9004
 116999384.570 7  91168380.90545  22264242.656    22264249.8954
        45.800          34.2004
 111103685.472 7  86574317.75446  21142328.500    21142332.8714
        47.000          38.4004
 132041175.032 6 102889264.88343  25126600.031    25126609.6484
        36.900          22.0004
 113115099.480 7  88141654.65245  21525087.719    21525092.2234
        45.500          33.6004
 132579194.789 5 103308511.50844  25228982.352    25228993.5904
        34.700          24.7004
 20  9  1  0  5  0.0000000  0 12G22G23G01G31G32G20G08G10G21G27G11G03
 124039552.356 6  96654209.57944  23603941.750    23603944.8984
        40.400          28.5004
 128656186.793 6 100251600.99043  24482458.891    24482465.3674
        38.400          22.0004
 117382098.479 7  91466604.20645  22337070.531    22337079.0314
        44.100          31.2004
 111345681.154 7  86762887.46446  21188378.289    21188382.8674
        46.000          38.7004
 109529804.474 8  85347927.92546  20842828.750    20842835.6094
        50.000          41.4004
 128731650.099 5                  24496818.727
        31.000
 127022304.224 6  98978454.90244  24171540.992    24171549.9694
        41.200          25.4004
 117050732.539 7  91208392.27745  22274013.859    22274021.1604
        46.700          33.1004
 111147640.888 7  86608568.71846  21150692.938    21150697.2854
        46.800          38.1004
 132127541.075 6 102956562.99443  25143035.156    25143044.7584
        38.600          23.6004
 113116344.359 7  88142624.66745  21525324.609    21525329.1094
        44.700          34.2004
 132495616.233 6 103243385.43644  25213077.945    25213089.0824
        37.900          28.8004
 20  9  1  0  5 30.0000000  0 12G22G23G01G31G32G20G08G10G21G27G11G03
 123964118.897 6  96595430.30144  23589587.219    23589590.2504
        41.000          27.5004
 128733008.004 6 100311461.64743  24497077.453    24497083.9844
        40.000          22.9004
 117304897.425 7  91406447.57745  22322379.641    22322387.9494
        42.500          30.5004
 111273491.910 7  86706636.13146  21174641.109    21174645.6484
        45.900          38.2004
 109575282.898 8  85383365.65946  20851483.008    20851489.8714
        49.500          41.3004
 128816376.022 4                  24512941.453
        29.600
 127092621.584 6  99033247.59943  24184922.016    24184931.0124
        40.400          22.9004
 117102303.584 7  91248577.53845  22283827.523    22283834.7234
        47.300          34.2004
 111192046.275 7  86643170.31146  21159143.008    21159147.3324
        47.600          37.6004
 132213793.868 6 103023772.95543  25159448.750    25159458.0864
        36.500          22.0004
 113118214.298 7  88144081.76945  21525680.453    21525685.0124
        45.800          34.4004
 132411983.753 6 103178217.37145  25197163.234    25197174.1374
        38.300          31.0004
 20  9  1  0  6  0.0000000  0 12G22G23G01G31G32G20G08G10G21G27G11G03
 123888709.142 7  96536669.52544  23575237.195    23575240.1294
        42.600          27.2004
 128809955.686 6 100371420.85643  24511720.055    24511726.6374
        39.400          22.6004
 117228087.961 7  91346596.07345  22307763.266    22307771.3984
        42.900          32.0004
 111201776.429 7  86650753.97246  21160994.070    21160998.5864
        46.100          38.1004
 109621000.967 8  85418990.12846  20860182.875    20860189.7344
        49.800          41.0004
 128901242.177 4                  24529090.695
        27.600
 127163093.269 6  99088160.61044  24198332.391    24198341.1484
        40.200          24.2004
 117154098.519 7  91288937.19745  22293683.789    22293690.9924
        46.700          35.1004
 111236901.467 7  86678122.39546  21167678.680    21167683.0044
        47.000          38.2004
 132299931.187 6 103090892.79943  25175840.063    25175849.6294
        38.100          19.9004
 113120709.033 7  88146025.71245  21526155.188    21526159.7974
        47.200          34.5004
 132328298.049 6 103113007.79745  25181238.422    25181249.0554
        38.900          30.4004
 20  9  1  0  6 30.0000000  0 12G22G23G01G31G32G20G08G10G21G27G11G03
 123813323.319 6  96477927.35244  23560891.719    23560894.5784
        41.000          26.6004
 128887029.305 6 100431478.19943  24526386.703    24526393.2274
        39.900          23.9004
 117151672.256 7  91287051.40045  22293221.820    22293229.8834
        42.800          31.8004
 111130536.903 7  86595242.67946  21147437.609    21147442.0944
        46.600          38.6004
 109666956.588 8  85454799.69946  20868927.930    20868934.7734
        49.800          40.9004
 128986246.940 4                  24545266.633
        26.800
 127233715.696 6  99143191.01743  24211771.391    24211780.2854
        39.400          23.8004
 117206117.119 7  91329471.18945  22303582.633    22303589.9104
        46.800          35.2004
 111282204.345 7  86713423.33146  21176299.539    21176303.8404
        46.900          37.9004
 132385949.891 6 103157920.31843  25192208.844    25192218.2854
        37.100          21.8004
 113123827.539 7  88148455.70245  21526748.609    21526753.2544
        45.300          34.6004
 132244559.097 6 103047756.73744  25165303.453    25165313.8554
        37.700          27.4004
 20  9  1  0  7  0.0000000  0 11G22G23G01G31G32G08G10G21G27G11G03
 123737962.428 7  96419204.63744  23546550.992    23546553.8594
        43.300          27.4004
 128964229.162 6 100491633.90943  24541077.344    24541083.8444
        39.600          22.9004
 117075653.318 7  91227815.89545  22278755.891    22278763.9734
        43.600          32.7004
 111059776.424 7  86540104.66946  21133972.320    21133976.7974
        47.200          38.9004
 109713148.501 8  85490793.39746  20877717.961    20877724.7704
        49.400          40.5004
 127304486.617 6  99198337.17144  24225238.703    24225247.5164
        41.800          25.3004
 117258360.271 7  91370180.07745  22313524.188    22313531.7114
        45.700          35.8004
 111327954.795 7  86749073.01946  21185005.570    21185009.8364
        46.800          38.8004
 132471847.765 6 103224853.65643  25208554.945    25208564.5084
        37.000          22.2004
 113127569.432 7  88151371.45645  21527460.664    21527465.3204
        47.000          34.1004
 132160767.542 6 102982464.63844  25149358.430    25149368.4844
        38.300          29.0004
 20  9  1  0  7 30.0000000  0 11G22G23G01G31G32G08G10G21G27G11G03
 123662627.029 6  96360501.75744  23532215.109    23532217.9774
        41.900          28.5004
 129041554.885 6 100551887.69443  24555791.930    24555798.4614
        39.700          22.5004
 117000033.439 7  91168891.34445  22264365.891    22264374.0044
        43.000          32.3004
 110989497.290 7  86485341.73146  21120598.617    21120603.0944
        46.400          38.5004
 109759574.787 8  85526969.72346  20886552.594    20886559.3674
        49.600          40.8004
 127375402.282 6  99253596.10744  24238733.547    24238742.3284
        40.500          24.5004
 117310827.859 7  91411063.92345  22323508.469    22323515.9184
        47.000          35.2004
 111374151.145 7  86785070.16346  21193796.453    21193800.6954
        47.200          38.7004
 132557622.093 5 103291690.67043  25224876.906    25224886.9414
        35.700          19.3004
 113131933.970 7  88154772.39245  21528291.211    21528295.8324
        47.500          33.4004
 132076923.521 6 102917131.70745  25133403.422    25133413.2464
        39.200          31.4004
 20  9  1  0  8  0.0000000  0 11G22G23G01G31G32G08G10G21G27G11G03
 123587318.186 6  96301819.57344  23517884.273    23517887.1564
        41.600          28.5004
 129119006.465 6 100612239.53943  24570530.523    24570536.9804
        39.200          22.5004
 116924815.316 7  91110279.83645  22250052.344    22250060.4964
        43.400          32.6004
 110919702.314 7  86430956.05946  21107317.055    21107321.5634
        46.800          39.4004
 109806233.946 8  85563327.50746  20895431.523    20895438.2664
        49.900          41.0004
 127446460.552 6  99308966.12143  24252255.453    24252264.3714
        39.900          22.6004
 117363520.350 7  91452122.97445  22333535.531    22333543.1174
        44.800          34.4004
 111420792.603 7  86821414.13746  21202672.047    21202676.2734
        47.300          39.0004
 132643270.214 6 103358429.41543  25241175.414    25241185.3164
        36.000          22.5004
 113136920.539 7  88158658.03745  21529240.125    21529244.7034
        47.200          33.1004
 131993027.359 6 102851758.19044  25117438.500    25117448.1724
        36.900          28.9004
 20  9  1  0  8 30.0000000  0 11G22G23G01G31G32G08G10G21G27G11G03
 123512036.862 7  96243158.82344  23503558.695    23503561.5434
        42.700          29.7004
 129196584.173 6 100672689.67843  24585293.070    24585299.4804
        38.400          20.4004
 116850001.871 7  91051983.67245  22235815.797    22235823.9774
        43.700          33.0004
 110850394.320 7  86376949.85646  21094128.164    21094132.6994
        47.200          38.4004
 109853124.621 8  85599865.69446  20904354.516    20904361.2584
        49.900          41.1004
 127517658.380 6  99364444.93343  24265803.969    24265812.8244
        39.400          22.0004
 117416438.421 7  91493357.83345  22343605.508    22343612.8094
        46.100          33.6004
 111467878.590 7  86858104.50146  21211632.227    21211636.4614
        47.300          38.4004
 132728789.891 5 103425068.02943  25257449.180    25257459.2664
        34.500          22.3004
 113142529.103 7  88163028.35045  21530307.406    21530311.9064
        46.900          34.0004
 131909079.853 6 102786344.62144  25101463.781    25101473.2664
        38.300          28.0004
 20  9  1  0  9  0.0000000  0 11G22G23G01G31G32G08G10G21G27G11G03
 123436783.589 7  96184519.95744  23489238.438    23489241.2934
        42.100          29.0004
 129274287.441 6 100733237.63143  24600079.438    24600085.9224
        37.900          19.9004
 116775595.252 7  90994004.51645  22221656.656    22221664.8094
        43.500          33.0004
 110781575.451 7  86323324.78546  21081032.344    21081036.8594
        47.900          38.8004
 109900244.793 8  85636582.71746  20913321.188    20913327.9494
        49.900          40.9004
 127588992.166 6  99420029.68943  24279378.281    24279387.2464
        38.500          22.8004
 117469581.921 7  91534768.30845  22353718.383    22353726.0864
        44.500          32.7004
 111515407.328 7  86895139.86646  21220676.664    21220680.8984
        47.600          37.9004
 132814178.056 4 103491604.19042  25273697.695    25273708.3554
        25.900          16.3004
 113148758.228 7  88167882.20745  21531492.773    21531497.2704
        47.600          34.1004
 131825080.962 6 102720890.99845  25085479.305    25085488.5784
        37.100          30.0004
 20  9  1  0  9 30.0000000  0 11G22G23G01G31G32G08G10G21G27G11G03
 123361559.589 7  96125903.85844  23474923.773    23474926.6254
        43.700          29.2004
 129352116.572 6 100793883.67143  24614889.813    24614896.2344
        38.600          20.1004
 116701598.458 7  90936344.69645  22207575.508    22207583.5984
        43.600          32.8004
 110713248.796 8  86270083.27246  21068030.180    21068034.6604
        48.000          38.4004
 109947593.232 8  85673477.60546  20922331.297    20922338.0864
        50.000          41.8004
 127660459.533 6  99475718.46543  24292978.063    24292987.1724
        40.400          23.3004
 117522951.594 7  91576355.06245  22363874.281    22363881.6884
        45.000          32.4004
 111563378.262 8  86932519.80346  21229805.250    21229809.4774
        48.200          38.4004
 132899432.642 5 103558036.24943  25289921.492    25289931.8054
        35.200          20.4004
 113155607.792 7  88173219.52645  21532796.203    21532800.7384
        46.800          33.6004
 131741031.419 6 102655397.93145  25069485.203    25069494.3284
        37.700          30.0004
 20  9  1  0 10  0.0000000  0 11G22G23G01G31G32G08G10G21G27G11G03
 123286364.680 7  96067310.44644  23460614.617    23460617.5234
        42.200          28.9004
 129430070.678 6 100854627.07843  24629724.141    24629730.3834
        38.300          19.6004
 116628013.245 7  90879005.59245  22193572.695    22193580.7074
        42.600          33.1004
 110645416.018 7  86217226.58646  21055122.000    21055126.4414
        47.800          38.7004
 109995167.538 8  85710548.49546  20931384.391    20931391.1994
        50.000          40.8004
 127732056.629 6  99531508.39743  24306602.586    24306611.5434
        37.900          21.3004
 117576546.882 7  91618117.63545  22374073.156    22374080.7544
        45.700          33.0004
 111611789.279 7  86970242.64946  21239017.570    21239021.7894
        47.900          38.7004
 132984550.322 4 103624361.55042  25306118.781    25306129.3674
        29.900          16.9004
 113163076.114 7  88179038.99545  21534217.375    21534221.9734
        47.000          34.4004
 131656930.805 6 102589865.09545  25053481.375    25053490.3634
        36.600          30.2004
 20  9  1  0 10 30.0000000  0 11G22G23G01G31G32G08G10G21G27G11G03
 123211200.239 7  96008740.77344  23446311.289    23446314.2704
        44.300          29.3004
 129508149.943 6 100915468.03343  24644582.211    24644588.3134
        38.700          19.9004
 116554842.507 7  90821989.45245  22179648.734    22179656.6994
        43.400          32.6004
 110578080.012 8  86164757.00746  21042308.359    21042312.7854
        48.000          38.5004
 110042966.450 8  85747794.39446  20940480.219    20940487.0274
        50.300          40.8004
 127803781.066 6  99587397.52143  24320251.352    24320260.1484
        40.200          23.3004
 117630368.534 7  91660056.56845  22384315.078    22384322.4454
        47.200          32.6004
 111660639.528 7  87008307.77146  21248313.477    21248317.6684
        47.300          38.2004
 133069528.773 5 103690578.39543  25322289.875    25322301.2304
        33.700          18.3004
 113171162.575 7  88185340.12345  21535756.188    21535760.8324
        47.400          34.8004
 131572779.896 6 102524293.03945  25037467.969    25037476.7974
        36.000          30.2004
 20  9  1  0 11  0.0000000  0 11G22G23G01G31G32G08G10G21G27G11G03
 123136067.305 7  95950195.65144  23432013.930    23432016.9264
        43.100          28.9004
 129586354.489 6 100976406.58343  24659464.125    24659470.1334
        39.100          19.0004
 116482088.952 7  90765298.37945  22165804.164    22165812.1334
        44.200          32.7004
 110511243.627 8  86112676.74346  21029589.805    21029594.2234
        48.100          38.5004
 110090988.514 8  85785214.18546  20949618.516    20949625.3054
        50.300          41.1004
 127875629.416 6  99643383.22143  24333923.711    24333932.4964
        38.900          22.8004
 117684416.904 7  91702172.20445  22394600.164    22394607.3164
        47.000          33.2004
 111709928.349 7  87046714.62446  21257692.828    21257696.9844
        47.800          38.6004
 133154370.80615 103756694.14553  25338434.203    25338444.3244
        35.600          19.9004
 113179866.718 7  88192122.56045  21537412.531    21537417.2344
        47.500          35.0004
 131488579.210 6 102458682.23645  25021445.055    25021453.6844
        36.300          30.8004
 20  9  1  0 11 30.0000000  0 11G22G23G01G31G32G08G10G21G27G11G03
 123060966.694 7  95891675.71744  23417722.742    23417725.7034
        43.700          27.7004
 129664684.036 6 101037442.57143  24674369.758    24674375.9144
        37.300          19.6004
 116409755.051 7  90708934.32545  22152039.469    22152047.4344
        44.700          33.7004
 110444909.103 8  86060987.54246  21016966.750    21016971.1884
        48.800          39.1004
 110139231.997 8  85822806.50846  20958798.945    20958805.6954
        50.300          40.1004
 127947599.016 6  99699463.39243  24347619.039    24347627.9184
        39.100          22.6004
 117738692.294 7  91744464.68845  22404928.430    22404935.7154
        45.300          31.5004
 111759654.130 7  87085461.96946  21267155.344    21267159.5084
        47.900          38.7004
 133239063.745 5 103822688.53342  25354550.867    25354561.4024
        34.300          16.9004
 113189187.619 7  88199385.59645  21539186.250    21539190.9614
        46.800          34.3004
 131404329.118 6 102393032.89544  25005412.734    25005421.2074
        36.800          29.4004
 20  9  1  0 12  0.0000000  0 11G22G23G01G31G32G08G10G21G27G11G03
 122985899.321 7  95833181.69744  23403437.867    23403440.8284
        43.100          28.5004
 129743138.709 6 101098576.04742  24689299.219    24689305.4414
        38.000          17.8004
 116337843.486 7  90652899.36145  22138355.141    22138363.1024
        43.200          33.2004
 110379078.874 8  86009691.29546  21004439.664    21004444.1454
        49.000          38.2004
 110187695.450 7  85860570.23446  20968021.227    20968027.9344
        47.500          40.3004
 128019686.870 6  99755635.74543  24361337.031    24361345.6454
        40.200          22.0004
 117793195.080 7  91786934.39445  22415299.961    22415307.2274
        45.800          33.0004
 111809816.031 7  87124549.15146  21276700.844    21276705.0124
        45.800          39.0004
 133323610.165 5 103888568.81843  25370640.172    25370649.2464
        35.100          19.6004
 113199124.650 7  88207128.73045  21541077.211    21541081.8554
        47.500          34.2004
 131320030.126 6 102327345.47744  24989371.047    24989379.3984
        36.900          29.0004
 20  9  1  0 12 30.0000000  0 11G22G23G01G31G32G08G10G21G27G11G03
 122910866.219 7  95774714.34744  23389159.523    23389162.4224
        43.400          29.2004
 129821718.213 6 101159806.81343  24704252.414    24704258.7304
        37.400          18.6004
 116266356.601 7  90597195.32645  22124751.633    22124759.5864
        44.700          33.1004
 110313755.628 8  85958790.09746  20992009.055    20992013.5594
        48.400          38.4004
 110236377.184 8  85898504.04646  20977285.055    20977291.7504
        50.100          40.7004
 128091889.807 6  99811897.69743  24375076.750    24375085.3204
        39.800          22.2004
 117847925.421 7  91829581.40345  22425714.805    22425721.8914
        45.400          32.6004
 111860412.734 8  87163975.13346  21286329.078    21286333.2664
        48.100          37.9004
 133408007.510 6 103954332.83243  25386700.305    25386709.9344
        37.300          20.1004
 113209676.493 7  88215350.94845  21543085.148    21543089.7194
        46.300          32.3004
 131235682.578 6 102261620.17745  24973320.211    24973328.4144
        38.100          30.0004
 20  9  1  0 13  0.0000000  0 11G22G23G01G31G32G08G10G21G27G11G03
 122835868.058 7  95716274.25744  23374887.828    23374890.7384
        43.700          29.3004
 129900422.348 6 101221134.64543  24719229.242    24719235.7114
        37.800          18.3004
 116195297.031 7  90541824.25545  22111229.453    22111237.3714
        44.700          33.5004
 110248941.583 8  85908285.67746  20979675.336    20979679.8364
        48.100          37.6004
 110285275.643 7  85936606.73846  20986590.125    20986596.8404
        47.400          40.1004
 128164204.870 6  99868247.10043  24388837.922    24388846.5204
        38.200          21.3004
 117902883.674 7  91872406.01445  22436173.023    22436180.2154
        45.700          32.8004
 111911442.907 7  87203738.88746  21296039.813    21296044.0234
        46.100          38.7004
 133492253.283 5 104019978.82142  25402731.609    25402741.4774
        35.800          16.9004
 113220842.547 7  88224051.76245  21545209.977    21545214.4694
        46.800          32.1004
 131151286.917 6 102195857.40245  24957260.164    24957268.3674
        37.300          31.4004
 20  9  1  0 13 30.0000000  0 11G22G23G01G31G32G08G10G21G27G11G03
 122760905.472 7  95657861.86745  23360622.891    23360625.8754
        44.300          30.2004
 129979250.942 6 101282559.48642  24734229.922    24734236.3954
        36.100          16.9004
 116124667.246 7  90486788.07945  22097789.039    22097796.9654
        44.700          33.9004
 110184639.197 8  85858179.94546  20967438.977    20967443.4694
        48.200          38.5004
 110334389.224 8  85974877.06246  20995936.141    20995942.8954
        50.000          41.0004
 128236629.512 6  99924681.87443  24402619.852    24402628.5084
        38.200          20.6004
 117958070.116 7  91915408.39845  22446674.656    22446682.0004
        45.300          33.3004
 111962905.210 8  87243839.36346  21305832.781    21305837.0204
        48.000          38.8004
 133576345.242 5 104085504.90142  25418733.594    25418743.4224
        34.100          16.9004
 113232621.547 7  88233230.19645  21547451.438    21547455.8754
        47.400          33.0004
 131066843.518 5 102130057.46844  24941191.031    24941199.3754
        33.800          29.3004
 20  9  1  0 14  0.0000000  0 11G22G23G01G31G32G08G10G21G27G11G03
 122685979.588 7  95599478.07845  23346364.938    23346367.9654
        43.200          30.2004
 130058203.895 6 101344081.22242  24749254.219    24749260.6604
        37.100          16.9004
 116054469.775 7  90432088.77245  22084430.883    22084438.8554
        43.800          33.5004
 110120850.907 7  85808474.80846  20955300.445    20955304.9224
        47.200          38.3004
 110383716.305 8  86013313.74246  21005322.773    21005329.5704
        50.000          40.4004
 128309160.676 6  99981199.58043  24416422.000    24416430.8794
        38.100          19.9004
 118013484.945 7  91958588.76945  22457219.750    22457227.1294
        44.500          33.2004
 112014798.591 8  87284275.74646  21315707.781    21315712.0634
        48.000          38.7004
 133660280.663 5 104150909.05143  25434705.609    25434715.7194
        35.300          18.3004
 113245012.622 7  88242885.57045  21549809.375    21549813.8134
        46.800          34.0004
 130982352.959 6 102064220.75745  24925112.938    24925121.4454
        38.100          31.0004
 20  9  1  0 14 30.0000000  0 11G22G23G01G31G32G08G10G21G27G11G03
 122611091.441 7  95541123.68544  23332114.164    23332117.2304
        42.200          29.1004
 130137281.148 5 101405699.90142  24764302.156    24764308.6684
        34.800          15.6004
 115984707.122 7  90377728.27745  22071155.469    22071163.5744
        43.800          34.8004
 110057579.313 7  85759172.30246  20943260.242    20943264.7074
        47.000          38.7004
 110433255.389 8  86051915.62246  21014749.750    21014756.5554
        49.900          41.1004
 128381794.453 6 100037797.31143  24430243.867    24430252.6764
        36.600          20.6004
 118069128.515 7  92001947.39345  22467808.391    22467815.6454
        45.500          33.7004
 112067121.606 8  87325046.91246  21325664.531    21325668.8324
        48.300          38.8004
 133744057.042 5 104216189.24642  25450648.031    25450657.9924
        35.700          16.9004
 113258014.907 7  88253017.22045  21552283.641    21552288.1094
        47.200          34.8004
 130897815.622 5 101998347.54344  24909025.867    24909034.5204
        35.900          29.1004
 20  9  1  0 15  0.0000000  0 11G22G23G01G31G32G08G10G21G27G11G03
 122536241.705 7  95482799.27144  23317870.695    23317873.7544
        43.600          28.8004
 130216482.188 5 101467414.87142  24779373.648    24779380.0824
        35.500          14.8004
 115915381.469 7  90323708.29245  22057963.227    22057971.4414
        44.500          34.4004
 109994826.424 7  85710273.97646  20931318.750    20931323.2304
        47.300          38.6004
 110483004.561 8  86090681.20946  21024216.703    21024223.5004
        49.800          40.6004
 128454529.044 6 100094473.57743  24444084.633    24444093.6024
        37.000          21.7004
 118125000.826 7  92045484.20845  22478440.547    22478447.9654
        44.200          34.1004
 112119872.749 7  87366151.69146  21335702.758    21335707.0634
        47.000          39.0004
 133827671.675 5 104281343.36542  25466559.398    25466569.4844
        35.300          17.8004
 113271627.167 7  88263624.16845  21554873.984    21554878.5084
        47.400          35.2004
 130813231.729 6 101932438.08444  24892930.047    24892938.7344
        37.000          29.7004
 20  9  1  0 15 30.0000000  0 11G22G23G01G31G32G08G10G21G27G11G03
 122461431.929 7  95424505.94944  23303634.844    23303637.8794
        44.500          29.9004
 130295807.423 5                  24794468.750
        34.300
 115846495.910 7  90270031.24545  22044854.734    22044863.0434
        44.700          34.3004
 109932595.147 7  85661782.10646  20919476.516    20919481.0204
        47.900          38.4004
 110532962.921 8  86129609.80446  21033723.469    21033730.2464
        50.200          40.9004
 128527360.989 6 100151225.70043  24457944.125    24457953.1804
        39.200          22.3004
 118181102.623 7  92089199.90645  22489116.398    22489123.8874
        43.100          31.7004
 112173051.483 7  87407589.65046  21345822.344    21345826.6644
        47.500          38.8004
 133911122.676 6 104346370.07843  25482439.883    25482449.6804
        38.700          19.6004
 113285848.822 7  88274705.97345  21557580.289    21557584.8834
        47.300          35.2004
 130728602.304 5 101866493.11544  24876825.492    24876834.2424
        35.700          26.5004
 20  9  1  0 16  0.0000000  0 11G22G23G01G31G32G08G10G21G27G11G03
 122386662.122 7  95366243.79844  23289406.602    23289409.5594
        44.600          29.0004
 130375256.201 5                  24809587.367
        34.100
 115778052.298 7  90216698.57645  22031830.344    22031838.6954
        44.900          35.0004
 109870887.131 7  85613697.96446  20907733.859    20907738.3834
        47.600          38.4004
 110583128.299 8  86168699.70846  21043269.617    21043276.3754
        48.200          40.4004
 128600287.265 6 100208051.30143  24471821.500    24471830.6374
        36.400          20.9004
 118237433.666 7  92133094.25045  22499835.875    22499843.0004
        46.400          33.1004
 112226655.764 7  87449359.20046  21356022.914    21356027.2424
        46.100          38.4004
 133994407.103 6 104411266.90243  25498288.289    25498298.3444
        37.700          19.6004
 113300678.133 7  88286261.27345  21560402.211    21560406.8444
        47.300          34.1004
 130643927.205 5 101800512.67144  24860712.227    24860720.9884
        35.300          27.9004
 20  9  1  0 16 30.0000000  0 11G22G23G01G31G32G08G10G21G27G11G03
 122311933.410 7  95308013.64245  23275186.180    23275189.0354
        45.500          30.0004
 130454828.217 5                  24824729.406
        32.000
 115710053.084 7  90163712.19845  22018890.523    22018898.8324
        44.500          34.2004
 109809705.036 7  85566023.62746  20896091.273    20896095.8134
        47.300          39.0004
 110633499.054 8  86207949.64146  21052854.852    21052861.5984
        50.300          40.5004
 128673304.695 6 100264947.96643  24485716.461    24485725.3364
        40.800          22.6004
 118293994.181 7  92177167.33945  22510598.992    22510606.3634
        45.000          32.0004
 112280684.283 8  87491459.33246  21366304.203    21366308.5354
        48.400          38.3004
 134077522.431 6 104476032.05942  25514104.938    25514114.8364
        37.100          17.8004
 113316113.878 7  88298289.11745  21563339.523    21563344.1914
        45.900          33.2004
 130559207.165 5 101734497.08344  24844590.461    24844599.0944
        34.300          28.9004
 20  9  1  0 17  0.0000000  0 11G22G23G01G31G32G08G10G21G27G11G03
 122237247.042 7  95249816.50145  23260973.813    23260976.5744
        43.600          30.2004
 130534527.651 5                  24839894.813
        32.400
 115642500.896 7  90111074.15045  22006035.766    22006043.9454
        44.500          34.6004
 109749050.594 7  85518760.44746  20884549.094    20884553.6334
        47.000          39.4004
 110684073.897 8  86247358.60646  21062478.930    21062485.6844
        49.900          40.1004
 128746410.236 6 100321913.30243  24499628.055    24499636.9534
        37.400          22.0004
 118350784.566 7  92221419.62745  22521405.859    22521412.8094
        43.900          32.3004
 112335135.801 8  87533889.07946  21376665.992    21376670.3134
        48.500          38.1004
 134160466.555 6 104540663.70742  25529888.586    25529898.6174
        36.800          17.4004
 113332155.228 7  88310788.85645  21566392.086    21566396.7544
        46.200          33.4004
 130474442.499 6 101668446.80344  24828460.250    24828468.8444
        36.600          28.8004
 20  9  1  0 17 30.0000000  0 11G22G23G01G31G32G08G10G21G27G11G03
 122162603.873 7  95191653.02244  23246769.656    23246772.3324
        43.800          29.5004
 130614346.070 5                  24855083.680
        33.700
 115575398.093 7  90058786.27745  21993266.516    21993274.5394
        44.900          33.7004
 109688926.461 7  85471910.51046  20873107.820    20873112.3714
        47.800          38.8004
 110734851.170 8  86286925.30746  21072141.531    21072148.2774
        49.900          40.7004
 128819601.164 6 100378945.07543  24513555.805    24513564.9264
        39.600          22.0004
 118407805.057 7  92265851.12545  22532256.492    22532263.9774
        44.800          33.6004
 112390008.885 7  87576647.31146  21387108.000    21387112.3134
        47.200          37.6004
 134243236.920 6 104605159.97743  25545639.305    25545649.5864
        39.900          21.5004
 113348801.131 7  88323759.68945  21569559.688    21569564.3164
        47.200          33.7004
 130389633.861 6 101602362.22145  24812321.688    24812330.1254
        39.700          30.4004
 20  9  1  0 18  0.0000000  0 11G22G23G01G31G32G08G10G21G27G11G03
 122088004.864 7  95133523.97045  23232573.906    23232576.5434
        44.300          30.7004
 130694287.426 5                  24870296.023
        31.500
 115508747.181 7  90006850.51345  21980583.258    21980591.1524
        44.600          33.8004
 109629335.223 8  85425475.80246  20861767.961    20861772.4844
        48.600          39.4004
 110785829.396 8  86326648.59246  21081842.375    21081849.1134
        49.500          40.6004
 128892874.566 6 100436041.25643  24527499.406    24527508.3014
        39.700          21.7004
 118465055.871 7  92310462.16645  22543150.969    22543158.4494
        44.100          31.6004
 112445301.937 8  87619732.79046  21397629.930    21397634.2424
        48.300          37.8004
 134325831.097 6 104669519.06642  25561356.539    25561366.9454
        36.800          16.9004
 113366050.168 7  88337200.50645  21572842.078    21572846.6334
        45.900          34.1004
 130304781.620 6 101536243.65445  24796174.820    24796183.1564
        38.500          31.8004
 20  9  1  0 18 30.0000000  0 10G22G23G01G31G32G08G10G21G11G03
 122013451.124 7  95075430.16945  23218386.781    23218389.4264
        43.900          30.0004
 130774351.668 5                  24885531.867
        33.000
 115442550.756 7  89955268.90445  21967986.492    21967994.3554
        43.600          34.2004
 109570278.908 8  85379457.92046  20850529.898    20850534.3874
        48.600          39.5004
 110837007.194 8  86366527.39446  21091581.188    21091587.9384
        49.200          40.6004
 128966227.496 6 100493199.30243  24541457.852    24541466.9494
        37.000          20.6004
 118522537.435 7  92355252.98845  22554089.344    22554096.4964
        44.500          33.8004
 112501014.143 7  87663144.87746  21408231.625    21408235.9264
        47.500          37.7004
 113383901.392 7  88351110.55445  21576239.078    21576243.5824
        46.100          33.8004
 130219886.768 6 101470091.89445  24780019.852    24780028.1994
        40.500          33.3004
 20  9  1  0 19  0.0000000  0 10G22G23G01G31G32G08G10G21G11G03
 121938943.420 7  95017372.24045  23204208.414    23204211.0904
        44.500          31.5004
 130854538.203 5                  24900790.883
        34.500
 115376810.805 7  89904042.98145  21955476.578    21955484.5204
        44.300          34.2004
 109511759.587 8  85333858.47046  20839394.016    20839398.4534
        48.000          39.7004
 110888382.712 8  86406560.26746  21101357.625    21101364.4144
        49.400          40.4004
 129039656.887 6 100550416.98143  24555431.211    24555440.2974
        39.400          20.9004
 118580249.652 7  92400223.49845  22565071.617    22565079.1294
        44.900          34.0004
 112557143.591 7  87706882.09646  21418912.711    21418917.0004
        46.900          37.0004
 113402353.227 7  88365488.60645  21579750.367    21579754.8674
        46.600          34.5004
 130134949.414 6 101403907.00345  24763856.813    24763865.2304
        37.900          31.1004
 20  9  1  0 19 30.0000000  0 10G22G23G01G31G32G08G10G21G11G03
 121864482.656 7  94959350.91045  23190038.977    23190041.6954
        44.700          31.5004
 130934846.780 5 102027183.17642  24916073.281    24916081.0824
        33.800          13.9004
 115311529.762 7  89853174.62745  21943053.977    21943062.0664
        44.400          35.1004
 109453779.216 8  85288678.98046  20828360.695    20828365.0944
        48.000          39.5004
 110939954.305 8  86446745.91846  21111171.375    21111178.2154
        49.400          40.8004
 129113159.488 6 100607691.71643  24569418.313    24569427.3164
        38.300          19.0004
 118638192.608 7  92445373.84445  22576097.797    22576105.0864
        45.200          34.3004
 112613688.669 7  87750943.17746  21429672.898    21429677.1524
        47.000          36.8004
 113421404.327 7  88380333.61345  21583375.680    21583380.2074
        45.400          34.4004
 130049969.916 6 101337689.30645  24747685.719    24747694.2624
        39.200          31.6004
 20  9  1  0 20  0.0000000  0 10G22G23G01G31G32G08G10G21G11G03
 121790070.375 7  94901367.35545  23175878.773    23175881.5204
        45.800          31.5004
                                  24931378.945
        33.000          14.8004
 115246710.377 7  89802666.02545  21930719.227    21930727.4534
        44.900          35.7004
 109396340.560 8  85243921.60646  20817430.461    20817434.8244
        48.200          39.4004
 110991720.945 8  86487083.56346  21121022.242    21121029.1254
        50.000          39.8004
 129186732.707 6 100665021.46343  24583418.828    24583427.6564
        39.200          20.4004
 118696367.049 7  92490704.52145  22587168.023    22587175.5904
        44.300          32.9004
 112670648.213 7  87795327.21946  21440511.945    21440516.1914
        47.300          36.7004
 113441053.674 7  88395644.78345  21587114.828    21587119.4064
        46.200          34.2004
 129964949.386 6 101271439.59445  24731506.820    24731515.3794
        39.100          31.3004
 20  9  1  0 20 30.0000000  0 10G22G23G01G31G32G08G10G21G11G03
 121715706.987 7  94843421.88745  23161727.883    23161730.6054
        44.700          30.3004
 131095833.37214                  24946707.594
        29.100
 115182354.673 7  89752518.72945  21918472.734    21918481.0204
        44.900          35.3004
 109339445.204 8  85199587.58446  20806603.617    20806607.9384
        48.700          39.7004
 111043680.721 8  86527571.68946  21130909.867    21130916.7704
        48.800          40.2004
 129260373.854 6 100722404.13943  24597432.305    24597441.1724
        39.300          21.8004
 118754772.718 7  92536215.44945  22598282.266    22598289.6764
        45.200          32.7004
 112728020.599 7  87840032.96346  21451429.563    21451433.8164
        46.700          36.8004
 113461299.982 7  88411421.11145  21590967.563    21590972.2074
        45.200          34.2004
 129879887.908 6 101205157.97644  24715320.102    24715328.6764
        38.700          29.9004
 20  9  1  0 21  0.0000000  0  9G22G01G31G32G08G10G21G11G03
 121641393.866 7  94785515.60045  23147586.547    23147589.2074
        45.500          31.2004
 115118465.201 7  89702734.74245  21906314.961    21906323.2584
        44.600          34.9004
 109283095.709 8  85155678.91346  20795880.656    20795884.9574
        49.100          39.4004
 111095832.301 8  86568209.27946  21140833.977    21140840.8634
        49.600          39.3004
 129334079.608 6 100779837.16043  24611458.008    24611466.8794
        39.300          18.6004
 118813410.049 7  92581906.87445  22609440.602    22609448.1214
        44.300          32.9004
 112785804.465 7  87885059.33446  21462425.484    21462429.7304
        47.400          36.9004
 113482141.562 7  88427661.27345  21594933.578    21594938.2774
        45.800          33.3004
 129794786.183 6 101138845.01744  24699125.711    24699134.2704
        38.100          29.0004
 20  9  1  0 21 30.0000000  0  9G22G01G31G32G08G10G21G11G03
 121567131.747 7  94727649.05445  23133454.891    23133457.5084
        45.000          30.7004
 115055044.129 7  89653315.74145  21894246.328    21894254.5824
        44.000          35.1004
 109227293.730 8  85112196.88946  20785261.867    20785266.1484
        48.100          39.2004
 111148173.996 8  86608995.01746  21150794.266    21150801.1134
        49.100          39.4004
 129407846.794 6 100837318.07443  24625495.414    24625504.0354
        39.500          20.4004
 118872279.128 7  92627778.83745  22620643.023    22620650.6524
        45.200          32.5004
 112843998.041 7  87930404.96246  21473499.367    21473503.6134
        46.400          36.2004
 113503576.908 7  88444364.13045  21599012.586    21599017.2814
        45.500          34.5004
 129709644.802 6 101072501.10644  24682923.781    24682932.1764
        37.900          28.5004
 20  9  1  0 22  0.0000000  0  9G22G01G31G32G08G10G21G11G03
 121492921.811 7  94669823.16345  23119333.172    23119335.7624
        44.600          31.5004
 114992094.021 7  89604263.73345  21882267.320    21882275.5124
        44.700          34.4004
 109172041.844 8  85069143.50346  20774747.773    20774752.0354
        48.600          39.4004
 111200704.575 8  86649927.92246  21160790.500    21160797.3244
        49.900          40.1004
 129481672.788 6 100894844.75443  24639544.023    24639552.8134
        39.500          22.0004
 118931380.318 7  92673831.72545  22631889.625    22631896.8554
        43.600          31.5004
 112902600.102 7  87976068.88646  21484650.977    21484655.2304
        47.500          36.6004
 113525605.084 7  88461528.93845  21603204.430    21603209.0904
        47.600          34.0004
 129624464.411 6 101006126.82044  24666714.422    24666722.5824
        38.600          27.8004
 20  9  1  0 22 30.0000000  0  9G22G01G31G32G08G10G21G11G03
 121418765.148 7  94612038.78845  23105221.602    23105224.1914
        45.100          31.1004
 114929616.957 7  89555580.31845  21870378.313    21870386.4654
        44.300          34.4004
 109117341.873 8  85026520.17346  20764338.703    20764342.9494
        48.900          38.9004
 111253422.228 8  86691006.61046  21170822.336    21170829.1524
        49.300          40.0004
 129555554.440 6 100952414.84943  24653603.289    24653612.0594
        36.700          19.3004
 118990713.517 7  92720065.37045  22643180.398    22643187.9344
        46.700          34.8004
 112961609.134 7  88022049.93446  21495880.039    21495884.3094
        46.600          36.0004
 113548224.225 7  88479154.23845  21607508.734    21607513.3634
        47.600          34.2004
 129539245.341 6 100939722.39844  24650497.734    24650505.6134
        37.700          27.0004
 20  9  1  0 23  0.0000000  0  9G22G01G31G32G08G10G21G11G03
 121344662.826 7  94554296.73645  23091120.391    23091123.0234
        45.700          31.3004
 114867615.445 7  89507267.46445  21858579.797    21858587.9304
        44.400          34.9004
 109063195.875 7  84984328.51546  20754035.047    20754039.2624
        47.800          39.0004
 111306325.659 8  86732230.05646  21180889.523    21180896.3674
        49.500          39.5004
 129629489.025 6 101010026.18743  24667672.695    24667681.2854
        40.100          21.8004
 119050279.144 7  92766480.10545  22654515.375    22654522.9614
        45.100          32.3004
 113021023.689 7  88068346.97245  21507186.266    21507190.5664
        46.800          35.6004
 113571433.093 7  88497239.07045  21611925.250    21611929.8404
        47.300          33.7004
 129453988.472 6 100873288.54744  24634273.828    24634281.4964
        38.000          28.2004
 20  9  1  0 23 30.0000000  0  9G22G01G31G32G08G10G21G11G03
 121270615.691 7  94496597.70245  23077029.688    23077032.3404
        46.200          31.8004
 114806091.481 7  89459326.72745  21846872.156    21846880.2584
        45.100          33.8004
 109009605.692 8  84942569.95446  20743837.156    20743841.3484
        48.400          39.2004
 111359413.215 8  86773596.96346  21190991.742    21190998.6214
        49.000          40.0004
 129703473.657 6 101067676.48843  24681751.672    24681760.3364
        39.400          22.0004
 119110077.071 7  92813075.91845  22665894.594    22665902.0044
        47.800          35.0004
 113080841.704 7  88114958.39145  21518569.273    21518573.6094
        46.500          35.4004
 113595230.133 7  88515782.21545  21616453.695    21616458.2384
        46.600          34.1004
 129368694.177 6 100806825.47744  24618042.805    24618050.3954
        37.100          29.1004
 20  9  1  0 24  0.0000000  0  9G22G01G31G32G08G10G21G11G03
 121196624.881 7  94438942.56345  23062949.703    23062952.3204
        46.700          32.2004
 114745047.481 7  89411759.99045  21835255.859    21835263.8914
        44.600          35.7004
 108956573.734 8  84901246.38346  20733745.492    20733749.6954
        48.800          39.9004
 111412683.421 8  86815106.21646  21201128.734    21201135.6374
        49.500          39.9004
 129777505.226 6 101125363.38243  24695839.430    24695848.2934
        39.500          21.5004
 119170107.628 7  92859852.94945  22677318.047    22677325.4964
        45.000          32.8004
 113141061.667 7  88161883.02145  21530028.766    21530033.1024
        46.500          35.2004
 113619613.837 7  88534782.48645  21621093.766    21621098.3014
        45.400          33.3004
 129283363.038 6 100740333.77645  24601804.797    24601812.3634
        38.400          31.2004
 20  9  1  0 24 30.0000000  0  9G22G01G31G32G08G10G21G11G03
 121122691.791 7  94381332.38245  23048880.688    23048883.2154
        46.200          31.0004
 114684485.998 7  89364569.22745  21823731.375    21823739.2934
        45.200          35.1004
 108904101.794 8  84860359.18646  20723760.398    20723764.5824
        49.300          39.5004
 111466135.097 8  86856756.86746  21211300.250    21211307.1644
        49.600          39.2004
 129851581.174 6 101183084.88843  24709935.703    24709944.4104
        39.400          20.9004
 119230371.170 7  92906811.54145  22688785.836    22688793.3204
        46.000          33.6004
 113201682.427 7  88209119.96945  21541564.516    21541568.8674
        46.800          35.1004
 113644582.774 7  88554238.78245  21625845.188    21625849.7504
        45.600          34.0004
 129197996.070 6 100673814.06345  24585559.945    24585567.5164
        37.200          30.3004
 20  9  1  0 25  0.0000000  0  9G22G01G31G32G08G10G21G11G03
 121048817.130 7  94323767.74145  23034822.789    23034825.1414
        45.500          31.5004
 114624408.853 7  89317755.88445  21812299.063    21812306.9184
        45.900          34.9004
 108852191.467 8  84819909.60746  20713882.172    20713886.3324
        48.600          39.4004
 111519766.296 8  86898547.40946  21221505.938    21221512.8484
        50.000          39.6004
 129925698.039 6 101240838.22943  24724039.750    24724048.6804
        39.100          21.7004
 119290867.472 7  92953951.50045  22700297.891    22700305.4024
        44.300          31.5004
 113262701.986 7  88256667.66045  21553176.164    21553180.5434
        46.200          35.1004
 113670134.898 7  88574149.50745  21630707.594    21630712.2114
        45.900          34.2004
 129112593.337 6 100607266.57145  24569308.313    24569316.0474
        38.200          32.1004
 20  9  1  0 25 30.0000000  0  9G22G01G31G32G08G10G21G11G03
 120975002.516 7  94266249.88145  23020776.313    23020778.4964
        45.900          30.7004
 114564818.898 7  89271322.16346  21800959.453    21800967.3244
        45.700          36.3004
 108800845.469 8  84779899.76546  20704111.328    20704115.4924
        48.000          40.6004
 111573576.279 8  86940477.25446  21231745.641    21231752.5394
        49.600          39.1004
 129999853.439 6 101298621.60843  24738150.961    24738160.1374
        40.600          21.3004
 119351597.382 7  93001273.45745  22711854.375    22711861.8404
        43.200          31.3004
 113324119.453 7  88304525.40945  21564863.539    21564867.9144
        46.800          34.9004
 113696269.460 7  88594514.07845  21635680.844    21635685.4614
        46.700          34.4004
 129027156.234 6 100540692.26145  24553050.141    24553057.9454
        36.800          30.8004
 20  9  1  0 26  0.0000000  0  9G22G01G31G32G08G10G21G11G03
 120901248.237 7  94208779.03745  23006741.313    23006743.3404
        45.300          31.7004
 114505717.562 7  89225269.18246  21789712.844    21789720.7894
        45.000          36.7004
 108750064.567 8  84740330.25846  20694448.016    20694452.2194
        48.300          39.0004
 111627562.698 8  86982544.58946  21242018.914    21242025.7934
        49.100          39.4004
 130074044.064 6 101356432.47143  24752268.977    24752278.0044
        39.400          20.6004
 119412560.022 7  93048776.81445  22723455.172    22723462.6764
        43.100          30.8004
 113385932.087 7  88352691.07945  21576626.109    21576630.4694
        45.700          35.7004
 113722983.876 7  88615330.49445  21640764.445    21640769.0664
        46.400          34.1004
 128941684.412 6 100474090.95345  24536785.375    24536793.2504
        36.000          32.1004
 20  9  1  0 26 30.0000000  0  9G22G01G31G32G08G10G21G11G03
 120827555.838 7  94151356.41545  22992718.086    22992720.0704
        46.100          31.1004
 114447107.573 7  89179599.06946  21778559.742    21778567.8014
        46.300          37.0004
 108699851.521 8  84701203.22946  20684892.766    20684897.0164
        48.900          40.4004
 111681724.654 8  87024748.70146  21252325.594    21252332.4494
        49.600          39.4004
 130148267.025 6 101414268.48043  24766393.055    24766402.2344
        37.200          19.0004
 119473756.281 7  93096462.17145  22735100.406    22735107.8484
        44.100          30.9004
 113448138.986 7  88401163.96445  21588463.703    21588468.0554
        45.800          34.5004
 113750277.178 7  88636597.99845  21645958.211    21645962.8014
        46.000          33.8004
 128856179.149 5 100407463.54945  24520514.266    24520522.1134
        33.900          30.8004
 20  9  1  0 27  0.0000000  0  9G22G01G31G32G08G10G21G11G03
 120753926.371 7  94093982.82945  22978706.844    22978708.8794
        46.000          31.5004
 114388991.017 7  89134313.44746  21767500.531    21767508.6764
        46.100          36.2004
 108650208.170 8  84662520.11746  20675445.922    20675450.2114
        49.600          40.1004
 111736060.565 8  87067088.36346  21262665.375    21262672.2274
        49.500          39.4004
 130222519.734 6 101472127.68443  24780522.914    24780532.1294
        39.400          20.1004
 119535186.033 7  93144329.49745  22746790.094    22746797.6094
        44.100          32.7004
 113510737.875 7  88449942.30845  21600375.891    21600380.2384
        46.200          34.9004
 113778147.644 7  88658315.23645  21651261.805    21651266.3404
        45.800          33.1004
 128770641.047 5 100340810.57945  24504236.953    24504244.6724
        35.300          31.3004
 20  9  1  0 27 30.0000000  0  9G22G01G31G32G08G10G21G11G03
 120680360.699 7  94036658.94445  22964707.742    22964709.8204
        46.400          31.0004
 114331369.482 7  89089413.55845  21756535.523    21756543.7074
        45.800          35.8004
 108601135.279 8  84624281.52446  20666107.641    20666111.9454
        49.800          40.6004
 111790568.367 8  87109561.97146  21273037.867    21273044.7034
        50.000          39.2004
 130296798.661 6 101530007.34643  24794657.695    24794666.8754
        39.000          19.6004
 119596848.840 7  93192378.41745  22758524.148    22758531.7074
        45.700          32.6004
 113573726.892 7  88499024.64045  21612362.313    21612366.6724
        46.700          34.6004
 113806592.716 7  88680480.22245  21656674.727    21656679.2194
        45.100          32.4004
 128685070.112 5 100274132.01045  24487953.266    24487961.0704
        33.700          30.1004
 20  9  1  0 28  0.0000000  0  9G22G01G31G32G08G10G21G11G03
 120606860.332 7  93979385.94145  22950721.078    22950723.2274
        46.300          30.9004
 114274245.950 7  89044901.72746  21745665.258    21745673.4184
        45.200          36.2004
 108552635.523 8  84586489.52646  20656878.422    20656882.7154
        49.200          40.7004
 111845247.504 8  87152169.08046  21283442.969    21283449.7854
        49.200          39.7004
 130371101.140 6 101587905.32542  24808796.898    24808806.1484
        38.400          17.4004
 119658745.543 7  93240609.61945  22770302.734    22770310.3134
        44.500          32.6004
 113637105.076 7  88548410.22145  21624422.789    21624427.1334
        45.700          34.2004
 113835611.618 7  88703092.34645  21662196.844    21662201.2774
        46.300          33.2004
 128599467.741 5 100207428.97945  24471663.469    24471671.3054
        35.100          32.6004
 20  9  1  0 28 30.0000000  0  9G22G01G31G32G08G10G21G11G03
 120533426.421 7  93922164.73445  22936747.063    22936749.2734
        45.900          32.4004
 114217622.122 7  89000779.27945  21734890.086    21734898.1334
        46.000          35.4004
 108504710.657 8  84549145.49246  20647758.617    20647762.8834
        49.500          40.9004
 111900095.992 8  87194908.15846  21293880.289    21293887.0944
        49.300          39.2004
 130445424.212 6 101645819.40043  24822940.273    24822949.1644
        39.000          21.8004
 119720875.897 7  93289022.86045  22782125.766    22782133.3244
        45.300          33.9004
 113700870.174 7  88598097.27645  21636556.898    21636561.2464
        45.800          34.0004
 113865202.160 7  88726149.89645  21667827.742    21667832.1294
        46.400          32.5004
 128513834.329 5 100140701.71245  24455367.852    24455375.9144
        35.900          33.6004
 20  9  1  0 29  0.0000000  0  9G22G01G31G32G08G10G21G11G03
 120460059.662 7  93864995.84845  22922785.820    22922788.0824
        46.200          32.1004
 114161500.165 7  88957047.90445  21724210.406    21724218.3244
        46.100          35.9004
 108457362.216 8  84512250.61746  20638748.484    20638752.7194
        48.700          40.6004
 111955112.491 8  87237778.14446  21304349.578    21304356.3874
        50.000          38.8004
 130519765.306 6 101703747.40043  24837086.906    24837096.0824
        36.100          19.0004
 119783240.016 7  93337618.27745  22793993.297    22794000.8244
        45.200          33.5004
 113765020.467 7  88648084.49745  21648764.313    21648768.6604
        46.600          34.2004
 113895362.658 7  88749651.57345  21673567.094    21673571.5084
        45.300          33.1004
 128428170.542 6 100073950.76745  24439066.602    24439074.8094
        38.700          35.9004
 20  9  1  0 29 30.0000000  0  9G22G01G31G32G08G10G21G11G03
 120386761.543 7  93807880.45845  22908837.625    22908839.9694
        44.900          31.6004
 114105882.309 7  88913709.33745  21713626.672    21713634.5204
        45.900          35.7004
 108410592.141 8  84475806.42046  20629848.414    20629852.6564
        48.000          40.6004
 112010295.684 8  87280778.03446  21314850.594    21314857.4024
        48.700          39.6004
 130594121.045 6 101761686.97842  24851236.484    24851245.4964
        39.600          17.4004
 119845838.120 7  93386396.00345  22805905.344    22805912.6914
        44.600          33.0004
 113829554.226 7  88698370.53045  21661044.695    21661049.0314
        46.600          34.0004
 113926091.561 7  88773596.14845  21679414.617    21679419.0744
        45.400          33.3004
 128342477.158 6 100007176.78245  24422759.625    24422768.0744
        38.900          35.6004
 20  9  1  0 30  0.0000000  0  9G22G01G31G32G08G10G21G11G03
 120313533.200 7  93750819.42045  22894902.711    22894905.1054
        43.900          32.5004
 114050770.719 7  88870765.25746  21703139.273    21703147.1724
        45.800          36.9004
 108364402.078 8  84439814.17346  20621058.719    20621062.9694
        48.900          40.3004
 112065644.185 8  87323906.72946  21325383.078    21325389.8984
        49.400          39.5004
 130668489.255 6 101819636.18443  24865388.445    24865397.1764
        37.900          20.9004
 119908670.295 7  93435356.11145  22817861.930    22817869.2894
        43.900          34.2004
 113894469.912 7  88748954.16945  21673397.766    21673402.0784
        46.400          34.4004
 113957386.874 7  88797982.08945  21685369.922    21685374.4454
        45.000          33.9004
 128256754.957 6  99940380.28146  24406447.211    24406455.8164
        40.100          37.2004
 20  9  1  0 30 30.0000000  0  9G22G01G31G32G08G10G21G11G03
 120240375.825 7  93693813.68745  22880981.305    22880983.7194
        45.100          31.8004
 113996167.451 7  88828217.27246  21692748.609    21692756.6054
        46.000          37.3004
 108318793.929 8  84404275.36446  20612379.766    20612384.0204
        48.700          40.9004
 112121156.584 8  87367163.14746  21335946.742    21335953.5944
        49.700          39.5004
 130742866.851 6 101877592.69943  24879542.047    24879550.8984
        40.000          21.5004
 119971736.679 7  93484498.71245  22829863.078    22829870.4144
        43.300          31.4004
 113959765.911 7  88799834.15245  21685823.203    21685827.5044
        46.600          34.3004
 113989246.540 7  88822807.79145  21691432.625    21691437.1994
        45.800          34.4004
 128171004.580 6  99873561.87746  24390129.438    24390138.1334
        38.800          37.5004
 20  9  1  0 31  0.0000000  0  9G22G01G31G32G08G10G21G11G03
 120167290.458 7  93636864.06745  22867073.602    22867075.9804
        45.300          32.0004
 113942074.391 7  88786066.84046  21682455.039    21682463.1134
        45.600          37.6004
 108273768.667 8  84369190.75646  20603811.727    20603816.0004
        48.700          40.8004
 112176831.342 8  87410546.07246  21346541.297    21346548.1764
        50.000          39.2004
 130817250.352 6 101935553.83743  24893696.820    24893705.6054
        38.800          20.6004
 120035037.036 7  93533823.64645  22841908.727    22841915.8094
        44.100          31.2004
 114025440.063 7  88851008.80345  21698320.586    21698324.8634
        46.300          33.5004
 114021668.590 7  88848071.70545  21697602.344    21697606.9184
        44.900          32.6004
 128085226.611 6  99806721.94846  24373806.398    24373815.0784
        38.600          37.0004
 20  9  1  0 31 30.0000000  0  9G22G01G31G32G08G10G21G11G03
 120094278.214 7  93579971.42545  22853179.828    22853182.1414
        45.400          32.9004
 113888493.577 7  88744315.57146  21672258.938    21672267.0474
        46.500          36.5004
 108229328.236 8  84334561.86146  20595354.984    20595359.2704
        48.600          40.6004
 112232667.009 8  87454054.36646  21357166.469    21357173.3674
        49.100          38.9004
 130891637.238 6 101993517.55643  24907852.203    24907861.0944
        39.400          22.5004
 120098571.501 6  93583330.98745  22853998.938    22854006.1024
        41.800          32.4004
 114091490.739 7  88902476.84145  21710889.617    21710893.8874
        44.000          33.3004
 114054651.321 7  88873772.52045  21703878.758    21703883.3094
        44.800          32.4004
 127999421.717 6  99739861.04346  24357478.242    24357486.7504
        40.000          36.8004
 20  9  1  0 32  0.0000000  0  9G22G01G31G32G08G10G21G11G03
 120021340.549 7  93523136.90445  22839300.234    22839302.5164
        46.700          31.8004
 113835427.528 7  88702965.42046  21662160.805    21662168.9304
        46.600          36.7004
 108185474.777 8  84300390.34546  20587009.938    20587014.2114
        50.000          41.0004
 112288662.662 8  87497687.34746  21367822.094    21367828.9844
        49.600          39.1004
 130966025.079 5 102051482.18343  24922007.859    24922016.4924
        35.900          18.6004
 120162340.641 7  93633021.16745  22866133.781    22866141.1134
        42.700          31.2004
 114157916.181 7  88954236.90645  21723529.961    21723534.2774
        44.300          33.1004
 114088193.631 7  88899909.37645  21710261.641    21710266.1724
        44.800          32.3004
 127913591.137 6  99672980.12946  24341145.188    24341153.4694
        40.600          36.9004
 20  9  1  0 32 30.0000000  0  9G22G01G31G32G08G10G21G11G03
 119948478.599 7  93466361.37845  22825435.055    22825437.3594
        47.200          32.6004
 113782878.089 7  88662017.80846  21652160.969    21652169.0824
        46.400          36.5004
 108142209.407 8  84266677.07946  20578776.805    20578781.0514
        49.500          40.8004
 112344816.671 7  87541443.70246  21378507.852    21378514.7074
        47.900          38.7004
 131040411.255 6 102109445.29243  24936162.914    24936171.8094
        37.100          21.7004
 120226344.180 7  93682894.06145  22878313.258    22878320.3754
        45.200          32.0004
 114224714.453 7  89006287.48045  21736241.266    21736245.5904
        45.900          33.3004
 114122292.633 7  88926480.02145  21716750.469    21716754.9534
        45.800          32.1004
 127827735.433 6  99606079.64046  24324807.367    24324815.3554
        41.700          36.4004
 20  9  1  0 33  0.0000000  0  9G22G01G31G32G08G10G21G11G03
 119875693.718 7  93409645.91045  22811584.539    22811586.9104
        46.600          33.0004
 113730847.340 7  88621474.36846  21642259.828    21642267.9694
        45.500          36.3004
 108099534.059 8  84233423.57646  20570655.953    20570660.1804
        49.100          41.4004
 112401127.738 8  87585322.45446  21389223.500    21389230.3094
        49.500          39.6004
 131114792.299 6 102167404.55843  24950317.406    24950326.1564
        36.800          19.3004
 120290582.344 7  93732949.76845  22890537.406    22890544.6294
        44.800          31.1004
 114291883.954 7  89058627.34745  21749023.211    21749027.5044
        45.800          33.7004
 114156946.659 7  88953483.15745  21723344.906    21723349.3674
        45.300          31.2004
 127741855.434 6  99539160.24246  24308464.914    24308472.6724
        41.500          36.3004
 20  9  1  0 33 30.0000000  0  9G22G01G31G32G08G10G21G11G03
 119802986.807 7  93352991.19045  22797748.859    22797751.3204
        45.200          32.6004
 113679336.973 7  88581336.41846  21632457.703    21632465.8914
        45.200          36.9004
 108057449.934 8  84200630.76646  20562647.609    20562651.8244
        49.900          40.7004
 112457594.256 8  87629322.33946  21399968.734    21399975.5204
        48.300          39.1004
 131189165.227 5 102225357.36742  24964469.961    24964478.9344
        34.300          17.4004
 120355054.859 7  93783188.07944  22902806.109    22902813.2974
        44.900          29.7004
 114359422.456 7  89111254.72445  21761875.383    21761879.6484
        46.100          33.8004
 114192153.631 7  88980917.15545  21730044.578    21730048.9964
        45.300          32.6004
 127655951.572 6  99472222.22045  24292117.922    24292125.5554
        40.400          34.8004
 20  9  1  0 34  0.0000000  0  9G22G01G31G32G08G10G21G11G03
 119730359.548 7  93296398.53445  22783928.352    22783930.8954
        45.900          33.7004
 113628349.179 7  88541605.66946  21622755.039    21622763.2194
        46.600          36.8004
 108015958.708 8  84168299.95546  20554752.086    20554756.2974
        49.300          41.8004
 112514215.011 8  87673442.41146  21410743.313    21410750.1174
        49.600          38.8004
 131263527.400 5 102283301.91643  24978620.703    24978629.5164
        34.800          18.6004
 120419761.934 7  93833609.16945  22915119.461    22915126.5474
        44.800          30.8004
 114427328.381 7  89164168.38745  21774797.477    21774801.7464
        46.200          33.6004
 114227911.673 7  89008780.54545  21736849.102    21736853.5314
        44.900          32.8004
 127570024.903 6  99405266.41345  24275766.578    24275774.2074
        39.700          34.2004
 20  9  1  0 34 30.0000000  0  9G22G01G31G32G08G10G21G11G03
 119657812.593 7  93239868.46145  22770123.117    22770125.7154
        45.800          33.6004
 113577885.925 7  88502283.66346  21613152.203    21613160.3444
        46.000          36.9004
 107975061.788 8  84136432.24046  20546969.648    20546973.8524
        48.500          41.4004
 112570988.726 8  87717681.65046  21421547.000    21421553.8444
        48.400          38.7004
 131337876.089 6 102341235.83843  24992768.758    24992777.6954
        39.100          21.5004
 120484703.628 7  93884213.07545  22927477.484    22927484.6724
        43.200          31.4004
 114495599.670 7  89217366.77245  21787789.094    21787793.3594
        45.000          33.6004
 114264218.371 7  89037071.46445  21743758.039    21743762.5554
        44.600          33.3004
 127484076.211 6  99338293.43245  24259411.039    24259418.7774
        38.700          32.9004
 20  9  1  0 35  0.0000000  0  9G22G01G31G32G08G10G21G11G03
 119585347.422 7  93183402.11345  22756333.453    22756336.1134
        46.400          34.3004
 113527948.984 7  88463371.77846  21603649.523    21603657.5904
        47.000          36.9004
 107934760.358 8  84105028.54246  20539300.523    20539304.6994
        48.400          41.6004
 112627913.787 8  87762038.84746  21432379.484    21432386.3554
        49.200          38.9004
 131412208.089 5 102399156.86742  25006913.859    25006922.8134
        35.800          17.8004
 120549879.816 7  93934999.69145  22939880.109    22939887.4024
        45.400          32.0004
 114564234.471 7  89270848.41845  21800849.883    21800854.1564
        45.800          33.5004
 114301072.048 7  89065788.59545  21750771.055    21750775.6454
        46.100          32.5004
 127398106.039 6  99271303.72045  24243051.414    24243059.3754
        38.500          31.6004
 20  9  1  0 35 30.0000000  0  9G22G01G31G32G08G10G21G11G03
 119512965.490 7  93127000.61445  22742559.625    22742562.3484
        46.200          33.6004
 113478540.440 7  88424871.63246  21594247.398    21594255.3714
        46.400          36.2004
 107895056.337 8  84074090.36146  20531745.094    20531749.2504
        48.600          41.4004
 112684989.088 8  87806513.10746  21443240.555    21443247.4494
        48.300          38.9004
 131486521.031 6 102457062.98243  25021055.094    25021063.9924
        38.500          19.3004
 120615290.639 7  93985969.16245  22952327.406    22952334.7704
        44.500          32.3004
 114633230.913 7  89324611.85245  21813979.492    21813983.7854
        46.000          33.6004
 114338470.594 7  89094930.29245  21757887.781    21757892.4104
        45.300          32.6004
 127312115.395 6  99204298.07045  24226687.891    24226696.0204
        38.400          31.4004
 20  9  1  0 36  0.0000000  0  9G22G01G31G32G08G10G21G11G03
 119440668.002 7  93070664.92845  22728801.859    22728804.6254
        45.300          33.2004
 113429662.246 7  88386784.74246  21584946.180    21584954.1054
        46.700          36.3004
 107855951.426 8  84043619.01946  20524303.656    20524307.8164
        49.500          41.3004
 112742213.346 8  87851103.42946  21454129.969    21454136.8594
        49.000          38.7004
 131560811.841 6 102514951.90543  25035192.383    25035201.0744
        37.400          18.6004
 120680936.156 7  94037121.47145  22964819.359    22964826.8524
        43.800          33.0004
 114702587.122 7  89378655.63045  21827177.570    21827181.8714
        45.400          33.5004
 114376412.218 7  89124495.17945  21765107.852    21765112.4804
        45.900          32.7004
 127226105.142 6  99137277.11845  24210320.641    24210328.9534
        39.200          30.4004
 20  9  1  0 36 30.0000000  0  9G22G01G31G32G08G10G21G11G03
 119368455.541 7  93014395.49345  22715060.266    22715063.0314
        46.000          33.6004
 113381315.658 7  88349112.08446  21575746.125    21575754.1254
        46.600          36.9004
 107817445.869 8  84013614.70546  20516976.273    20516980.4344
        49.300          40.9004
 112799584.479 8  87895808.22046  21465047.336    21465054.2464
        48.800          38.6004
 131635077.445 6 102572821.12243  25049324.625    25049333.4454
        37.300          20.1004
 120746815.718 7  94088456.15845  22977355.852    22977363.3484
        44.300          32.8004
 114772300.837 7  89432977.99245  21840443.664    21840447.9574
        45.600          33.6004
 114414893.910 7  89154480.89545  21772430.688    21772435.2854
        45.600          32.2004
 127140075.411 6  99070240.96544  24193949.672    24193958.0314
        37.000          28.2004
 20  9  1  0 37  0.0000000  0  9G22G01G31G32G08G10G21G11G03
 119296330.039 7  92958193.82545  22701335.219    22701337.8914
        46.600          33.2004
 113333502.744 7  88311855.27446  21566647.609    21566655.7384
        46.000          37.6004
 107779540.918 8  83984078.39446  20509763.188    20509767.3324
        48.500          40.9004
 112857101.493 8  87940626.65946  21475992.461    21475999.3794
        49.300          38.6004
 131709315.137 6 102630668.61143  25063451.594    25063460.4534
        37.800          19.6004
 120812929.464 7  94139973.32145  22989936.906    22989944.4574
        44.600          33.3004
 114842370.149 7  89487577.43045  21853777.422    21853781.7234
        45.700          33.4004
 114453913.989 7  89184886.15145  21779855.969    21779860.5004
        45.600          32.0004
 127054027.325 6  99003190.51744  24177575.211    24177583.4654
        36.100          27.8004
 20  9  1  0 37 30.0000000  0  9G22G01G31G32G08G10G21G11G03
 119224292.961 7  92902061.06345  22687627.000    22687629.5004
        46.100          32.8004
 113286226.176 7  88275016.39146  21557651.164    21557659.3874
        46.400          37.4004
 107742239.128 8  83955012.07646  20502664.875    20502669.0084
        49.000          41.0004
 112914763.825 8  87985558.33246  21486965.242    21486972.1484
        48.000          38.7004
 131783522.844 6 102688492.75143  25077572.836    25077581.6094
        36.100          20.4004
 120879278.302 7  94191673.67345  23002562.688    23002570.2664
        45.800          32.7004
 114912793.601 7  89542452.82245  21867178.570    21867182.8554
        45.600          33.2004
 114493470.691 7  89215709.54045  21787383.367    21787387.8164
        44.700          31.6004
 126967962.449 5  98936127.01144  24161197.469    24161205.6134
        35.600          27.6004
 20  9  1  0 38  0.0000000  0  9G22G01G31G32G08G10G21G11G03
 119152345.558 7  92845998.17245  22673935.852    22673938.1884
        46.700          33.1004
 113239487.331 7  88238596.52046  21548757.047    21548765.3324
        46.100          36.9004
 107705541.364 8  83926416.43046  20495681.516    20495685.6564
        49.100          41.0004
 112972569.723 8  88030601.88246  21497965.352    21497972.2424
        49.200          38.3004
 131857697.369 6 102746291.10542  25091687.836    25091696.5554
        36.200          17.8004
 120945861.712 7  94243556.82945  23015233.133    23015240.7704
        44.900          33.2004
 114983568.973 7  89597602.43945  21880646.711    21880650.9694
        46.000          34.4004
 114533561.739 7  89246949.31345  21795012.445    21795016.7814
        45.000          31.2004
 126881881.217 5  98869050.75044  24144816.656    24144824.5634
        35.200          28.8004
 20  9  1  0 38 30.0000000  0  9G22G01G31G32G08G10G21G11G03
 119080488.964 7  92790006.04845  22660261.984    22660264.1374
        46.800          32.3004
 113193287.989 7  88202597.01746  21539965.586    21539973.8914
        46.700          36.8004
 107669448.863 8  83898292.41246  20488813.336    20488817.5004
        48.600          40.7004
 113030517.815 8  88075756.23946  21508992.523    21508999.3674
        48.800          38.6004
 131931835.543 5 102804061.01542  25105795.813    25105804.7734
        32.900          17.8004
 121012679.591 7  94295622.66645  23027948.156    23027955.8164
        44.100          30.8004
 115054694.162 7  89653024.64545  21894181.406    21894185.6604
        46.000          33.7004
 114574184.675 7  89278603.54545  21802742.734    21802747.0434
        46.000          30.6004
 126795784.337 6  98801962.36345  24128432.914    24128440.5474
        36.300          31.7004
 20  9  1  0 39  0.0000000  0  9G22G01G31G32G08G10G21G11G03
 119008723.930 7  92734085.25945  22646605.539    22646607.5704
        46.400          33.0004
 113147629.842 7  88167019.24646  21531277.125    21531285.4064
        46.200          37.3004
 107633962.872 8  83870641.00446  20482060.570    20482064.7504
        48.200          41.3004
 113088606.760 8  88121020.33646  21520046.492    21520053.2894
        48.100          37.9004
 132005935.313 6 102861800.99343  25119896.563    25119905.8754
        36.700          19.0004
 121079731.865 7  94347871.16045  23040707.781    23040715.3794
        44.100          31.2004
 115126167.139 7  89708717.84445  21907782.289    21907786.5434
        46.200          33.5004
 114615337.160 7  89310670.39945  21810573.797    21810578.1294
        45.300          31.9004
 126709672.763 6  98734862.49345  24112046.477    24112053.8164
        39.700          33.3004
 20  9  1  0 39 30.0000000  0  9G22G01G31G32G08G10G21G11G03
 118937052.167 7  92678237.15245  22632966.844    22632968.8404
        46.600          33.7004
 113102514.689 7  88131864.59146  21522691.992    21522700.1724
        46.900          37.3004
 107599084.557 7  83843463.10446  20475423.438    20475427.6214
        47.900          41.3004
 113146835.259 7  88166393.19046  21531127.023    21531133.7704
        47.300          38.1004
 132079993.267 6 102919508.49643  25133989.430    25133998.5044
        36.000          18.6004
 121147018.427 7  94400302.21144  23053511.984    23053519.5904
        42.900          29.2004
 115197985.913 7  89764680.50745  21921448.977    21921453.2424
        46.100          33.3004
 114657016.680 7  89343147.92645  21818505.156    21818509.5514
        46.500          33.0004
 126623547.347 6  98667751.80345  24095657.391    24095664.6094
        38.800          34.0004
 20  9  1  0 40  0.0000000  0  9G22G01G31G32G08G10G21G11G03
 118865475.025 7  92622462.77245  22619346.156    22619348.2074
        46.400          33.7004
 113057944.340 7  88097134.46046  21514210.547    21514218.6254
        46.700          36.9004
 107564814.834 7  83816759.43346  20468902.117    20468906.3014
        47.500          41.2004
 113205202.028 7  88211873.77446  21542233.852    21542240.5664
        46.800          37.3004
 132154006.562 5 102977181.15542  25148073.578    25148082.6484
        34.600          16.3004
 121214539.356 7  94452915.89044  23066360.789    23066368.3714
        43.500          29.5004
 115270148.324 7  89820910.93645  21935181.047    21935185.3134
        46.200          32.4004
 114699221.512 7  89376034.78945  21826536.484    21826540.9614
        46.800          33.2004
 126537408.962 6  98600631.01245  24079265.773    24079273.0514
        40.000          35.0004
 20  9  1  0 40 30.0000000  0  9G22G01G31G32G08G10G21G11G03
 118793993.991 7  92566763.28045  22605743.742    22605745.9064
        46.300          33.8004
 113013920.661 7  88062830.29946  21505833.125    21505841.1134
        47.400          36.5004
 107531155.210 8  83790531.17346  20462496.898    20462501.0984
        48.400          40.7004
 113263706.002 7  88257461.26646  21553366.781    21553373.4654
        47.500          36.9004
 132227973.120 5 103034817.33342  25162148.930    25162157.9304
        34.400          16.9004
 121282294.669 7  94505712.20844  23079254.195    23079261.8874
        43.100          29.1004
 115342652.793 7  89877407.90045  21948978.203    21948982.4774
        45.300          31.9004
 114741949.473 7  89409329.28845  21834667.367    21834671.9184
        47.000          33.3004
 126451258.608 6  98533500.90345  24062871.859    24062879.2664
        39.200          35.3004
 20  9  1  0 41  0.0000000  0  9G22G01G31G32G08G10G21G11G03
 118722610.553 7  92511139.83145  22592159.914    22592162.2194
        45.700          34.5004
 112970445.422 7  88028953.50146  21497560.047    21497567.9964
        46.300          36.6004
 107498107.119 7  83764779.42446  20456208.047    20456212.2424
        47.500          41.2004
 113322345.928 8  88303154.70446  21564525.578    21564532.2624
        48.100          37.8004
 132301889.849 6 103092414.73343  25176215.086    25176223.9024
        37.600          19.0004
 121350284.412 7  94558691.19744  23092192.211    23092199.9534
        43.500          28.7004
 115415497.256 7  89934169.78345  21962840.063    21962844.3444
        45.800          32.1004
 114785198.094 7  89443029.49745  21842897.344    21842901.9574
        46.800          33.6004
 126365097.297 6  98466362.24145  24046475.875    24046483.4144
        38.800          35.5004
 20  9  1  0 41 30.0000000  0  9G22G01G31G32G08G10G21G11G03
 118651325.511 7  92455593.05445  22578594.797    22578597.2274
        46.300          34.2004
 112927519.990 7  87995505.11746  21489391.602    21489399.5004
        46.100          37.2004
 107465671.077 7  83739504.59746  20450035.664    20450039.8404
        46.700          41.1004
 113381120.184 7  88348952.81846  21575709.953    21575716.6724
        46.800          38.4004
 132375753.736 5 103149970.95342  25190270.906    25190280.0594
        34.800          16.9004
 121418508.094 7  94611852.47844  23105174.758    23105182.5474
        43.800          28.3004
 115488679.353 7  89991194.77645  21976766.180    21976770.4494
        45.000          31.4004
 114828964.916 7  89477133.49445  21851225.922    21851230.5474
        46.000          33.3004
 126278925.540 6  98399215.46045  24030077.914    24030085.5234
        40.100          35.2004
 20  9  1  0 42  0.0000000  0  9G22G01G31G32G08G10G21G11G03
 118580140.391 7  92400124.13745  22565048.703    22565051.2114
        46.700          34.1004
 112885146.131 7  87962486.52346  21481328.109    21481335.9654
        46.300          36.7004
 107433848.387 7  83714707.71346  20443980.000    20443984.1454
        47.800          41.2004
 113440027.681 8  88394854.74846  21586919.688    21586926.4804
        49.100          38.0004
 132449562.254 6 103207484.02743  25204316.133    25204325.5044
        36.500          19.0004
 121486965.740 7  94665196.07744  23118201.828    23118209.6294
        44.300          29.2004
 115562197.277 7  90048481.43645  21990756.188    21990760.4614
        45.300          31.4004
 114873247.533 7  89511639.42045  21859652.648    21859657.2934
        47.100          33.7004
 126192744.395 6  98332061.37446  24013678.156    24013685.7274
        40.600          36.5004
 20  9  1  0 42 30.0000000  0  9G22G01G31G32G08G10G21G11G03
 118509056.683 7  92344734.23945  22551521.914    22551524.4494
        46.600          33.7004
 112843325.604 7  87929899.10546  21473369.930    21473377.7774
        46.700          37.3004
 107402640.001 7  83690389.50446  20438041.242    20438045.3524
        47.700          40.7004
 113499067.168 8  88440859.53946  21598154.539    21598161.4064
        48.800          38.0004
 132523312.604 6 103264951.79142  25218350.281    25218359.8484
        37.300          17.4004
 121555657.385 7  94718722.00545  23131273.453    23131281.2344
        44.500          30.1004
 115636048.530 7  90106027.85545  22004809.633    22004813.9144
        45.700          31.8004
 114918043.659 7  89546545.47645  21868177.086    21868181.7464
        45.800          32.7004
 126106554.837 6  98264900.73346  23997276.797    23997284.2304
        40.400          36.4004
 20  9  1  0 43  0.0000000  0 10G22G01G31G32G04G08G10G21G11G03
 118438075.545 7  92289424.27845  22538014.648    22538017.1844
        46.400          34.7004
 112802059.929 7  87897744.03746  21465517.328    21465525.1994
        47.200          37.7004
 107372046.808 8  83666550.66946  20432219.539    20432223.6214
        48.400          41.1004
 113558237.379 8  88486966.17746  21609414.258    21609421.1764
        48.900          38.1004
 132841250.030 6 103512694.06243  25278849.313    25278857.1764
        38.200          18.3004
 132597002.076 6 103322372.06743  25232373.219    25232382.8834
        37.800          22.3004
 121624582.769 7  94772430.07345  23144389.563    23144397.3244
        46.200          30.7004
 115710231.176 7  90163832.49745  22018926.133    22018930.4414
        45.000          30.9004
 114963350.865 7  89581849.78245  21876798.766    21876803.4064
        45.800          32.6004
 126020357.711 6  98197734.19546  23980874.000    23980881.3324
        41.000          37.0004
 20  9  1  0 43 30.0000000  0 10G22G01G31G32G04G08G10G21G11G03
 118367198.589 7  92234195.50045  22524527.211    22524529.7034
        46.400          33.6004
 112761350.977 7  87866022.78046  21457770.672    21457778.6214
        47.600          37.8004
 107342070.227 8  83643192.31346  20426515.188    20426519.2384
        48.200          40.0004
 113617537.275 7  88533173.88246  21620698.672    21620705.6024
        47.800          38.0004
 132758599.370 6 103448290.99442  25263121.750    25263128.6454
        36.600          17.4004
 132670628.195 6 103379742.97543  25246383.695    25246393.8444
        36.900          19.3004
 121693742.054 7  94826320.38845  23157550.188    23157557.9064
        46.000          32.4004
 115784743.285 7  90221893.85945  22033105.344    22033109.6644
        45.100          31.0004
 115009166.971 7  89617550.63145  21885517.289    21885521.8834
        45.300          31.9004
 125934154.202 6  98130562.67646  23964469.992    23964477.2734
        40.900          37.7004
 20  9  1  0 44  0.0000000  0 10G22G01G31G32G04G08G10G21G11G03
 118296427.209 7  92179048.99045  22511059.867    22511062.2624
        47.200          34.0004
 112721200.299 7  87834736.53846  21450130.258    21450138.3134
        47.700          37.3004
 107312711.275 7  83620315.21946  20420928.352    20420932.4024
        47.500          40.8004
 113676965.612 8  88579481.65846  21632007.516    21632014.4264
        48.200          37.9004
 132676069.263 6 103383981.91942  25247416.461    25247423.7194
        37.400          16.3004
 132744188.320 5 103437062.50343  25260381.797    25260392.0204
        35.800          18.6004
 121763135.083 7  94880392.82945  23170755.281    23170763.0234
        45.200          33.1004
 115859582.863 7  90280210.37545  22047346.859    22047351.1524
        43.800          30.9004
 115055489.523 7  89653646.11245  21894332.195    21894336.7584
        45.000          31.7004
 125847945.200 6  98063386.88346  23948064.945    23948072.2304
        40.200          37.9004
 20  9  1  0 44 30.0000000  0 10G22G01G31G32G04G08G10G21G11G03
 118225762.258 7  92123985.41645  22497612.766    22497615.0394
        46.700          34.0004
 112681609.058 7  87803886.22646  21442596.305    21442604.4414
        47.300          38.2004
 107283970.252 7  83597919.62846  20415459.117    20415463.1844
        46.300          40.9004
 113736520.746 8  88625888.25846  21643340.500    21643347.3874
        48.300          38.6004
 132593659.942 5 103319766.96442  25231734.523    25231741.6994
        34.200          17.4004
 132817678.831 6 103494327.76043  25274366.750    25274377.0124
        38.600          21.5004
 121832761.389 7  94934647.05845  23184004.766    23184012.5744
        45.300          31.9004
 115934747.340 7  90338780.08345  22061650.195    22061654.4774
        44.500          31.5004
 115102315.702 7  89690134.03445  21903242.938    21903247.4774
        47.000          32.4004
 125761731.291 6  97996207.27346  23931658.992    23931666.3874
        41.100          38.7004
 20  9  1  0 45  0.0000000  0 10G22G01G31G32G04G08G10G21G11G03
 118155205.530 7  92069006.16345  22484186.258    22484188.4344
        45.100          33.6004
 112642579.206 7  87773473.35446  21435169.164    21435177.3484
        46.900          37.9004
 107255848.668 7  83576006.70646  20410107.750    20410111.8484
        47.100          40.3004
 113796201.863 8  88672393.02546  21654697.445    21654704.3134
        48.700          37.7004
 132511371.970 6 103255646.59043  25216075.508    25216082.8714
        38.300          20.4004
 132891097.892 5 103551537.39342  25288338.109    25288348.3244
        34.600          16.9004
 121902621.206 7  94989083.25845  23197298.672    23197306.5634
        44.000          31.3004
 116010234.941 7  90397601.53945  22076015.039    22076019.3244
        44.700          30.5004
 115149643.470 7  89727012.81145  21912249.133    21912253.6564
        46.600          34.0004
 125675513.820 6  97929024.88346  23915252.344    23915259.8834
        40.800          38.3004
 20  9  1  0 45 30.0000000  0 11G22G01G26G31G32G04G08G10G21G11G03
 118084758.768 7  92014112.59845  22470780.664    22470782.8054
        46.000          33.6004
 112604112.364 7  87743499.19546  21427849.172    21427857.3364
        47.300          37.5004
 131567538.775 6 102520210.10743  25036470.203    25036481.7464
        38.700          20.4004
 107228347.634 7  83554577.33646  20404874.469    20404878.5824
        46.700          40.8004
 113856007.869 8  88718995.09246  21666078.164    21666085.0044
        48.100          37.9004
 132429205.721 5 103191620.98643  25200439.680    25200447.0704
        35.700          18.6004
 132964442.504 6 103608688.98743  25302295.328    25302305.3364
        37.400          21.8004
 121972714.490 7  95043701.36244  23210636.992    23210644.9304
        42.300          29.7004
 116086043.572 7  90456673.17545  22090440.977    22090445.2344
        43.500          30.4004
 115197470.413 7  89764280.55745  21921350.328    21921354.8284
        45.900          33.5004
 125589293.871 6  97861840.53746  23898845.211    23898852.8984
        40.200          38.5004
 20  9  1  0 46  0.0000000  0 11G22G01G26G31G32G04G08G10G21G11G03
 118014423.390 7  91959305.82745  22457396.258    22457398.4024
        45.600          33.8004
 112566209.710 7  87713964.66646  21420636.523    21420644.5904
        47.000          37.0004
 131486133.932 6 102456777.96143  25020979.367    25020990.2934
        36.700          19.3004
 107201467.237 8  83533631.57946  20399759.297    20399763.4184
        48.600          40.2004
 113915937.178 7  88765693.24146  21677482.328    21677489.1484
        47.700          37.2004
 132347161.041 6 103127690.24243  25184826.711    25184834.5234
        36.500          19.9004
 133037710.040 5 103665780.40042  25316237.141    25316247.7464
        34.700          17.8004
 122043040.707 7  95098500.95944  23224019.617    23224027.5474
        42.600          27.6004
 116162170.772 7  90515993.04445  22104927.531    22104931.7734
        43.400          31.0004
 115245793.742 7  89801935.09345  21930545.977    21930550.5004
        46.300          33.2004
 125503072.059 6  97794654.75946  23882437.727    23882445.5474
        41.200          38.2004
 20  9  1  0 46 30.0000000  0 11G22G01G26G31G32G04G08G10G21G11G03
 117944200.192 7  91904586.46845  22444033.203    22444035.3674
        46.100          33.8004
 112528873.093 7  87684871.20146  21413531.586    21413539.5514
        47.000          37.0004
 131404578.923 6 102393228.74343  25005459.813    25005470.7664
        37.100          20.9004
 107175208.897 7  83513170.55446  20394762.484    20394766.6054
        47.300          40.8004
 113975989.025 8  88812486.88446  21688909.813    21688916.6174
        48.300          37.3004
 132265238.910 6 103063854.88843  25169237.539    25169245.3984
        38.900          20.4004
 133110898.007 6 103722809.92543  25330164.836    25330175.0944
        37.400          18.6004
 122113600.105 6  95153482.24344  23237446.617    23237454.4924
        41.300          27.9004
 116238614.538 7  90575559.59045  22119474.313    22119478.5514
        44.400          30.2004
 115294611.196 7  89839974.65245  21939835.648    21939840.1914
        46.700          34.0004
 125416849.807 6  97727468.62146  23866030.125    23866038.0434
        41.100          37.6004
 20  9  1  0 47  0.0000000  0 11G22G01G26G31G32G04G08G10G21G11G03
 117874091.131 7  91849956.03445  22430691.867    22430694.0634
        46.100          34.8004
 112492103.934 7  87656219.91146  21406534.641    21406542.5354
        47.400          37.5004
 131322875.881 6 102329564.16443  24989912.148    24989923.0274
        37.000          19.9004
 107149573.301 8  83493194.78346  20389884.180    20389888.2774
        48.300          40.5004
 114036162.100 7  88859374.98346  21700360.359    21700367.1414
        47.600          37.1004
 132183439.389 5 103000115.13242  25153671.438    25153679.6094
        35.000          16.9004
 133184003.754 5 103779775.47342  25344076.906    25344086.5664
        34.200          14.8004
 122184392.404 7  95208645.00044  23250917.938    23250925.7584
        42.400          28.2004
 116315373.026 7  90635371.36545  22134080.984    22134085.2344
        44.700          30.7004
 115343920.132 7  89878397.17645  21949218.836    21949223.4304
        45.800          33.8004
 125330627.983 6  97660282.81046  23849622.617    23849630.5704
        38.900          36.7004
 20  9  1  0 47 30.0000000  0 11G22G01G26G31G32G04G08G10G21G11G03
 117804097.580 7  91795415.62045  22417372.516    22417374.7424
        47.000          34.4004
 112455903.407 7  87628011.71446  21399645.914    21399653.8054
        47.800          38.0004
 131241027.151 6 102265786.02842  24974336.805    24974347.5944
        37.000          17.8004
 107124560.929 8  83473704.64346  20385124.477    20385128.5394
        48.400          40.0004
 114096455.043 8  88906356.48746  21711833.734    21711840.4614
        48.200          37.2004
 132101762.687 6 102936471.05443  25138128.914    25138136.8524
        39.500          21.7004
 133257024.166 6 103836674.34542  25357971.297    25357981.6054
        38.100          16.3004
 122255417.258 7  95263988.97945  23264433.539    23264441.3754
        42.800          30.0004
 116392443.840 7  90695426.52145  22148747.086    22148751.3914
        43.200          30.0004
 115393717.894 7  89917200.61545  21958695.047    21958699.6724
        45.800          33.0004
 125244407.339 6  97593097.96646  23833215.320    23833223.3284
        39.300          37.3004
 20  9  1  0 48  0.0000000  0 11G22G01G26G31G32G04G25G10G21G11G03
 117734220.955 7  91740966.30745  22404075.422    22404077.6724
        46.800          34.0004
 112420273.205 8  87600247.92446  21392865.719    21392873.6174
        48.700          38.6004
 131159035.444 6 102201896.50343  24958734.273    24958744.9184
        37.800          18.3004
 107100172.937 8  83454701.01846  20380483.586    20380487.6294
        48.800          41.1004
 114156866.872 8  88953430.63346  21723329.734    21723336.4264
        48.900          37.7004
 132020209.010 5 102872922.93342  25122609.555    25122617.6374
        33.600          16.9004
 128937550.047 5                  24536000.023
        31.600
 122326674.678 7  95319514.21944  23277993.406    23278001.2074
        44.100          29.8004
 116469824.615 7  90755723.20945  22163472.180    22163476.4964
        44.200          30.2004
 115444002.129 7  89956383.11445  21968263.828    21968268.4844
        45.500          32.7004
 125158189.255 6  97525915.05546  23816808.523    23816816.4804
        39.400          37.1004
 20  9  1  0 48 30.0000000  0 11G22G01G26G31G32G04G25G10G21G11G03
 117664462.259 7  91686608.89245  22390800.781    22390803.0164
        47.000          34.6004
 112385214.465 8  87572929.42746  21386194.281    21386202.2274
        48.600          38.6004
 131076902.925 6 102137897.23043  24943104.992    24943115.4694
        37.900          18.6004
 107076409.518 8  83436184.07446  20375961.547    20375965.5824
        49.100          40.5004
 114217396.228 8  89000596.35946  21734848.094    21734854.7664
        49.100          37.0004
 131938778.911 6 102809470.96142  25107113.992    25107122.0204
        36.700          17.4004
 128914672.098 5 100453027.93243  24531646.063    24531655.0434
        31.800          19.3004
 122398164.282 7  95375220.37045  23291597.445    23291605.2584
        45.000          30.5004
 116547512.900 7  90816259.51145  22178255.805    22178260.1414
        43.900          30.0004
 115494770.008 7  89995942.47945  21977924.633    21977929.3204
        46.000          33.1004
 125071974.407 6  97458734.69146  23800402.320    23800410.1684
        39.200          36.7004
 20  9  1  0 49  0.0000000  0 11G22G01G26G31G32G04G25G10G21G11G03
 117594823.523 7  91632344.96345  22377548.969    22377551.1804
        46.700          35.0004
 112350728.752 7  87546057.44946  21379631.875    21379639.8874
        47.200          38.3004
 130994632.520 6 102073790.45943  24927449.305    24927459.8014
        38.700          21.3004
 107053271.756 8  83418154.65946  20371558.570    20371562.6214
        48.600          40.5004
 114278042.111 7  89047852.88046  21746388.633    21746395.2974
        47.800          36.8004
 131857472.688 5 102746115.43143  25091641.984    25091649.5124
        35.700          18.6004
 128892261.60515 100435561.76353  24527381.875    24527390.0274
        31.900          20.6004
 122469886.049 7  95431107.44745  23305245.688    23305253.5664
        45.400          30.6004
 116625507.037 7  90877034.13345  22193097.617    22193101.9344
        44.100          30.5004
 115546018.970 7  90035876.72145  21987677.000    21987681.6914
        46.100          32.4004
 124985764.094 6  97391557.83146  23783996.992    23784004.6214
        39.400          36.4004
 20  9  1  0 49 30.0000000  0 11G22G01G26G31G32G04G25G10G21G11G03
 117525306.002 7  91578175.47445  22364320.219    22364322.4024
        46.300          34.0004
 112316817.527 7  87519633.11246  21373178.789    21373186.8404
        46.600          38.4004
 130912226.672 6 102009578.23243  24911767.875    24911778.4224
        38.800          20.9004
 107030760.458 8  83400613.39946  20367274.805    20367278.8674
        48.600          40.6004
 114338803.463 7  89095199.38646  21757951.141    21757957.8244
        47.500          37.8004
 131776290.625 5 102682856.82742  25076193.313    25076201.0314
        32.300          16.9004
 128870324.462 5 100418467.89243  24523207.273    24523215.4494
        32.900          21.5004
 122541839.833 7  95487175.30145  23318938.102    23318946.0044
        46.000          31.0004
 116703804.889 7  90938045.40544  22207997.250    22208001.5204
        45.000          29.8004
 115597746.343 7  90076183.74445  21997520.414    21997525.0554
        45.300          32.2004
 124899559.414 6  97324385.39846  23767592.758    23767600.1374
        39.900          36.3004
 20  9  1  0 50  0.0000000  0 11G22G01G26G31G32G04G25G10G21G11G03
 117455910.789 7  91524101.28645  22351114.742    22351116.8714
        46.100          34.3004
 112283481.885 7  87493657.29446  21366835.227    21366843.3094
        46.900          37.9004
 130829687.736 6 101945262.29743  24896061.117    24896071.7194
        38.800          21.8004
 107008875.806 8  83383560.43846  20363110.289    20363114.3594
        48.200          40.9004
 114399678.913 7  89142634.79046  21769535.359    21769542.1054
        47.700          36.9004
 131695232.735 6 102619694.93343  25060768.273    25060776.0274
        38.000          18.3004
 128848860.175 5 100401742.50143  24519122.711    24519130.7704
        33.400          21.8004
 122614025.165 7  95543423.60245  23332674.570    23332682.3984
        46.200          31.4004
 116782403.867 7  90999291.33844  22222954.164    22222958.3754
        45.100          29.7004
 115649949.666 7  90116861.64645  22007454.391    22007459.0394
        45.500          32.4004
 124813361.164 6  97257217.96146  23751189.742    23751196.8794
        40.200          36.0004
 20  9  1  0 50 30.0000000  0 11G22G01G26G31G32G04G25G10G21G11G03
 117386639.546 7  91470123.71145  22337932.852    22337934.9574
        46.500          34.6004
 112250723.077 7  87468130.95746  21360601.422    21360609.5204
        46.900          38.1004
 130747018.175 6 101880844.58343  24880329.516    24880340.1174
        36.900          20.9004
 106987618.327 8  83366996.17746  20359065.109    20359069.1884
        48.000          40.5004
 114460667.289 8  89190158.19046  21781141.086    21781147.8874
        48.500          37.3004
 131614299.504 5 102556630.04342  25045367.305    25045374.8324
        35.400          17.4004
 128827870.512 5 100385386.89643  24515128.547    24515136.4964
        34.300          21.7004
 122686441.841 7  95599852.15345  23346455.070    23346462.9494
        46.000          32.2004
 116861301.629 7  91060770.08245  22237967.930    22237972.1454
        43.900          30.4004
 115702626.096 7  90157908.20845  22017478.406    22017483.0434
        46.100          32.1004
 124727170.387 6  97190056.36646  23734788.156    23734795.1054
        39.900          36.2004
 20  9  1  0 51  0.0000000  0 11G22G01G26G31G32G04G25G10G21G11G03
 117317494.100 7  91416244.15545  22324774.883    22324776.9964
        45.500          34.6004
 112218542.817 7  87443055.42246  21354477.711    21354485.8164
        46.000          37.4004
 130664220.932 5 101816327.42243  24864573.688    24864584.2424
        35.700          20.6004
 106966989.301 7  83350921.62146  20355139.523    20355143.5904
        47.900          40.8004
 114521767.888 7  89237769.04046  21792768.156    21792775.0124
        47.200          36.6004
 131533491.179 6 102493662.68643  25029989.695    25029997.8134
        36.900          20.6004
 128807357.706 5 100369402.92344  24511225.109    24511233.1414
        34.600          25.5004
 122759090.032 7  95656461.10345  23360279.609    23360287.4614
        46.000          30.6004
 116940496.271 7  91122480.16045  22253038.195    22253042.4344
        43.900          30.2004
 115755773.390 7  90199321.68045  22027592.016    22027596.6484
        45.500          32.6004
 124640988.638 6  97122901.79045  23718388.289    23718395.1804
        39.400          35.9004
 20  9  1  0 51 30.0000000  0 11G22G01G26G31G32G04G25G10G21G11G03
 117248475.524 7  91362463.44745  22311641.070    22311643.2154
        45.800          34.7004
 112186941.927 7  87418431.35646  21348464.258    21348472.3284
        46.000          37.6004
 130581298.181 5 101751712.42643  24848793.922    24848804.4734
        35.000          19.3004
 106946988.630 8  83335336.69046  20351333.516    20351337.5744
        48.800          41.1004
 114582979.091 7  89285466.08346  21804416.273    21804423.1804
        47.200          36.6004
 131452807.921 6 102430792.69743  25014636.297    25014644.3444
        37.400          23.6004
 128787322.966 5 100353791.44844  24507412.625    24507420.7624
        33.900          24.5004
 122831969.084 7  95713249.94844  23374148.063    23374155.8634
        43.900          29.4004
 117019985.145 7  91184419.50345  22268164.453    22268168.7234
        43.800          30.0004
 115809388.363 7  90241099.56845  22037794.617    22037799.3054
        45.900          32.3004
 124554816.471 6  97055754.68545  23701990.250    23701997.2114
        38.900          35.5004
 20  9  1  0 52  0.0000000  0 11G22G01G26G31G32G04G25G10G21G11G03
 117179585.842 7  91308783.18045  22298531.773    22298533.9844
        46.900          35.6004
 112155922.322 7  87394260.24246  21342561.414    21342569.4104
        47.400          37.3004
 130498253.104 6 101687002.10943  24832990.711    24833001.4144
        36.500          19.6004
 106927617.643 8  83320242.41946  20347647.328    20347651.3674
        48.400          41.1004
 114644300.513 7  89333249.00346  21816085.344    21816092.2974
        46.600          36.6004
 131372250.539 6 102368020.71443  24999306.750    24999314.7734
        36.600          18.6004
 128767768.715 5 100338554.40943  24503691.625    24503699.8444
        33.900          22.8004
 122905079.349 7  95770218.98344  23388060.508    23388068.3404
        42.300          27.9004
 117099766.747 7  91246586.93544  22283346.414    22283350.6524
        44.500          29.9004
 115863469.052 7  90283240.34445  22048085.836    22048090.5984
        45.100          31.0004
 124468655.741 6  96988616.47346  23685594.383    23685601.5004
        40.200          36.5004
 20  9  1  0 52 30.0000000  0 11G22G01G26G31G32G04G25G10G21G11G03
 117110826.142 7  91255204.20145  22285447.242    22285449.5554
        46.900          35.8004
 112125484.608 7  87370542.55146  21336769.320    21336777.2344
        47.500          38.0004
 130415087.675 5 101622197.98643  24817164.578    24817175.4454
        35.700          19.6004
 106908876.026 8  83305638.57146  20344080.914    20344084.9344
        48.600          40.9004
 114705730.438 7  89381116.47046  21827775.063    21827782.0274
        46.800          36.1004
 131291818.674 5 102305346.62643  24984001.039    24984008.8524
        35.200          20.9004
 128748696.037 5 100323692.60743  24500062.195    24500070.5824
        34.300          23.4004
 122978420.070 7  95827367.56644  23402016.797    23402024.6804
        42.600          27.3004
 117179838.308 7  91308980.33745  22298583.570    22298587.7934
        45.100          30.4004
 115918012.042 7  90325741.35545  22058465.023    22058469.7544
        45.400          31.0004
 124382506.913 6  96921487.51245  23669200.789    23669208.0274
        40.100          35.5004
 20  9  1  0 53  0.0000000  0 11G22G01G26G31G32G04G25G10G21G11G03
 117042198.301 7  91201727.96446  22272387.797    22272390.1914
        47.100          36.1004
 112095630.351 7  87347279.49846  21331088.242    21331096.1024
        47.500          38.1004
 130331804.825 6 101557302.41143  24801316.320    24801327.2234
        36.100          19.9004
 106890764.607 8  83291525.78346  20340634.422    20340638.4304
        48.900          40.9004
 114767268.169 7  89429067.93746  21839485.297    21839492.2584
        46.600          36.4004
 131211513.028 6 102242770.86743  24968719.453    24968727.3054
        36.700          19.3004
 128730107.003 5 100309207.69644  24496524.688    24496533.2344
        33.800          24.0004
 123051991.288 6  95884695.75744  23416016.945    23416024.8484
        40.900          26.4004
 117260197.540 7  91371597.88344  22313875.469    22313879.6884
        44.900          29.3004
 115973014.901 7  90368600.70445  22068931.719    22068936.4694
        45.600          31.2004
 124296371.506 6  96854369.00446  23652809.750    23652817.1484
        39.000          36.0004
 20  9  1  0 53 30.0000000  0 11G22G01G26G31G32G04G25G10G21G11G03
 116973703.778 7  91148355.61946  22259353.727    22259356.1954
        47.600          36.5004
 112066360.957 7  87324472.18946  21325518.469    21325526.3094
        47.500          38.1004
 130248407.423 6 101492317.56843  24785446.297    24785457.1804
        37.600          22.2004
 106873284.213 8  83277904.70746  20337308.008    20337311.9964
        49.500          40.9004
 114828912.736 7  89477102.65346  21851215.859    21851222.7974
        47.300          36.2004
 131131333.895 5 102180293.73743  24953461.609    24953469.7814
        33.900          18.3004
 128712003.371 5 100295100.98044  24493079.539    24493087.9414
        32.500          24.7004
 123125792.956 6  95942203.51344  23430060.930    23430068.8014
        39.900          24.8004
 117340842.528 7  91434438.10844  22329221.734    22329225.9384
        44.700          29.7004
 116028475.344 7  90411816.60945  22079485.484    22079490.1884
        45.700          31.6004
 124210250.665 6  96787261.89045  23636421.453    23636429.0274
        37.900          35.4004
 20  9  1  0 54  0.0000000  0 11G22G01G26G31G32G04G25G10G21G11G03
 116905343.684 7  91095088.02246  22246345.234    22246347.7234
        47.600          36.3004
 112037676.848 7  87302120.93246  21320060.063    21320067.9104
        46.800          38.8004
 130164897.333 6 101427244.90643  24769554.891    24769565.6214
        38.000          22.3004
 106856434.451 8  83264775.02646  20334101.602    20334105.5744
        48.800          41.1004
 114890662.489 7  89525219.33945  21862966.453    21862973.3714
        47.200          35.9004
 131051280.981 6 102117914.90142  24938227.891    24938236.1024
        37.200          17.8004
 128694386.208 5 100281373.35244  24489727.055    24489735.1334
        34.100          26.0004
 123199824.182 6  95999890.13244  23444148.594    23444156.3794
        39.600          25.6004
 117421770.391 7  91497498.75144  22344621.828    22344626.0164
        45.000          29.8004
 116084389.970 7  90455386.42945  22090125.695    22090130.3834
        45.500          30.9004
 124124145.153 6  96720166.70146  23620036.078    23620043.7734
        39.400          36.5004
 20  9  1  0 54 30.0000000  0 11G22G01G26G31G32G04G25G10G21G11G03
 116837119.595 8  91041926.41045  22233362.617    22233365.0704
        48.100          34.9004
 112009579.403 7  87280226.81346  21314713.281    21314721.1994
        46.400          37.8004
 130081277.575 6 101362086.76043  24753642.578    24753653.1604
        38.300          21.8004
 106840215.964 8  83252137.25546  20331015.313    20331019.2894
        49.500          40.6004
 114952516.550 7  89573417.29446  21874736.898    21874743.7624
        47.100          36.0004
 130971354.760 6 102055634.74843  24923018.563    24923026.3754
        36.700          20.6004
 128677257.310 5 100268026.18944  24486467.523    24486475.8914
        34.500          24.6004
 123274084.846 6  96057755.56244  23458279.930    23458287.6954
        41.000          25.1004
 117502978.820 7  91560777.99044  22360075.313    22360079.4924
        44.100          28.6004
 116140756.049 7  90499308.02845  22100851.813    22100856.4614
        45.500          30.9004
 124038056.095 6  96653084.33046  23603653.828    23603661.6374
        39.100          36.6004
 20  9  1  0 55  0.0000000  0 11G22G01G26G31G32G04G25G10G21G11G03
 116769032.968 7  90988871.90645  22220406.148    22220408.4844
        47.200          35.9004
 111982069.752 7  87258790.71346  21309478.352    21309486.3484
        46.600          39.0004
 129997550.697 6 101296845.20143  24737709.773    24737720.3324
        37.400          23.0004
 106824629.098 8  83239991.64946  20328049.227    20328053.2074
        49.500          41.6004
 115014473.889 7  89621695.73446  21886527.008    21886533.7974
        47.800          36.5004
 130891555.440 5 101993453.55543  24907833.086    24907841.1094
        35.700          18.3004
 128660618.302 5 100255060.73344  24483301.242    24483309.4184
        34.500          24.9004
 123348574.696 7  96115799.57844  23472454.883    23472462.6764
        42.600          26.2004
 117584466.051 7  91624274.51544  22375581.859    22375586.0594
        45.100          29.6004
 116197570.448 7  90543578.95945  22111663.242    22111667.8984
        45.400          31.2004
 123951984.763 6  96586015.80946  23587274.969    23587282.8874
        40.600          37.7004
 20  9  1  0 55 30.0000000  0 11G22G01G26G31G32G04G25G10G21G11G03
 116701085.928 8  90935926.17745  22207476.250    22207478.4534
        48.000          34.9004
 111955149.193 7  87237813.64746  21304355.531    21304363.5824
        46.900          38.4004
 129913719.478 5 101231522.34143  24721757.023    24721767.6214
        35.000          20.4004
 106809674.293 8  83228338.56546  20325203.414    20325207.4104
        49.100          41.2004
 115076533.644 7  89670053.97745  21898336.602    21898343.3204
        47.600          35.0004
 130811883.373 6 101931371.53643  24892671.906    24892679.8444
        39.000          19.9004
 128644470.932 5 100242478.38943  24480228.563    24480236.5784
        34.300          22.6004
 123423293.571 7  96174022.04744  23486673.445    23486681.1764
        43.500          24.2004
 117666229.229 7  91687986.05144  22391140.898    22391145.0944
        44.600          29.3004
 116254831.035 7  90588197.58045  22122559.586    22122564.2544
        45.500          32.0004
 123865932.586 6  96518962.16546  23570899.773    23570907.7074
        40.900          38.0004
 20  9  1  0 56  0.0000000  0 11G22G01G26G31G32G04G25G10G21G11G03
 116633279.523 8  90883090.03945  22194573.102    22194575.2074
        48.200          35.3004
 111928818.493 7  87217296.20846  21299344.961    21299353.0044
        47.000          38.4004
 129829786.354 6 101166120.05343  24705784.953    24705795.4774
        36.600          22.6004
 106795351.558 8  83217178.00046  20322477.883    20322481.8874
        48.900          41.3004
 115138694.505 7  89718490.99846  21910165.438    21910172.1134
        47.100          36.1004
 130732338.629 6 101869388.59043  24877535.086    24877542.6644
        36.200          19.0004
 128628816.516 5 100230280.17444  24477249.641    24477257.6174
        34.600          24.6004
 123498240.977 7  96232422.61744  23500935.500    23500943.1884
        43.600          27.1004
 117748265.950 7  91751910.74544  22406752.000    22406756.1764
        44.300          27.9004
 116312534.761 7  90633161.49345  22133540.250    22133544.9304
        45.200          31.5004
 123779900.333 6  96451924.10046  23554528.375    23554536.2854
        41.600          38.7004
 20  9  1  0 56 30.0000000  0 11G22G01G26G31G32G04G25G10G21G11G03
 116565615.872 7  90830365.13445  22181697.125    22181699.1764
        47.800          35.7004
 111903079.278 7  87197239.67746  21294446.945    21294454.9574
        47.000          37.5004
 129745754.552 6 101100640.89043  24689794.055    24689804.6454
        36.100          22.3004
 106781661.780 8  83206510.65246  20319872.797    20319876.8134
        48.800          40.9004
 115200956.043 7  89767006.47245  21922013.422    21922020.0784
        46.800          35.8004
 130652921.869 6 101807505.55343  24862422.500    24862430.1994
        38.100          20.9004
 128613657.173 5 100218467.73444  24474364.891    24474373.2544
        32.900          24.0004
 123573417.206 7  96291001.47144  23515241.109    23515248.7934
        44.400          28.0004
 117830574.826 7  91816047.48444  22422414.891    22422419.0664
        45.100          29.2004
 116370679.233 7  90678468.84845  22144604.789    22144609.4964
        45.500          31.8004
 123693889.908 6  96384903.02146  23538161.133    23538168.9414
        41.400          38.4004
 20  9  1  0 57  0.0000000  0 11G22G01G26G31G32G04G25G10G21G11G03
 116498096.131 7  90777752.36946  22168848.547    22168850.6094
        47.800          36.1004
 111877932.026 7  87177644.42046  21289661.586    21289669.5394
        47.600          38.4004
 129661626.148 6 101035086.46944  24673784.867    24673795.4104
        37.700          24.1004
 106768604.724 8  83196336.33046  20317388.117    20317392.1334
        49.300          41.6004
 115263316.650 7  89815599.14045  21933880.266    21933886.9264
        45.600          35.7004
 130573632.880 6 101745722.02342  24847334.273    24847342.0664
        37.800          17.8004
 128598993.857 5 100207041.78543  24471574.523    24471582.8714
        33.300          22.6004
 123648821.294 7  96349757.88444  23529590.086    23529597.7504
        44.100          28.1004
 117913152.923 7  91880394.01244  22438129.008    22438133.2154
        44.900          29.4004
 116429260.947 7  90724116.90545  22155752.539    22155757.2584
        44.200          31.4004
 123607901.939 6  96317899.42246  23521798.156    23521805.7814
        40.800          38.6004
 20  9  1  0 57 30.0000000  0 11G22G01G26G31G32G04G25G10G21G11G03
 116430721.817 7  90725252.91746  22156027.641    22156029.7854
        47.700          36.6004
 111853377.556 7  87158511.07246  21284989.039    21284996.9224
        47.300          38.3004
 129577403.728 6 100969458.71643  24657757.938    24657768.2624
        38.200          23.8004
 106756180.289 8  83186654.96346  20315023.820    20315027.8284
        48.500          40.9004
 115325775.243 7  89864268.14845  21945765.750    21945772.3834
        46.600          35.8004
 130494471.826 6 101684038.08442  24832270.391    24832278.0904
        36.600          17.8004
                                  24468878.719
        32.600          22.6004
 123724452.905 7  96408691.58144  23543982.359    23543990.0704
        42.700          29.7004
 117995997.552 7  91944948.24544  22453893.852    22453898.0704
        45.000          29.4004
 116488277.207 7  90770103.57845  22166982.984    22166987.6844
        46.300          31.2004
 123521937.438 6  96250914.13346  23505439.633    23505447.0824
        40.500          37.9004
 20  9  1  0 58  0.0000000  0 11G22G01G26G31G32G04G25G10G21G11G03
 116363494.845 7  90672868.27246  22143234.773    22143237.0434
        47.900          36.4004
 111829417.199 7  87139840.66546  21280429.539    21280437.3794
        47.500          37.5004
 129493090.246 6 100903760.02643  24641713.578    24641723.8364
        37.200          22.9004
 106744389.003 8  83177466.95446  20312780.008    20312784.0084
        48.600          41.6004
 115388331.093 7  89913012.95045  21957669.734    21957676.3634
        46.300          35.7004
 130415439.021 6 101622454.22443  24817230.820    24817238.7274
        39.800          22.2004
 128571161.095 5 100185353.96943  24466277.945    24466286.7154
        30.800          21.7004
 123800311.983 6  96467802.53644  23558417.898    23558425.6484
        41.600          28.1004
 118079107.057 7  92009708.86444  22469709.102    22469713.3204
        44.700          29.2004
 116547725.319 7  90816426.76745  22178295.609    22178300.2624
        45.800          30.9004
 123435998.006 6  96183948.36946  23489085.883    23489093.1804
        41.500          38.1004
 20  9  1  0 58 30.0000000  0 11G22G01G26G31G32G04G25G10G21G11G03
 116296416.514 7  90620599.46046  22130470.172    22130472.5784
        47.800          36.3004
 111806051.796 7  87121633.86046  21275983.250    21275991.0864
        47.800          37.8004
 129408688.333 6 100837992.40043  24625652.258    24625662.5744
        37.700          22.2004
 106733230.912 8  83168772.34746  20310656.680    20310660.6844
        48.300          41.0004
 115450983.102 7  89961832.69546  21969592.023    21969598.6914
        47.200          36.1004
 130336534.666 6 101560970.36843  24802215.820    24802223.7384
        39.200          20.9004
 128557994.784 5 100175094.54643  24463772.289    24463780.9344
        32.000          21.8004
 123876398.168 6  96527090.44444  23572896.625    23572904.4454
        41.800          27.6004
 118162478.506 7  92074673.59844  22485574.180    22485578.4534
        44.300          29.3004
 116607602.309 7  90863084.14945  22189689.836    22189694.4454
        45.800          30.7004
 123350084.717 6  96117002.95946  23472737.102    23472744.3204
        39.600          38.2004
 20  9  1  0 59  0.0000000  0 11G22G01G26G31G32G04G25G10G21G11G03
 116229488.775 7  90568447.97246  22117734.234    22117736.7344
        47.000          36.6004
 111783282.490 7  87103891.54046  21271650.398    21271658.2464
        47.600          37.5004
 129324200.973 5 100772158.12543  24609574.742    24609585.0204
        35.700          20.1004
 106722706.466 8  83160571.49046  20308653.945    20308657.9534
        48.500          41.4004
 115513730.532 7  90010726.78046  21981532.477    21981539.1844
        47.500          36.3004
 130257759.164 6 101499586.90643  24787225.281    24787233.0784
        37.900          19.9004
 128545330.687 5 100165226.42543  24461362.477    24461371.1644
        32.900          21.1004
 123952711.275 7  96586555.15344  23587418.531    23587426.3954
        42.000          28.5004
 118246109.581 7  92139840.66044  22501488.680    22501493.0124
        43.100          27.9004
 116667905.466 7  90910073.60845  22201165.172    22201169.7624
        46.000          30.9004
 123264199.093 6  96050079.13546  23456393.594    23456400.8444
        40.600          38.8004
 20  9  1  0 59 30.0000000  0 11G22G01G26G31G32G04G25G10G21G11G03
 116162712.855 7  90516414.79646  22105027.188    22105029.7274
        47.400          36.1004
 111761110.024 7  87086614.29446  21267431.102    21267439.0164
        47.500          38.1004
 129239630.655 5 100706259.24043  24593481.430    24593491.5274
        35.200          19.0004
 106712815.646 8  83152864.36446  20306771.773    20306775.7774
        48.600          41.0004
 115576572.255 7  90059694.35346  21993490.859    21993497.6254
        47.200          36.1004
 130179112.590 6 101438303.93843  24772259.289    24772267.1954
        38.100          20.4004
                                  24459048.516
        31.200          20.9004
 124029250.760 7  96646196.27944  23601983.539    23601991.4654
        42.500          29.1004
 118329998.226 7  92205208.41044  22517452.172    22517456.5274
        42.400          28.1004
 116728631.862 7  90957392.86745  22212721.039    22212725.5824
        46.400          30.7004
 123178342.272 6  95983177.75646  23440055.555    23440062.7854
        40.600          39.1004
 20  9  1  1  0  0.0000000  0 11G22G01G26G31G32G04G25G10G21G11G03
 116096090.413 7  90464501.20945  22092349.352    22092351.8484
        46.200          35.5004
 111739534.970 8  87069802.55046  21263325.500    21263333.4654
        48.200          38.3004
 129154979.911 5 100640297.65643  24577372.875    24577382.8914
        34.100          18.6004
 106703558.227 8  83145650.80246  20305010.141    20305014.1524
        48.000          40.9004
 115639506.994 7  90108734.39845  22005466.953    22005473.7854
        45.000          35.3004
 130100594.798 6 101377121.33543  24757317.867    24757325.7504
        37.800          21.1004
 128521513.851 5 100146667.89443  24456830.555    24456838.9344
        32.200          19.6004
 124106016.068 7  96706013.34544  23616591.523    23616599.4144
        43.300          29.1004
 118414141.984 6  92270774.94044  22533464.219    22533468.6374
        41.400          28.1004
 116789778.359 7  91005039.48945  22224356.844    22224361.4304
        43.700          31.2004
 123092515.135 6  95916299.49946  23423723.172    23423730.3524
        40.900          39.9004
 20  9  1  1  0 30.0000000  0 11G22G01G26G31G32G04G25G10G21G11G03
 116029623.170 7  90412708.56245  22079701.055    22079703.4224
        46.800          35.2004
 111718558.525 8  87053457.26246  21259333.820    21259341.8164
        48.000          38.1004
 129070251.718 5 100574275.72443  24561249.578    24561259.4694
        34.400          19.0004
 106694934.601 8  83138931.10046  20303369.109    20303373.1334
        48.000          41.3004
 115702534.148 7  90157846.45145  22017460.625    22017467.5434
        46.000          35.4004
 130022206.264 6 101316039.43243  24742400.898    24742408.9144
        38.700          19.3004
 128510363.916 5 100137979.63943  24454708.844    24454717.2814
        32.800          19.6004
 124183007.141 7  96766006.34645  23631242.477    23631250.4024
        43.800          30.2004
 118498538.269 6  92336538.23144  22549524.305    22549528.8364
        41.600          26.8004
 116851342.442 7  91053011.48045  22236072.117    22236076.6884
        43.500          30.9004
 123006719.355 6  95849445.70046  23407396.773    23407403.9024
        41.900          40.1004
 20  9  1  1  1  0.0000000  0 11G22G01G26G31G32G04G25G10G21G11G03
 115963312.168 7  90361037.66145  22067082.492    22067084.6994
        47.300          35.5004
 111698180.856 8  87037578.56046  21255456.078    21255464.0904
        48.900          39.4004
 128985448.202 5 100508195.14542  24545112.008    24545121.8244
        34.200          17.8004
 106686944.015 8  83132704.67846  20301848.555    20301852.5784
        48.600          40.8004
 115765652.137 7  90207029.28445  22029471.578    22029478.5634
        47.300          35.4004
 129943946.625 6 101255057.95643  24727508.570    24727516.2854
        37.800          20.4004
 128499720.858 5 100129686.33843  24452683.484    24452691.9924
        33.100          20.1004
 124260222.937 7  96826174.45045  23645936.164    23645944.1914
        43.800          30.7004
 118583183.826 6  92402495.78644  22565631.836    22565636.4534
        40.000          26.9004
 116913320.467 7  91101306.04245  22247866.156    22247870.7624
        44.800          32.2004
 122920955.550 6  95782616.77346  23391076.453    23391083.5944
        40.900          40.0004
 20  9  1  1  1 30.0000000  0 11G22G01G26G31G32G04G25G10G21G11G03
 115897160.081 7  90309490.59745  22054494.164    22054496.2034
        47.300          35.2004
 111678403.607 8  87022167.71746  21251692.602    21251700.6024
        49.000          38.9004
 128900573.105 5 100442058.78843  24528960.766    24528970.5164
        34.600          19.0004
 106679587.225 8  83126972.12146  20300448.594    20300452.6094
        48.300          40.9004
 115828860.795 7  90256282.78646  22041499.797    22041506.8094
        47.800          36.2004
 129865816.798 6 101194177.62042  24712640.828    24712648.6604
        37.500          17.8004
 128489586.941 5 100121789.81343  24450754.953    24450763.5084
        34.300          20.6004
 124337663.932 7  96886518.06545  23660672.719    23660680.7624
        44.200          31.1004
 118668077.564 6  92468646.71344  22581786.594    22581791.3164
        40.900          26.4004
 116975709.976 7  91149921.22845  22259738.500    22259743.1484
        45.800          32.3004
 122835225.867 7  95715814.45646  23374762.625    23374769.8524
        42.100          40.1004
 20  9  1  1  2  0.0000000  0 11G22G01G26G31G32G04G25G10G21G11G03
 115831167.680 7  90258067.96145  22041936.227    22041938.1374
        47.300          34.8004
 111659226.897 8  87007224.83646  21248043.406    21248051.3834
        48.700          39.2004
 128815628.461 5 100375868.24043  24512796.266    24512805.9964
        35.000          19.6004
 106672863.457 7  83121732.82846  20299169.102    20299173.1214
        47.600          40.8004
 115892158.596 7  90305605.72946  22053544.977    22053551.9804
        47.900          36.0004
 129787816.304 6 101133398.12543  24697797.766    24697805.5634
        39.600          19.6004
 128479962.722 5 100114290.41143  24448923.477    24448932.0084
        34.300          20.1004
 124415329.095 7  96947036.35645  23675451.938    23675460.0274
        44.100          30.6004
 118753216.457 6  92534988.65844  22597988.000    22597992.7664
        40.500          25.2004
 117038507.804 7  91198854.59145  22271688.555    22271693.2934
        45.900          31.6004
 122749530.926 6  95649039.21046  23358455.406    23358462.7704
        40.500          39.6004
 20  9  1  1  2 30.0000000  0 11G22G01G26G31G32G04G25G10G21G11G03
 115765337.079 7  90206771.39945  22029409.078    22029410.9264
        47.200          35.8004
 111640651.846 8  86992750.77246  21244508.695    21244516.6334
        49.200          38.4004
 128730617.366 6 100309625.95043  24496619.117    24496628.8954
        37.100          21.7004
 106666773.316 7  83116987.27046  20298010.180    20298014.1914
        47.800          41.1004
 115955544.951 7  90354997.69546  22065607.008    22065614.0004
        47.600          36.4004
 129709945.680 6 101072719.76143  24682979.398    24682987.0234
        37.900          19.9004
 128470849.935 5 100107189.56743  24447189.422    24447197.7894
        34.400          19.9004
 124493218.381 7  97007729.28744  23690273.813    23690281.8674
        44.900          29.4004
 118838598.450 6  92601520.05044  22614235.664    22614240.4574
        39.900          25.8004
 117101710.997 7  91248103.81545  22283715.750    22283720.5514
        45.100          31.7004
 122663872.406 6  95582292.34446  23342155.102    23342162.5474
        40.600          38.8004
 20  9  1  1  3  0.0000000  0 11G22G01G26G31G32G04G25G10G21G11G03
 115699669.891 7  90155602.16145  22016913.016    22016914.8834
        47.500          35.6004
 111622679.212 8  86978746.12846  21241088.617    21241096.5124
        48.800          37.9004
 128645542.691 5 100243334.09143  24480430.039    24480439.7664
        35.900          20.1004
 106661316.644 8  83112735.32346  20296971.805    20296975.8164
        48.600          40.6004
 116019018.963 7  90404457.95346  22077685.727    22077692.7464
        47.600          36.1004
 129632205.233 6 101012142.88243  24668185.867    24668193.5984
        39.100          20.4004
 128462249.732 5 100100488.10443  24445552.945    24445561.0944
        34.200          19.9004
 124571331.416 7  97068596.55145  23705138.273    23705146.2544
        44.600          30.0004
 118924221.151 6  92668238.99444  22630529.133    22630533.8834
        40.500          25.6004
 117165316.612 7  91297666.61045  22295819.508    22295824.3134
        45.100          31.5004
 122578251.663 7  95515574.92446  23325862.000    23325869.4264
        42.700          38.8004
 20  9  1  1  3 30.0000000  0 11G22G01G26G31G32G04G25G10G21G11G03
 115634167.648 7  90104561.45546  22004448.336    22004450.3324
        46.500          36.1004
 111605309.575 8  86965211.34546  21237783.281    21237791.1334
        48.300          37.9004
 128560407.094 5 100176994.81043  24464229.164    24464239.0004
        35.900          20.6004
 106656493.294 7  83108976.87146  20296053.945    20296057.9574
        47.400          41.0004
 116082579.719 8  90453985.79845  22089780.945    22089788.0354
        48.000          35.9004
 129554594.945 6 100951667.35943  24653417.094    24653424.5904
        40.200          21.3004
 128454163.387 5 100094187.04343  24444014.234    24444022.1054
        34.900          20.6004
 124649667.745 7  97129637.80444  23720045.227    23720053.0904
        44.200          28.8004
 119010082.346 6  92735143.76544  22646868.008    22646872.7074
        41.600          25.5004
 117229322.279 7  91347541.12945  22307999.398    22308004.2074
        44.900          31.5004
 122492669.986 6  95448887.93546  23309576.336    23309583.6564
        41.700          39.5004
 20  9  1  1  4  0.0000000  0 11G22G01G26G31G32G04G25G10G21G11G03
 115568831.447 7  90053650.12946  21992015.250    21992017.3914
        45.400          36.3004
 111588543.237 7  86952146.67246  21234592.750    21234600.5634
        47.600          37.9004
 128475212.972 5 100110609.90843  24448017.000    24448027.0044
        35.900          19.0004
 106652302.474 7  83105711.30346  20295256.445    20295260.4844
        46.800          41.1004
 116146225.864 8  90503580.18445  22101892.422    22101899.5394
        48.400          35.8004
 129477114.575 6 100891293.14543  24638672.992    24638680.6024
        38.800          19.6004
 128446591.719 5 100088287.03843  24442573.445    24442581.2584
        34.600          22.2004
 124728226.507 7  97190852.41544  23734994.492    23735002.2774
        43.700          26.1004
 119096178.796 6  92802231.87344  22663251.664    22663256.2894
        41.700          27.3004
 117293724.099 7  91397724.35645  22320254.680    22320259.4614
        45.600          31.3004
 122407128.341 6  95382232.13146  23293298.289    23293305.4774
        41.600          39.1004
 20  9  1  1  4 30.0000000  0 11G22G01G26G31G32G04G25G10G21G11G03
 115503663.971 7  90002870.28046  21979614.273    21979616.5594
        46.400          37.1004
 111572381.884 8  86939553.40946  21231517.344    21231525.1214
        48.300          37.7004
 128389964.138 5 100044182.38443  24431794.516    24431804.5704
        35.600          18.6004
 106648745.219 7  83102939.41846  20294579.516    20294583.5634
        47.000          41.3004
 116209957.543 7  90553241.22446  22114020.180    22114027.2814
        47.000          36.5004
 129399765.335 6 100831020.97143  24623953.953    24623961.2274
        38.500          20.4004
 128439536.862 5 100082789.73743  24441230.945    24441238.9144
        33.700          22.9004
 124807008.340 7  97252240.84744  23749986.203    23749994.0004
        42.800          25.7004
 119182509.117 7  92869502.22544  22679679.813    22679684.4024
        42.200          26.5004
 117358520.083 7  91448214.70145  22332584.953    22332589.7624
        44.100          31.6004
 122321629.072 7  95315609.33546  23277028.320    23277035.3874
        42.000          39.2004
 20  9  1  1  5  0.0000000  0 11G22G01G26G31G32G04G25G10G21G11G03
 115438665.945 7  89952222.46446  21967245.555    21967247.9534
        46.900          37.4004
 111556824.796 8  86927431.00446  21228556.922    21228564.6914
        48.100          38.3004
 128304662.203 6  99977713.39743  24415562.023    24415571.9924
        36.200          19.3004
 106645819.818 7  83100659.88946  20294022.820    20294026.8554
        46.900          40.3004
 116273772.573 7  90602967.21046  22126163.805    22126170.8594
        46.000          36.3004
 129322545.943 6 100770850.13843  24609259.492    24609266.9494
        37.600          19.9004
 128432998.693 5 100077695.07943  24439986.758    24439994.9024
        35.300          22.8004
 124886011.497 7  97313801.73644  23765020.000    23765027.7814
        42.200          25.0004
 119269069.696 6  92936951.97444  22696151.773    22696156.2814
        41.100          26.4004
 117423705.912 7  91499008.83945  22344989.414    22344994.2074
        42.700          30.8004
 122236172.274 7  95249019.64346  23260766.414    23260773.4654
        42.200          39.4004
 20  9  1  1  5 30.0000000  0 11G22G01G26G31G32G04G25G10G21G11G03
 115373839.704 7  89901708.51146  21954909.531    21954911.9534
        47.700          36.2004
 111541873.286 8  86915780.47246  21225711.742    21225719.5394
        48.500          39.1004
 128219310.567 5  99911205.81043  24399320.070    24399329.8984
        35.500          19.3004
 106643526.786 7  83098873.11646  20293586.469    20293590.4964
        46.600          41.4004
 116337670.787 7  90652758.01445  22138323.250    22138330.2664
        47.300          35.7004
 129245457.413 6 100710781.15743  24594590.039    24594597.1294
        39.200          21.5004
 128426979.056 6 100073004.45944  24438841.227    24438849.4924
        36.200          24.7004
 124965236.237 7  97375535.29043  23780095.992    23780103.8164
        42.600          23.3004
 119355858.651 6  93004579.70444  22712667.211    22712671.6564
        41.200          27.0004
 117489279.149 7  91550104.84844  22357467.602    22357472.3834
        44.400          29.4004
 122150759.964 6  95182464.60446  23244512.969    23244520.1054
        40.900          39.8004
 20  9  1  1  6  0.0000000  0 11G22G01G26G31G32G04G25G10G21G11G03
 115309187.249 7  89851329.98446  21942606.586    21942608.9574
        47.500          36.3004
 111527528.061 8  86904602.36746  21222981.945    21222989.8094
        48.900          39.2004
 128133912.208 6  99844661.68642  24383069.453    24383079.0164
        36.000          17.8004
 106641866.029 7  83097579.02046  20293270.438    20293274.4694
        46.700          40.5004
 116401651.394 7  90702613.01345  22150498.367    22150505.3634
        47.100          35.3004
 129168499.878 6 100650814.34543  24579945.445    24579952.6334
        37.300          18.6004
 128421479.170 5 100068718.85744  24437794.539    24437802.9494
        33.800          25.0004
 125044682.223 7  97437441.23444  23795214.094    23795221.8914
        42.200          24.4004
 119442873.525 6  93072383.45444  22729225.625    22729230.0474
        41.400          24.9004
 117555237.162 7  91601500.67244  22370019.008    22370023.7894
        45.300          29.6004
 122065393.664 6  95115945.42046  23228268.289    23228275.4694
        41.500          39.3004
 20  9  1  1  6 30.0000000  0 11G22G01G26G31G32G04G25G10G21G11G03
 115244709.291 7  89801087.44045  21930336.836    21930339.0864
        47.000          35.7004
 111513789.007 8  86893896.60746  21220367.500    21220375.4224
        49.000          38.9004
 128048469.445 6  99778083.00943  24366810.211    24366819.8134
        37.200          18.6004
 106640836.536 8  83096776.82646  20293074.531    20293078.5824
        48.000          40.7004
 116465712.971 7  90752531.10445  22162688.898    22162695.8914
        47.000          35.1004
 129091672.877 6 100590949.20343  24565325.727    24565332.8364
        40.300          19.9004
 128416499.585 5 100064838.67844  24436846.930    24436855.3834
        35.200          25.1004
 125124348.381 6  97499518.74543  23810374.109    23810381.8364
        41.200          22.6004
 119530111.716 6  93140361.23344  22745826.555    22745830.9064
        40.900          25.1004
 117621576.553 7  91653193.69344  22382642.992    22382647.7344
        45.600          29.6004
 121980074.144 7  95049462.71446  23212032.516    23212039.7274
        42.000          39.4004
 20  9  1  1  7  0.0000000  0 11G22G01G26G31G32G04G25G10G21G11G03
 115180407.999 7  89750982.55146  21918100.695    21918102.8164
        46.500          36.1004
 111500657.068 8  86883663.92646  21217868.578    21217876.5394
        48.500          38.6004
 127962985.500 6  99711472.21143  24350543.148    24350552.7344
        37.500          21.3004
 106640438.556 7  83096466.71646  20292998.789    20293002.8714
        47.300          41.6004
 116529855.070 7  90802511.93745  22174894.750    22174901.7154
        46.600          35.5004
 129014976.909 6 100531186.15943  24550730.875    24550737.8364
        37.800          20.4004
 128412041.727 5 100061365.04444  24435998.609    24436006.9884
        34.800          25.8004
 125204234.644 6  97561767.75243  23825575.992    23825583.6094
        40.200          21.8004
 119617571.178 6  93208511.41444  22762469.594    22762473.9574
        41.100          25.4004
 117688294.095 7  91705181.37544  22395338.938    22395343.6374
        45.800          29.0004
 121894803.286 7  94983017.89946  23195805.992    23195813.1724
        42.200          39.4004
 20  9  1  1  7 30.0000000  0 11G22G01G26G31G32G04G25G10G21G11G03
 115116285.611 7  89701017.07445  21905898.594    21905900.5864
        46.600          35.9004
 111488133.069 8  86873904.95946  21215485.344    21215493.2934
        48.600          38.4004
 127877463.539 6  99644831.78143  24334268.766    24334278.4064
        38.500          22.2004
 106640671.943 8  83096648.58846  20293043.195    20293047.3054
        48.000          41.3004
 116594077.174 7  90852555.14245  22187115.813    22187122.6994
        46.700          35.1004
 128938412.411 6 100471525.60543  24536161.031    24536168.1414
        37.900          20.9004
 128408106.916 5 100058299.00243  24435249.805    24435257.5314
        32.800          23.8004
 125284340.889 6  97624188.16743  23840819.695    23840827.2384
        38.600          21.7004
 119705249.370 6  93276832.04844  22779154.234    22779158.6174
        40.800          25.6004
 117755387.150 7  91757461.65644  22408106.344    22408110.9804
        45.800          29.8004
 121809582.738 6  94916612.29546  23179589.039    23179596.1764
        41.600          39.4004
 20  9  1  1  8  0.0000000  0 11G22G01G26G31G32G04G25G10G21G11G03
 115052343.054 7  89651191.72046  21893730.703    21893732.6334
        46.600          36.2004
 111476216.854 8  86864619.59246  21213217.766    21213225.6764
        48.800          38.6004
 127791905.880 6  99578163.55943  24317987.617    24317997.2384
        39.900          21.8004
 106641535.719 7  83097321.66346  20293207.563    20293211.6844
        47.100          41.1004
 116658377.800 7  90902659.49545  22199351.828    22199358.6764
        46.800          35.2004
 128861978.970 6 100411967.09843  24521616.219    24521623.2384
        37.500          20.9004
 128404695.628 5 100055640.86443  24434600.625    24434608.3134
        33.300          23.8004
 125364665.952 6  97686779.02943  23856105.039    23856112.5204
        37.700          20.4004
 119793143.325 6  93345320.82044  22795879.945    22795884.2894
        41.000          24.6004
 117822852.250 7  91810031.84444  22420944.547    22420949.1254
        45.200          29.9004
 121724413.331 7  94850246.52346  23163381.828    23163388.9304
        42.000          39.7004
 20  9  1  1  8 30.0000000  0 11G22G01G26G31G32G04G25G10G21G11G03
 114988581.698 7  89601507.57146  21881597.305    21881599.2584
        47.200          36.9004
 111464908.834 8  86855808.14446  21211065.914    21211073.7774
        48.400          38.3004
 127706315.318 6  99511469.69543  24301700.234    24301709.7774
        39.700          22.8004
 106643029.564 7  83098485.70246  20293491.828    20293495.9384
        46.800          41.1004
 116722756.116 7  90952824.40445  22211602.617    22211609.4654
        46.900          35.0004
 128785676.541 6 100352510.75043  24507096.281    24507103.3984
        39.500          22.0004
 128401808.837 5 100053391.44844  24434051.258    24434058.8874
        34.600          24.9004
 125445209.375 6  97749540.14843  23871431.914    23871439.4654
        38.100          21.8004
 119881250.528 6  93413975.74543  22812646.250    22812650.5084
        41.400          23.0004
 117890686.408 7  91862889.60645  22433852.984    22433857.5354
        46.000          31.5004
 121639296.479 6  94783921.73546  23147184.617    23147191.6844
        41.800          39.9004
 20  9  1  1  9  0.0000000  0 11G22G01G26G31G32G04G25G10G21G11G03
 114925004.131 7  89551966.62446  21869498.898    21869500.9184
        47.600          37.3004
 111454209.676 8  86847471.13646  21209029.930    21209037.7544
        48.300          38.5004
 127620694.924 6  99444752.58843  24285407.219    24285416.6804
        39.300          22.9004
 106645153.116 7  83100140.42246  20293895.922    20293900.0044
        46.000          41.5004
 116787211.573 7  91003049.41445  22223868.086    22223874.9024
        45.800          34.7004
 128709505.500 6 100293156.81643  24492601.359    24492608.7074
        40.800          22.3004
 128399447.769 5 100051551.67143  24433601.961    24433609.6054
        35.500          23.4004
 125525970.911 6  97812471.19143  23886800.313    23886807.9804
        37.800          22.2004
 119969568.785 6  93482795.13144  22829452.719    22829456.8714
        40.200          24.1004
 117958886.524 7  91916032.53545  22446831.055    22446835.5824
        45.200          30.9004
 121554233.899 6  94717639.21246  23130997.734    23131004.7934
        41.800          39.6004
 20  9  1  1  9 30.0000000  0 11G22G01G26G31G32G04G25G10G21G11G03
 114861611.600 7  89502569.86646  21857435.703    21857437.8244
        47.500          38.2004
 111444119.551 8  86839608.69546  21207109.852    21207117.6564
        48.800          38.3004
 127535047.443 6  99378014.36543  24269109.039    24269118.4734
        38.500          22.0004
 106647905.517 8  83102285.15246  20294419.688    20294423.7344
        48.500          40.7004
 116851743.129 7  91053333.72845  22236148.039    22236154.8204
        46.300          34.8004
 128633465.840 6 100233905.14443  24478131.453    24478138.6684
        37.200          20.6004
 128397613.104 6 100050122.09344  24433252.859    24433260.5314
        36.100          25.6004
 125606949.792 6  97875571.58744  23902210.109    23902217.8324
        39.800          25.0004
 120058095.406 6  93551776.87843  22846298.805    22846303.0084
        39.700          23.6004
 118027449.411 7  91969458.12945  22459878.164    22459882.7464
        45.000          31.6004
 121469226.775 6  94651399.92046  23114821.398    23114828.4344
        41.300          39.8004
 20  9  1  1 10  0.0000000  0 11G22G01G26G31G32G04G25G10G21G11G03
 114798406.141 7  89453318.87246  21845408.109    21845410.3284
        47.800          37.6004
 111434639.143 8  86832221.36546  21205305.797    21205313.6294
        49.300          39.6004
 127449376.156 6  99311257.59243  24252806.227    24252815.7114
        40.500          21.8004
 106651287.003 8  83104920.08446  20295063.164    20295067.1954
        48.200          41.1004
 116916350.329 7  91103676.99645  22248442.391    22248449.1604
        47.100          34.6004
 128557557.921 6 100174756.17943  24463686.617    24463694.0314
        39.500          20.9004
 128396306.172 6 100049103.69644  24433004.148    24433011.8794
        36.200          25.3004
 125688145.890 6  97938841.25744  23917661.258    23917669.0004
        41.800          25.5004
 120146828.387 6  93620919.40943  22863184.148    22863188.3554
        39.900          23.6004
 118096372.150 7  92023164.13745  22472993.727    22472998.3524
        45.100          31.4004
 121384276.963 6  94585205.26946  23098655.961    23098662.9534
        41.100          39.6004
 20  9  1  1 10 30.0000000  0 11G22G01G26G31G32G04G25G10G21G11G03
 114735389.507 7  89404215.01546  21833416.445    21833418.7274
        47.300          37.9004
 111425768.611 8  86825309.25946  21203617.805    21203625.6764
        49.800          39.3004
 127363683.746 6  99244484.31643  24236499.359    24236508.9344
        39.800          21.3004
 106655296.881 7  83108044.66546  20295826.219    20295830.2384
        47.600          41.1004
 116981032.197 7  91154078.44145  22260750.945    22260757.7114
        47.200          34.0004
 128481781.604 6 100115709.72243  24449266.836    24449274.1334
        40.200          22.6004
 128395527.673 6 100048497.09044  24432856.031    24432863.8134
        37.100          25.2004
 125769558.498 6  98002279.61644  23933153.633    23933161.4344
        41.300          26.4004
 120235765.039 6  93690220.67643  22880108.281    22880112.4804
        40.300          22.9004
 118165651.583 7  92077148.06945  22486177.180    22486181.8674
        45.500          30.8004
 121299385.763 7  94519056.31346  23082501.672    23082508.6294
        43.500          39.8004
 20  9  1  1 11  0.0000000  0 11G22G01G26G31G32G04G25G10G21G11G03
 114672563.222 7  89355259.48246  21821460.992    21821463.2974
        47.300          36.7004
 111417508.076 8  86818872.47146  21202045.891    21202053.8134
        48.800          39.5004
 127277972.940 6  99177696.73043  24220189.063    24220198.6484
        39.900          21.3004
 106659934.114 8  83111658.10146  20296708.648    20296712.6524
        49.100          40.7004
 117045787.791 7  91204537.32745  22273073.523    22273080.2854
        46.300          33.6004
 128406136.846 6 100056765.82243  24434872.094    24434879.5314
        39.300          20.1004
 128395278.341 6 100048302.78243  24432808.578    24432816.4304
        36.300          22.3004
 125851186.874 6  98065886.12744  23948687.039    23948694.8134
        41.900          27.0004
 120324902.760 6  93759678.59443  22897070.641    22897074.8634
        40.500          23.6004
 118235284.437 7  92131407.39844  22499427.883    22499432.6174
        45.400          29.6004
 121214554.404 7  94452953.98246  23066358.766    23066365.7544
        42.100          39.6004
 20  9  1  1 11 30.0000000  0 11G22G01G26G31G32G04G25G10G21G11G03
 114609928.568 7  89306453.26846  21809542.000    21809544.2624
        47.000          37.0004
 111409857.795 8  86812911.20346  21200590.094    21200598.0864
        48.700          39.1004
 127192246.653 6  99110897.07543  24203875.891    24203885.3674
        38.700          20.6004
 106665198.012 8  83115759.84046  20297710.336    20297714.3204
        48.000          40.9004
 117110616.271 7  91255053.00645  22285409.969    22285416.7974
        45.800          33.5004
 128330623.658 6  99997924.43243  24420502.367    24420509.6884
        39.200          19.0004
 128395558.914 6 100048521.42043  24432861.930    24432869.8954
        36.500          22.2004
 125933030.465 7  98129660.31844  23964261.383    23964269.1454
        42.300          27.7004
 120414238.990 6  93829291.22144  22914070.797    22914075.0704
        40.900          24.0004
 118305267.526 7  92185939.65044  22512745.242    22512750.0474
        44.700          29.6004
 121129784.373 7  94386899.44346  23050227.531    23050234.5234
        43.200          40.0004
 20  9  1  1 12  0.0000000  0 11G22G01G26G31G32G04G25G10G21G11G03
 114547488.311 7  89257798.53546  21797660.000    21797662.1914
        46.300          36.8004
 111402818.467 8  86807426.01346  21199250.555    21199258.5784
        48.700          39.5004
 127106508.194 6  99044087.96743  24187560.250    24187569.7304
        37.900          20.4004
 106671088.765 8  83120350.04546  20298831.305    20298835.2814
        48.400          40.9004
 117175517.330 7  91305625.23545  22297760.219    22297767.1484
        45.400          33.3004
 128255242.688 6  99939186.04043  24406157.836    24406165.0084
        39.000          21.8004
 128396370.726 5 100049153.95943  24433016.359    24433024.2934
        35.400          21.3004
 126015089.192 7  98193602.15944  23979876.656    23979884.4534
        42.900          26.4004
 120503771.564 6  93899056.82644  22931108.297    22931112.6884
        41.100          25.0004
 118375598.183 7  92240742.72844  22526128.734    22526133.5554
        45.000          29.7004
 121045077.645 7  94320894.21346  23034108.359    23034115.4064
        42.200          40.6004
 20  9  1  1 12 30.0000000  0 11G22G01G26G31G32G04G25G10G21G11G03
 114485243.636 7  89209296.20546  21785815.203    21785817.3284
        46.600          36.6004
 111396389.890 7  86802416.72646  21198027.234    21198035.2704
        47.800          38.9004
 127020760.080 6  98977271.29543  24171242.859    24171252.2734
        39.000          21.1004
 106677605.047 8  83125427.67846  20300071.305    20300075.2664
        48.100          40.9004
 117240489.773 7  91356253.09545  22310124.063    22310130.9884
        45.400          34.1004
 128179993.413 6  99880550.34243  24391838.328    24391845.5594
        38.700          20.1004
 128397714.139 5 100050200.79143  24433271.977    24433279.8984
        33.300          22.9004
 126097362.002 6  98257710.81244  23995532.664    23995540.4734
        41.900          29.4004
 120593497.453 6  93968973.05944  22948182.586    22948186.9654
        40.200          25.5004
 118446272.868 7  92295813.88244  22539577.695    22539582.5744
        45.300          29.6004
 120960435.262 7  94254939.13545  23018001.430    23018008.5824
        43.100          35.1004
 20  9  1  1 13  0.0000000  0 11G22G01G26G31G32G04G25G10G21G11G03
 114423195.936 7  89160947.36446  21774007.914    21774009.9774
        46.900          37.7004
 111390572.204 8  86797883.46646  21196920.164    21196928.1724
        48.600          39.0004
 126935005.222 6  98910449.37443  24154924.203    24154933.6214
        39.200          21.7004
 106684746.348 7  83130992.33446  20301430.250    20301434.2154
        47.500          40.7004
 117305532.841 7  91406936.00245  22322501.352    22322508.2704
        45.000          33.6004
 128104876.008 6  99822017.29843  24377543.953    24377551.0234
        37.700          20.4004
 128399589.929 5 100051662.48443  24433628.922    24433636.8364
        35.700          22.9004
 126179848.373 7  98321985.87944  24011229.313    24011237.1174
        42.700          28.3004
 120683414.261 6  94039038.05444  22965293.203    22965297.6024
        40.900          24.7004
 118517288.340 7  92351150.58345  22553091.516    22553096.4144
        45.100          30.2004
 120875858.704 7  94189035.36645  23001907.039    23001914.3054
        43.000          35.8004
 20  9  1  1 13 30.0000000  0 11G22G01G26G31G32G04G25G10G21G11G03
 114361347.436 7  89112753.75146  21762238.539    21762240.5744
        46.000          37.1004
 111385365.759 7  86793826.49346  21195929.422    21195937.3674
        47.300          38.9004
 126849246.644 6  98843624.54543  24138604.891    24138614.3404
        39.200          21.7004
 106692512.187 7  83137043.64646  20302908.039    20302912.0084
        47.500          41.4004
 117370645.906 7  91457673.44845  22334891.961    22334898.9844
        45.800          32.6004
 128029890.610 6  99763587.16443  24363274.656    24363281.6414
        37.200          21.3004
 128401999.007 5 100053539.69244  24434087.375    24434095.2194
        35.400          26.3004
 126262547.823 7  98386426.98644  24026966.516    24026974.3364
        42.000          28.5004
 120773519.517 6  94109249.88544  22982439.672    22982444.0864
        40.300          24.2004
 118588641.585 7  92406750.49344  22566669.617    22566674.5124
        45.200          29.4004
 120791349.676 7  94123184.20245  22985825.508    22985832.8984
        44.000          31.4004
 20  9  1  1 14  0.0000000  0 11G22G01G26G31G32G04G25G10G21G11G03
 114299699.727 7  89064716.58846  21750507.359    21750509.4144
        46.900          37.6004
 111380770.470 8  86790245.75746  21195054.977    21195062.8444
        48.200          38.9004
 126763487.200 6  98776799.00543  24122285.367    24122294.7894
        37.800          21.8004
 106700901.361 7  83143580.66946  20304504.430    20304508.4184
        47.600          41.0004
 117435828.008 7  91508464.67245  22347295.711    22347302.7664
        46.200          33.5004
 127955037.007 6  99705259.72943  24349030.453    24349037.5004
        37.100          21.8004
 128404941.865 5 100055832.85544  24434647.438    24434655.1954
        35.600          25.7004
 126345459.568 7  98451033.52044  24042744.086    24042751.9654
        43.300          28.6004
 120863810.503 6  94179606.46843  22999621.469    22999625.8554
        39.500          22.8004
 118660329.368 7  92462611.07844  22580311.375    22580316.2424
        45.800          29.3004
 120706909.468 7  94057386.66345  22969757.063    22969764.5514
        43.000          31.1004
 20  9  1  1 14 30.0000000  0 11G22G01G26G31G32G04G25G10G21G11G03
 114238254.513 7  89016837.20746  21738814.719    21738816.8364
        46.600          38.0004
 111376786.532 8  86787141.39946  21194296.867    21194304.6684
        48.400          38.4004
 126677729.874 6  98709975.15243  24105966.258    24105975.7384
        38.300          22.6004
 106709913.396 8  83150603.03946  20306219.352    20306223.3634
        48.200          40.6004
 117501078.553 7  91559309.24945  22359712.484    22359719.5164
        46.300          32.7004
 127880315.365 6  99647035.17743  24334811.320    24334818.3484
        39.600          22.8004
 128408419.296 5 100058542.54644  24435309.219    24435316.9184
        35.700          25.7004
 126428583.117 7  98515805.10544  24058561.961    24058569.8834
        42.800          29.4004
 120954285.002 6  94250106.03143  23016838.211    23016842.5984
        38.400          22.8004
 118732348.649 7  92518729.98745  22594016.219    22594021.0554
        45.200          30.0004
 120622539.725 7  93991644.02945  22953702.047    22953709.6724
        42.400          31.5004
 20  9  1  1 15  0.0000000  0 11G22G01G26G31G32G04G25G10G21G11G03
 114177013.657 7  88969117.06846  21727160.969    21727163.1804
        46.300          38.4004
 111373414.165 7  86784513.58746  21193655.133    21193662.8714
        47.400          39.0004
 126591977.827 6  98643155.42543  24089648.023    24089657.5864
        37.700          22.8004
 106719547.475 8  83158110.11446  20308052.656    20308056.6844
        48.100          41.4004
 117566396.909 7  91610206.66645  22372142.164    22372149.2234
        46.900          33.8004
 127805725.915 6  99588913.56843  24320617.328    24320624.4454
        37.000          20.9004
 128412432.170 6 100061669.46644  24436072.836    24436080.6134
        36.900          28.6004
 126511917.988 7  98580741.36244  24074420.070    24074428.0274
        43.400          29.9004
 121044940.388 6  94320746.54243  23034089.398    23034093.8014
        39.500          22.5004
 118804696.321 7  92575104.79345  22607783.555    22607788.3674
        45.900          30.0004
 120538242.144 7  93925957.62445  22937660.742    22937668.4654
        43.300          31.1004
 20  9  1  1 15 30.0000000  0 11G22G01G26G31G32G04G25G10G21G11G03
 114115979.197 7  88921557.75046  21715546.492    21715548.7814
        47.100          38.1004
 111370653.483 7  86782362.41346  21193129.797    21193137.5314
        46.900          38.6004
 126506234.003 6  98576342.13343  24073331.289    24073341.0474
        37.500          22.5004
 106729803.160 8  83166101.56146  20310004.242    20310008.2774
        49.000          41.3004
 117631782.449 7  91661156.42945  22384584.648    22384591.7154
        47.900          34.2004
 127731268.770 6  99530895.05943  24306448.586    24306455.6094
        39.500          22.6004
 128416981.145 6 100065214.14344  24436938.461    24436946.3594
        36.700          27.4004
 126595463.656 7  98645841.85745  24090318.313    24090326.2814
        44.200          30.0004
 121135774.334 6  94391526.18543  23051374.563    23051378.9804
        39.700          23.0004
 118877369.254 7  92631733.03544  22621612.797    22621617.5274
        44.700          28.1004
 120454018.356 7  93860328.72845  22921633.477    22921641.2584
        43.200          31.7004
 20  9  1  1 16  0.0000000  0 11G22G01G26G31G32G04G25G10G21G11G03
 114055152.565 7  88874160.37146  21703971.563    21703973.8954
        47.600          37.7004
 111368504.184 8  86780687.64046  21192720.805    21192728.5474
        48.600          38.0004
 126420501.110 6  98509537.31744  24057016.750    24057026.4964
        38.600          25.5004
 106740678.952 8  83174576.20546  20312073.836    20312077.8674
        48.900          41.1004
 117697234.087 7  91712157.69845  22397039.695    22397046.7464
        47.500          33.0004
 127656943.556 6  99472979.33343  24292304.984    24292312.0904
        39.500          22.3004
 128422066.476 5 100069176.74244  24437906.156    24437914.1564
        35.800          27.3004
 126679219.115 7  98711105.82744  24106256.484    24106264.4614
        45.200          29.8004
 121226784.134 6  94462442.86543  23068693.188    23068697.6804
        39.900          22.8004
 118950363.908 7  92688611.96444  22635503.234    22635507.8954
        45.100          28.3004
 120369869.505 7  93794758.20145  22905620.469    22905628.2774
        43.500          31.5004
 20  9  1  1 16 30.0000000  0 11G22G01G26G31G32G04G25G10G21G11G03
 113994535.820 7  88826926.54646  21692436.570    21692438.9024
        46.900          37.8004
 111366966.548 8  86779489.48346  21192428.195    21192435.9614
        48.000          38.7004
 126334782.400 6  98442743.57444  24040705.086    24040714.6724
        39.400          27.0004
 106752174.404 7  83183533.70846  20314261.344    20314265.3524
        47.900          41.4004
 117762751.420 7  91763210.16145  22409507.242    22409514.3164
        46.800          33.3004
 127582750.592 6  99415166.70643  24278186.484    24278193.5474
        39.600          21.8004
 128427689.100 5 100073558.04544  24438976.016    24438984.2194
        34.900          27.9004
 126763184.062 7  98776533.04044  24122234.547    24122242.5394
        44.600          29.2004
 121317967.460 6  94533494.75743  23086044.805    23086049.4414
        38.900          22.2004
 119023677.412 7  92745739.36444  22649454.344    22649458.9924
        44.800          27.6004
 120285797.537 7  93729247.60145  22889622.109    22889629.8094
        43.600          31.4004
 20  9  1  1 17  0.0000000  0 11G22G01G26G31G32G04G25G10G21G11G03
 113934130.449 7  88779857.42546  21680941.797    21680944.1024
        47.600          37.2004
 111366040.230 8  86778767.67646  21192251.922    21192259.7274
        48.500          39.0004
 126249080.504 6  98375962.92244  24024396.703    24024406.1254
        41.200          28.0004
 106764288.292 8  83192973.11046  20316566.539    20316570.5084
        48.500          40.4004
 117828333.411 7  91814313.00645  22421987.094    22421994.1414
        46.600          33.8004
 127508689.625 6  99357456.87643  24264093.141    24264100.0434
        39.600          23.0004
 128433849.278 6 100078358.20044  24440148.250    24440156.5124
        36.000          28.3004
 126847357.515 7  98842122.71544  24138252.266    24138260.2344
        44.300          27.9004
 121409321.048 6  94604679.35543  23103428.852    23103433.5984
        38.300          22.2004
 119097306.038 7  92803112.28444  22663465.414    22663470.0634
        44.900          28.6004
 120201803.657 7  93663797.84545  22873638.594    22873646.1414
        44.300          31.8004
 20  9  1  1 17 30.0000000  0 11G22G01G26G31G32G04G25G10G21G11G03
 113873938.163 7  88732954.34946  21669487.578    21669489.8484
        47.600          37.7004
 111365725.196 8  86778522.19346  21192191.969    21192199.8244
        48.600          38.9004
 126163398.550 6  98309197.81844  24008092.063    24008101.4384
        38.700          26.5004
 106777019.746 8  83202893.73246  20318989.258    20318993.1994
        48.800          40.9004
 117893979.465 7  91865465.76645  22434479.133    22434486.1724
        46.800          33.8004
 127434760.696 6  99299849.98743  24250024.930    24250031.8834
        39.300          21.8004
 128440547.621 6 100083577.70044  24441422.953    24441431.2154
        36.500          28.9004
 126931738.871 7  98907874.40544  24154309.531    24154317.5314
        43.800          26.2004
 121500842.614 6  94675994.85243  23120844.898    23120849.6174
        38.700          21.3004
 119171246.810 7  92860728.45344  22677535.883    22677540.5124
        44.100          29.0004
 120117889.506 7  93598410.20345  22857670.258    22857677.6024
        43.100          30.9004
 20  9  1  1 18  0.0000000  0 11G22G01G26G31G32G04G25G10G21G11G03
 113813961.206 7  88686219.06346  21658074.336    21658076.5434
        47.600          37.5004
 111366021.641 8  86778753.18646  21192248.383    21192256.2504
        48.600          39.5004
 126077739.697 6  98242450.71144  23991791.672    23991801.1604
        38.100          24.4004
 106790368.042 8  83213295.00046  20321529.352    20321533.2704
        48.400          40.8004
 117959689.088 7  91916668.06145  22446983.281    22446990.3874
        46.500          33.9004
 127360964.045 6  99242346.18043  24235981.828    24235988.6414
        39.600          22.0004
 128447784.916 6 100089217.17444  24442800.227    24442808.4734
        37.600          29.3004
 127016327.716 7  98973787.78944  24170406.273    24170414.3014
        42.900          26.2004
 121592530.062 6  94747439.58043  23138292.469    23138297.1914
        37.400          21.7004
 119245496.790 7  92918585.54844  22691665.188    22691669.9104
        43.900          28.4004
 120034056.988 7  93533086.18645  22841717.453    22841724.6294
        43.400          30.2004
 20  9  1  1 18 30.0000000  0 11G22G01G26G31G32G04G25G10G21G11G03
 113754201.350 8  88639652.95146  21646702.406    21646704.5554
        48.200          37.6004
 111366929.564 8  86779460.66346  21192421.156    21192428.9964
        48.000          39.2004
 125992107.086 6  98175724.06943  23975496.180    23975505.8324
        37.600          23.8004
 106804332.767 8  83224176.60546  20324186.742    20324190.6524
        48.600          41.1004
 118025461.786 7  91967919.50845  22459499.430    22459506.5164
        46.200          34.5004
 127287299.927 6  99184945.60843  24221963.961    24221970.6764
        40.500          22.2004
 128455561.709 6 100095277.03844  24444280.078    24444288.3164
        37.300          29.8004
 127101123.520 6  99039862.41644  24186542.391    24186550.4384
        41.800          24.7004
 121684380.845 6  94819011.59843  23155771.133    23155775.7894
        38.100          22.2004
 119320053.065 7  92976681.31144  22705852.766    22705857.5004
        44.500          28.9004
 119950307.789 7  93467827.09645  22825780.492    22825787.5634
        44.500          31.2004
 20  9  1  1 19  0.0000000  0 11G22G01G26G31G32G04G25G10G21G11G03
 113694660.123 7  88593257.20146  21635372.094    21635374.2034
        47.000          37.9004
 111368448.518 7  86780644.26946  21192710.211    21192717.9804
        47.400          39.3004
 125906503.492 6  98109020.03844  23959206.289    23959215.9614
        36.100          25.8004
 106818912.169 8  83235537.18446  20326961.109    20326965.0204
        48.700          41.4004
 118091296.567 7  92019219.32045  22472027.383    22472034.4734
        46.400          34.7004
 127213767.840 6  99127647.92443  24207971.195    24207977.9144
        38.400          22.3004
 128463878.229 6 100101757.47044  24445862.625    24445870.8984
        36.300          28.9004
 127186125.314 7  99106097.58043  24202717.711    24202725.7304
        42.100          23.0004
 121776392.054 6  94890708.59643  23173280.289    23173284.9964
        37.900          21.1004
 119394911.964 7  93035012.89244  22720097.945    22720102.6954
        43.900          28.3004
 119866643.264 7  93402633.98045  22809859.656    22809866.6994
        43.400          31.4004
 20  9  1  1 19 30.0000000  0 11G22G01G26G31G32G04G25G10G21G11G03
 113635339.674 7  88547033.47946  21624083.789    21624085.8714
        47.300          38.7004
 111370578.369 8  86782303.89946  21193115.516    21193123.2234
        48.100          38.6004
 125820931.916 6  98042340.96344  23942922.539    23942932.1214
        37.100          25.4004
 106834105.369 8  83247376.05146  20329852.281    20329856.1954
        49.000          40.7004
 118157192.785 7  92070567.00845  22484567.031    22484574.1484
        45.600          33.9004
 127140367.944 6  99070453.28543  24194003.594    24194010.5004
        39.100          21.8004
 128472734.971 6 100108658.84944  24447547.984    24447556.2424
        37.200          27.5004
 127271332.427 6  99172492.67943  24218932.125    24218940.0554
        41.700          21.7004
 121868561.094 6  94962528.58243  23190819.523    23190824.2074
        39.900          20.4004
 119470070.211 7  93093577.73344  22734400.109    22734404.8134
        44.700          29.3004
 119783065.049 7  93337508.11545  22793955.234    22793962.2854
        43.400          31.4004
 20  9  1  1 20  0.0000000  0 11G22G01G26G31G32G04G25G10G21G11G03
 113576241.673 7  88500983.09946  21612837.813    21612839.8984
        47.500          37.9004
 111373318.991 7  86784439.45246  21193637.047    21193644.6884
        46.100          38.7004
 125735395.345 6  97975689.19543  23926645.469    23926654.9064
        36.100          22.8004
 106849911.376 8  83259692.42546  20332860.063    20332863.9924
        48.500          41.3004
 118223149.853 7  92121962.12445  22497118.266    22497125.3444
        46.600          33.8004
 127067100.256 6  99013361.63343  24180061.195    24180068.0274
        39.700          22.2004
 128482132.378 6 100115981.50244  24449336.250    24449344.4104
        37.700          29.1004
 127356744.249 6  99239047.30443  24235185.453    24235193.2304
        40.900          21.7004
 121960885.470 6  95034469.62843  23208388.289    23208392.9344
        37.000          20.9004
 119545524.542 7  93152373.27644  22748758.633    22748763.3284
        45.000          29.0004
 119699574.794 7  93272450.80045  22778067.547    22778074.6484
        43.300          32.1004
 20  9  1  1 20 30.0000000  0 11G22G01G26G31G32G04G25G10G21G11G03
 113517367.127 7  88455106.83146  21601634.359    21601636.5044
        47.100          38.7004
 111376669.825 7  86787050.49346  21194274.680    21194282.3014
        46.700          38.8004
 125649896.631 6  97909066.92744  23910375.516    23910384.8984
        37.800          25.0004
 106866328.709 8  83272485.16246  20335984.172    20335988.1214
        48.700          40.9004
 118289166.824 7  92173403.90045  22509680.891    22509687.9964
        45.500          33.8004
 126993964.451 6  98956372.75543  24166143.875    24166150.6914
        41.100          23.0004
 128492070.579 6 100123725.57145  24451227.438    24451235.4774
        39.500          30.4004
 127442359.790 6  99305760.69543  24251477.555    24251485.2584
        39.800          20.4004
 122053362.567 5  95106529.63342  23225986.141    23225990.6844
        35.500          17.8004
 119621271.744 7  93211397.06444  22763172.875    22763177.5594
        45.300          29.6004
 119616173.912 7  93207463.12145  22762196.867    22762204.0204
        43.900          32.3004
 20  9  1  1 21  0.0000000  0 11G22G01G26G31G32G04G25G10G21G11G03
 113458718.719 7  88409406.77846  21590473.938    21590476.1414
        47.000          37.9004
 111380631.096 7  86790137.19146  21195028.484    21195036.1454
        46.800          38.8004
 125564439.157 6  97842476.77544  23894113.414    23894122.8674
        36.900          25.6004
 106883356.914 8  83285753.89846  20339224.531    20339228.4924
        49.200          40.9004
 118355243.537 7  92224892.25345  22522254.883    22522261.9224
        46.300          34.8004
 126920960.997 7  98899487.00343  24152251.766    24152258.5084
        42.000          22.2004
 128502550.410 6 100131891.68944  24453221.695    24453229.6414
        39.900          29.6004
 127528178.758 6  99372632.62343  24267808.328    24267816.0354
        39.900          20.4004
 122145990.186 6  95178706.93143  23243612.625    23243617.0744
        36.900          19.3004
 119697308.820 7  93270646.68745  22777642.297    22777646.9614
        45.300          30.7004
 119532864.521 7  93142546.72645  22746343.586    22746350.7814
        43.200          32.5004
 20  9  1  1 21 30.0000000  0 11G22G01G26G31G32G04G25G10G21G11G03
 113400298.259 7  88363884.35646  21579356.891    21579359.1294
        47.300          38.6004
 111385202.335 7  86793699.18846  21195898.352    21195906.0744
        47.600          38.9004
 125479025.735 6  97775920.94244  23877859.758    23877869.1374
        37.200          24.2004
 106900994.422 7  83299497.41546  20342580.828    20342584.7934
        47.900          40.5004
 118421379.097 7  92276426.45445  22534840.070    22534847.1374
        45.800          33.1004
 126848089.617 6  98842704.12643  24138384.789    24138391.3594
        41.800          22.6004
 128513571.933 6 100140479.89244  24455319.031    24455326.8914
        39.000          29.7004
 127614200.220 6  99439662.27743  24284177.664    24284185.4574
        38.700          20.1004
 122238765.337 6  95250999.20243  23261267.211    23261271.5274
        38.400          18.3004
 119773632.184 7  93330119.42044  22792166.188    22792170.9184
        43.900          29.7004
 119449647.994 7  93077702.70045  22730507.992    22730515.1844
        43.900          31.6004
 20  9  1  1 22  0.0000000  0 11G22G01G26G31G32G04G25G10G21G11G03
 113342107.184 7  88318540.67946  21568283.508    21568285.7384
        47.200          38.4004
 111390383.148 7  86797736.17146  21196884.227    21196892.0314
        47.000          39.7004
 125393659.371 6  97709401.78444  23861615.008    23861624.4694
        37.300          24.9004
 106919240.075 8  83313714.81346  20346052.859    20346056.8324
        48.700          40.7004
 118487572.849 7  92328005.99645  22547436.344    22547443.4104
        45.300          32.6004
 126775350.292 6  98786024.16943  24124542.984    24124549.4694
        41.000          22.9004
 128525135.466 6 100149490.43945  24457519.500    24457527.3164
        39.300          30.8004
 127700423.324 6  99506849.10143  24300585.414    24300593.2894
        38.400          19.9004
 122331685.482 6  95323404.49543  23278949.383    23278953.5354
        38.000          18.3004
 119850238.693 7  93389812.76645  22806743.969    22806748.6884
        44.700          30.0004
 119366525.953 7  93012932.30645  22714690.375    22714697.5204
        43.600          31.8004
 20  9  1  1 22 30.0000000  0 11G22G01G26G31G32G04G25G10G21G11G03
 113284147.709 8  88273377.47446  21557254.188    21557256.3594
        48.000          37.7004
 111396173.316 8  86802247.97746  21197986.063    21197993.9304
        48.600          39.6004
 125308343.330 5  97642921.80744  23845379.805    23845389.3484
        35.800          24.2004
 106938092.913 8  83328405.34346  20349640.422    20349644.4024
        48.200          41.3004
 118553824.271 7  92379630.48645  22560043.578    22560050.6174
        45.500          32.7004
 126702743.069 6  98729447.16343  24110726.266    24110732.6214
        40.600          23.8004
 128537241.427 6 100158923.66945  24459823.180    24459830.9774
        39.900          30.2004
 127786847.572 6  99574192.66043  24317031.430    24317039.3754
        38.300          19.6004
 122424748.105 6  95395920.80843  23296658.633    23296662.7304
        37.900          20.1004
 119927125.168 7  93449724.26944  22821375.008    22821379.8094
        44.000          29.2004
 119283500.218 7  92948236.95445  22698891.086    22698898.1564
        43.000          32.1004
 20  9  1  1 23  0.0000000  0 11G22G01G26G31G32G04G25G10G21G11G03
 113226421.880 7  88228396.32846  21546269.328    21546271.4304
        47.800          37.9004
 111402572.461 8  86807234.31146  21199203.797    21199211.7344
        48.500          39.7004
 125223080.532 6  97576483.35344  23829154.758    23829164.3914
        36.800          25.5004
 106957551.882 8  83343568.17946  20353343.336    20353347.3204
        48.500          40.6004
 118620132.799 7  92431299.44545  22572661.672    22572668.7584
        45.300          32.6004
 126630267.955 6  98672973.10443  24096934.672    24096941.1024
        40.600          22.6004
 128549890.082 6 100168779.77645  24462230.125    24462237.9654
        39.800          30.6004
 127873472.110 6  99641692.26042  24333515.555    24333523.6374
        37.500          16.3004
 122517950.968 6  95468546.34543  23314394.492    23314398.7114
        37.200          19.6004
 120004288.672 7  93509851.65544  22836058.758    22836063.5904
        43.800          28.9004
 119200572.448 7  92883617.95845  22683110.453    22683117.4184
        45.100          32.1004
 20  9  1  1 23 30.0000000  0 11G22G01G26G31G32G04G25G10G21G11G03
 113168931.174 7  88183598.40446  21535329.203    21535331.2344
        47.200          38.1004
 111409580.234 8  86812694.90546  21200537.344    21200545.3014
        48.700          39.4004
 125137874.055 6  97510088.77744  23812940.414    23812950.0824
        37.300          24.7004
 106977615.749 8  83359202.36446  20357161.367    20357165.3524
        48.900          41.2004
 118686497.811 7  92483012.42645  22585290.516    22585297.6134
        44.800          33.3004
 126557924.819 6  98616601.83243  24083168.164    24083174.5204
        38.500          22.5004
 128563081.681 6 100179058.95845  24464740.391    24464748.2934
        39.800          31.4004
 127960296.230 5  99709347.46642  24350037.656    24350045.8164
        35.100          16.3004
 122611291.401 6  95541279.10143  23332156.664    23332160.9304
        38.400          19.6004
 120081725.712 7  93570192.17044  22850794.555    22850799.4144
        44.000          29.1004
 119117744.335 7  92819076.60245  22667348.781    22667355.6174
        44.900          32.8004
 20  9  1  1 24  0.0000000  0 11G22G01G26G31G32G04G25G10G21G11G03
 113111676.685 7  88138984.53246  21524434.031    21524435.9924
        46.700          37.9004
 111417195.943 8  86818629.21546  21201986.570    21201994.5004
        48.300          39.0004
 125052726.740 6  97443740.28344  23796737.391    23796747.0274
        38.200          25.8004
 106998282.629 7  83375306.43346  20361094.141    20361098.1134
        47.900          40.3004
 118752918.425 7  92534768.76045  22597929.938    22597936.9884
        44.000          32.0004
 126485713.467 6  98560333.29743  24069426.734    24069433.1884
        38.700          21.7004
 128576816.083 6 100189761.10145  24467353.969    24467361.8874
        39.700          30.7004
 128047318.894 5  99777157.27242  24366597.547    24366605.6804
        35.000          15.6004
 122704766.308 6  95614116.64743  23349944.391    23349948.7234
        37.300          18.6004
 120159432.808 7  93630743.13244  22865581.750    22865586.6024
        43.600          28.2004
 119035017.356 7  92754614.04945  22651606.352    22651613.0594
        44.900          32.4004
 20  9  1  1 24 30.0000000  0 11G22G01G26G31G32G04G25G10G21G11G03
 113054661.297 7  88094556.97346  21513584.344    21513586.2774
        46.700          37.9004
 111425419.474 7  86825037.15446  21203551.461    21203559.3444
        47.500          38.8004
 124967641.951 6  97377440.51044  23780546.273    23780555.6764
        39.200          27.0004
 107019551.745 8  83391879.77146  20365141.523    20365145.4844
        48.700          40.7004
 118819394.423 7  92586568.20645  22610579.906    22610587.0354
        43.600          32.1004
 126413634.120 6  98504167.64043  24055710.398    24055716.9574
        38.500          21.5004
 128591094.009 6 100200886.76445  24470070.977    24470078.9694
        39.400          31.4004
 128134539.668 5  99845121.57742  24383195.070    24383203.1294
        34.600          14.8004
 122798373.688 6  95687057.38943  23367757.289    23367761.7464
        38.200          21.3004
 120237407.030 7  93691502.24544  22880419.758    22880424.5744
        43.400          28.8004
 118952393.530 7  92690231.87145  22635883.555    22635890.2384
        44.500          32.1004
 20  9  1  1 25  0.0000000  0 11G22G01G26G31G32G04G25G10G21G11G03
 112997886.555 7  88050316.92246  21502780.461    21502782.4224
        47.500          38.4004
 111434250.286 7  86831918.29646  21205231.906    21205239.7464
        47.900          38.1004
 124882622.634 6  97311191.77644  23764367.656    23764376.8324
        39.000          25.6004
 107041421.831 8  83408921.40346  20369303.258    20369307.2034
        48.000          40.3004
 118885925.096 7  92638410.28045  22623240.281    22623247.3674
        44.400          32.6004
 126341686.694 6  98448104.74043  24042019.211    24042025.8874
        39.500          22.5004
 128605915.433 6 100212435.91845  24472891.398    24472899.4534
        38.400          30.8004
 128221957.778 5  99913239.57342  24399830.266    24399838.1174
        33.700          12.6004
 122892110.737 6  95760099.22543  23385594.969    23385599.4104
        37.100          19.3004
 120315644.809 7  93752466.71944  22895307.922    22895312.7544
        43.600          26.8004
 118869874.467 7  92625931.32245  22620180.688    22620187.4694
        43.200          33.0004
 20  9  1  1 25 30.0000000  0 11G22G01G26G31G32G04G25G10G21G11G03
 112941354.012 7  88006265.59246  21492022.664    21492024.6764
        47.400          38.2004
 111443687.673 7  86839272.09546  21207027.773    21207035.5554
        47.800          38.3004
 124797671.710 6  97244996.32144  23748202.047    23748210.9964
        40.200          25.8004
 107063891.499 8  83426430.23846  20373579.094    20373583.0314
        48.900          40.4004
 118952509.726 7  92690294.39745  22635910.922    22635917.9654
        44.300          32.6004
 126269870.942 6  98392144.45643  24028353.047    24028359.8094
        39.800          22.3004
 128621280.326 6 100224408.61145  24475815.219    24475823.3204
        37.100          31.0004
 128309572.195 5  99981510.35642  24416502.859    24416510.3714
        34.500          15.6004
 122985974.581 6  95833239.83943  23403456.930    23403461.1994
        38.600          20.4004
 120394142.993 7  93813634.10344  22910245.641    22910250.4144
        44.100          27.0004
 118787461.770 7  92561713.66645  22604498.063    22604505.0234
        43.200          33.2004
 20  9  1  1 26  0.0000000  0 11G22G01G26G31G32G04G25G10G21G11G03
 112885065.783 7  87962404.63346  21481311.359    21481313.4104
        47.900          38.7004
 111453731.179 8  86847098.19646  21208938.992    21208946.7464
        48.300          39.0004
 124712792.364 6  97178856.64544  23732050.031    23732058.9064
        41.300          25.9004
 107086959.077 8  83444404.97646  20377968.703    20377972.6414
        48.500          40.1004
 119019147.776 7  92742220.13145  22648591.742    22648598.8324
        44.500          32.4004
 126198186.833 6  98336286.74843  24014711.961    24014718.8204
        40.800          22.6004
 128637188.867 6 100236804.92745  24478842.500    24478850.6764
        37.600          31.9004
 128397382.183 5 100049933.89342  24433212.719    24433220.4494
        33.800          15.6004
 123079962.986 6  95906477.50543  23421342.406    23421346.6884
        37.600          19.3004
 120472898.287 7  93875001.86244  22925232.273    22925237.0314
        43.300          25.6004
 118705157.168 7  92497580.23345  22588836.000    22588843.1764
        43.700          33.4004
 20  9  1  1 26 30.0000000  0 11G22G01G26G31G32G04G25G10G21G11G03
 112829023.696 7  87918735.47746  21470646.906    21470648.9844
        47.500          38.6004
 111464380.458 8  86855396.32946  21210965.492    21210973.2544
        48.400          39.4004
 124627987.846 6  97112775.23844  23715912.219    23715921.1564
        40.700          25.3004
 107110623.858 8  83462845.07046  20382471.961    20382475.8984
        48.700          40.6004
 119085838.892 7  92794187.23545  22661282.656    22661289.7584
        44.400          33.0004
 126126634.535 6  98280531.76743  24001095.961    24001102.9384
        40.800          22.6004
 128653641.409 6 100249625.08845  24481973.305    24481981.4494
        39.500          30.8004
 128485387.120 5 100118509.06842  24449959.547    24449967.7154
        33.500          13.9004
 123174073.471 6  95979810.30143  23439251.016    23439255.3134
        37.900          20.4004
 120551907.729 7  93936567.62044  22940267.273    22940271.9964
        43.500          26.4004
 118622962.642 7  92433532.56945  22573194.898    22573202.2734
        43.300          33.8004
 20  9  1  1 27  0.0000000  0 11G22G01G26G31G32G04G25G10G21G11G03
 112773229.993 7  87875259.87046  21460029.719    21460031.7704
        47.600          38.1004
 111475635.108 8  86864166.18146  21213107.195    21213114.9964
        49.600          39.4004
 124543261.418 6  97046754.66544  23699789.266    23699798.3524
        41.400          25.2004
 107134884.184 8  83481749.22746  20387088.547    20387092.4924
        48.200          40.6004
 119152582.757 7  92846195.42545  22673983.602    22673990.6954
        45.800          33.7004
 126055214.198 6  98224879.60243  23987505.094    23987512.0274
        41.600          22.5004
 128670638.152 6 100262869.29945  24485207.672    24485215.7424
        38.600          30.3004
 128573586.469 5                  24466743.336
        31.600
 123268303.450 6  96053236.21143  23457182.453    23457186.6994
        39.200          20.6004
 120631168.052 7  93998328.89844  22955350.023    22955354.8554
        43.300          26.0004
 118540880.144 7  92369572.18245  22557575.109    22557582.6094
        43.900          33.6004
 20  9  1  1 27 30.0000000  0 11G22G01G26G31G32G04G25G10G21G11G03
 112717685.821 7  87831978.70446  21449460.008    21449461.9964
        47.300          38.3004
 111487493.950 8  86873406.83246  21215363.867    21215371.6914
        49.400          39.5004
 124458615.587 7  96980796.91644  23683681.680    23683690.8524
        42.800          25.8004
 107159738.249 7  83501116.03646  20391818.117    20391822.0474
        47.900          40.1004
 119219378.228 7  92898243.82345  22686694.359    22686701.4774
        45.100          33.2004
 125983925.133 6  98169329.73943  23973939.227    23973946.1644
        41.100          22.6004
 128688178.589 6 100276537.21245  24488545.492    24488553.4964
        39.200          31.7004
 128661978.740 4                  24483563.773
        29.100
 123362650.555 6  96126753.40543  23475136.148    23475140.4344
        37.100          19.9004
 120710675.363 7  94060282.60944  22970479.766    22970484.6764
        43.800          26.8004
 118458910.855 7  92305700.01745  22541976.859    22541984.4264
        44.400          33.3004
 20  9  1  1 28  0.0000000  0 11G22G01G26G31G32G04G25G10G21G11G03
 112662393.022 7  87788893.41046  21438938.125    21438940.0744
        47.500          37.8004
 111499956.681 8  86883118.04046  21217735.453    21217743.3014
        49.300          39.4004
 124374053.777 7  96914904.63944  23667590.133    23667599.2894
        42.100          26.1004
 107185184.758 8  83520944.48546  20396660.430    20396664.3524
        48.300          40.3004
 119286225.069 7  92950332.25645  22699414.898    22699422.0314
        44.300          33.1004
 125912767.633 6  98113882.33143  23960398.383    23960405.2464
        40.500          22.3004
 128706263.052 6 100290629.01345  24491986.859    24491994.8014
        39.900          31.9004
 128750563.416 4                  24500420.836
        26.800
 123457111.332 6  96200359.13443  23493111.383    23493115.7664
        38.700          20.6004
 120790427.096 7  94122426.76544  22985656.016    22985661.0314
        43.800          26.8004
 118377056.847 7  92241917.69445  22526400.547    22526408.1054
        44.100          33.2004
 20  9  1  1 28 30.0000000  0 11G22G01G26G31G32G04G25G10G21G11G03
 112607354.138 7  87746005.97946  21428464.570    21428466.4654
        47.500          37.6004
 111513022.815 8  86893299.43446  21220221.867    21220229.7304
        48.600          39.0004
 124289579.281 6  96849080.42344  23651515.203    23651524.2584
        41.000          24.1004
 107211222.676 7  83541233.78146  20401615.281    20401619.1914
        47.100          40.4004
 119353122.976 7  93002460.47745  22712145.148    22712152.3204
        44.800          33.1004
 125841741.820 6  98058537.60843  23946882.602    23946889.5314
        41.100          22.6004
 128724891.718 6 100305144.83145  24495531.773    24495539.6454
        39.400          30.6004
                                  24517314.422
        25.900
 123551683.711 6  96274051.86043  23511107.922    23511112.3244
        36.900          21.1004
 120870419.495 7  94184758.49244  23000878.086    23000883.1684
        44.500          28.1004
 118295320.113 7  92178226.74245  22510846.547    22510854.0434
        44.600          33.3004
 20  9  1  1 29  0.0000000  0 10G22G01G26G31G32G04G25G21G11G03
 112552570.793 7  87703317.66146  21418039.633    21418041.4924
        47.300          38.5004
 111526691.422 8  86903950.29146  21222822.922    21222830.8014
        48.800          38.4004
 124205194.958 6  96783326.44643  23635457.359    23635466.2544
        40.700          21.7004
 107237850.524 7  83561982.75846  20406682.391    20406686.2774
        47.900          40.4004
 119420071.164 7  93054627.87945  22724884.977    22724892.1524
        43.900          32.0004
 125770847.344 6  98003295.17643  23933391.797    23933398.8204
        40.600          22.3004
 128744064.306 6 100320084.54145  24499180.188    24499188.0274
        39.900          32.6004
 123646365.312 6  96347829.65843  23529125.320    23529129.6644
        38.500          18.3004
 120950649.674 7  94247275.47644  23016145.414    23016150.5434
        44.100          28.0004
 118213702.194 7  92114628.38645  22495315.156    22495322.5394
        43.900          33.6004
 20  9  1  1 29 30.0000000  0 10G22G01G26G31G32G04G25G21G11G03
 112498044.684 7  87660829.79546  21407663.648    21407665.5204
        47.000          38.5004
 111540961.748 8  86915070.01446  21225538.469    21225546.3554
        48.700          38.7004
 124120903.838 6  96717645.08843  23619417.219    23619425.8324
        40.900          21.8004
 107265066.414 7  83583189.95046  20411861.398    20411865.2734
        47.000          40.5004
 119487069.032 7  93106833.99845  22737634.250    22737641.4264
        44.100          32.1004
 125700084.065 6  97948154.99443  23919925.945    23919932.9384
        40.200          23.0004
 128763780.714 6 100335447.97945  24502932.094    24502940.0474
        39.600          32.2004
 123741153.673 6  96421690.68143  23547162.930    23547167.2154
        37.000          19.9004
 121031114.047 7  94309974.95744  23031457.328    23031462.4734
        44.600          27.6004
 118132204.800 7  92051123.92645  22479806.703    22479813.8874
        44.500          32.1004
 20  9  1  1 30  0.0000000  0 10G22G01G26G31G32G04G25G21G11G03
 112443777.728 7  87618543.86346  21397336.984    21397338.8914
        46.800          38.1004
 111555832.953 7  86926657.95946  21228368.359    21228376.2464
        47.400          37.9004
 124036708.966 6  96652038.75443  23603395.359    23603403.9494
        40.400          21.7004
 107292868.556 7  83604853.96346  20417151.953    20417155.8364
        47.200          40.6004
 119554116.092 7  93159078.44945  22750392.875    22750400.0704
        43.900          31.3004
 125629451.846 6  97893116.96644  23906485.047    23906492.1684
        39.600          24.9004
 128784040.790 6 100351235.06345  24506787.453    24506795.4924
        39.200          31.8004
 123836045.585 6  96495632.37343  23565220.406    23565224.6254
        37.700          18.6004
 121111809.259 7  94372854.31744  23046813.156    23046818.2854
        44.100          29.0004
 118050829.702 7  91987714.78045  22464321.523    22464328.5554
        44.300          32.5004
 20  9  1  1 30 30.0000000  0 10G22G01G26G31G32G04G25G21G11G03
 112389771.948 7  87576461.44446  21387060.016    21387061.9924
        47.500          38.4004
 111571304.765 8  86938713.91146  21231312.555    21231320.4344
        48.300          39.1004
 123952613.942 6  96586510.22743  23587392.500    23587401.2234
        39.800          21.7004
 107321256.398 8  83626974.36346  20422553.977    20422557.8714
        48.500          40.3004
 119621212.289 7  93211361.16445  22763160.844    22763168.0314
        43.700          31.0004
 125558951.090 6  97838181.35344  23893069.156    23893076.3874
        39.900          24.3004
 128804844.946 6 100367446.10245  24510746.344    24510754.4104
        38.600          31.5004
 123931038.881 6  96569653.04442  23583297.016    23583301.4964
        37.400          17.4004
 121192732.464 7  94435911.34444  23062212.375    23062217.5044
        44.700          29.3004
 117969579.155 7  91924402.67645  22448860.047    22448866.9304
        44.600          33.0004
 20  9  1  1 31  0.0000000  0 10G22G01G26G31G32G04G25G21G11G03
 112336029.219 7  87534583.99846  21376833.117    21376835.1764
        47.500          39.2004
 111587376.124 8  86951237.05146  21234370.844    21234378.7424
        48.000          38.4004
 123868621.656 6  96521061.69243  23571409.180    23571418.1054
        39.400          22.0004
 107350227.718 8  83649549.42346  20428067.031    20428070.9384
        48.400          39.8004
 119688356.835 7  93263681.58845  22775938.023    22775945.1914
        44.000          30.8004
 125488581.409 6  97783347.87344  23879678.234    23879685.3634
        40.300          25.8004
 128826192.815 6 100384080.79145  24514808.703    24514816.7704
        38.300          30.8004
 124026130.990 6  96643750.71042  23601392.438    23601397.1294
        38.100          17.4004
 121273880.325 7  94499143.42044  23077654.336    23077659.4304
        44.500          28.9004
 117888454.553 7  91861188.71445  22433422.539    22433429.3324
        44.700          33.2004
 20  9  1  1 31 30.0000000  0 10G22G01G26G31G32G04G25G21G11G03
 112282550.885 7  87492912.57546  21366656.531    21366658.6484
        47.900          39.3004
 111604045.801 8  86964226.41046  21237542.984    21237550.8874
        48.600          39.5004
 123784734.786 6  96455695.34143  23555445.961    23555454.9774
        40.000          21.1004
 107379780.279 7  83672577.39946  20433690.695    20433694.6024
        47.900          40.1004
 119755548.856 7  93316039.01845  22788724.258    22788731.4144
        44.900          30.9004
 125418342.379 6  97728616.22344  23866312.156    23866319.2974
        39.900          24.7004
 128848083.704 6 100401138.64345  24518974.383    24518982.4694
        37.900          30.6004
 124121318.870 6  96717923.03943  23619506.070    23619510.9184
        37.700          18.3004
 121355249.094 7  94562547.61444  23093138.313    23093143.3714
        43.200          27.3004
 117807457.727 7  91798074.31445  22418009.352    22418016.1684
        44.500          33.4004
 20  9  1  1 32  0.0000000  0 10G22G01G26G31G32G04G25G21G11G03
 112229339.108 8  87451448.86346  21356530.656    21356532.7974
        48.200          38.9004
 111621313.353 8  86977681.64246  21240828.898    21240836.8284
        48.800          39.2004
 123700956.860 6  96390413.87543  23539503.539    23539512.5824
        39.800          22.6004
 107409913.138 8  83696057.55646  20439424.781    20439428.6844
        48.400          40.1004
 119822788.305 7  93368433.37845  22801519.508    22801526.6684
        45.000          30.5004
 125348234.225 6  97673986.56244  23852970.977    23852978.1134
        40.900          26.7004
 128870517.933 6 100418619.86644  24523243.461    24523251.5044
        37.700          29.7004
 124216600.367 6  96792168.27642  23637637.602    23637642.3134
        38.400          17.4004
 121436835.604 7  94626121.47444  23108663.734    23108668.7774
        43.700          28.2004
 117726590.674 7  91735061.03145  22402620.852    22402627.7624
        44.600          34.6004
 20  9  1  1 32 30.0000000  0 10G22G01G26G31G32G04G25G21G11G03
 112176395.683 7  87410194.25346  21346455.852    21346457.9844
        47.700          38.7004
 111639177.741 8  86991601.94646  21244228.383    21244236.3444
        48.700          39.0004
 123617290.820 6  96325219.60643  23523582.438    23523591.3874
        41.000          21.8004
 107440624.447 7  83719988.45246  20445268.953    20445272.8444
        47.700          40.0004
 119890074.525 7  93420864.21045  22814323.664    22814330.6884
        44.600          30.5004
 125278256.768 6  97619458.70244  23839654.680    23839661.7854
        41.200          25.0004
 128893495.104 6 100436524.19344  24527615.852    24527623.8484
        37.100          28.6004
 124311972.715 6  96866484.36043  23655786.492    23655791.1684
        37.600          18.6004
 121518636.708 6  94689862.57544  23124229.969    23124234.9884
        41.700          26.7004
 117645855.091 7  91672150.19845  22387257.383    22387264.4024
        44.100          34.8004
 20  9  1  1 33  0.0000000  0 10G22G01G26G31G32G04G25G21G11G03
 112123722.444 7  87369150.18546  21336432.461    21336434.5594
        47.600          38.7004
 111657638.032 8  87005986.57746  21247741.266    21247749.2384
        48.700          38.6004
 123533739.785 6  96260114.96343  23507683.219    23507691.9924
        38.700          22.5004
 107471912.457 7  83744368.72346  20451222.859    20451226.7544
        47.700          40.4004
 119957407.040 7  93473331.08645  22827136.625    22827143.7114
        44.900          31.8004
 125208409.800 6  97565032.53544  23826363.234    23826370.3524
        41.800          24.7004
 128917014.996 5 100454851.39844  24532091.445    24532099.4454
        35.000          28.2004
 124407433.183 6  96940869.08443  23673952.141    23673956.7274
        38.500          18.3004
 121600649.505 6  94753768.61644  23139836.477    23139841.4924
        41.800          26.9004
 117565252.809 7  91609343.24145  22371919.273    22371926.3794
        44.800          34.8004
 20  9  1  1 33 30.0000000  0 10G22G01G26G31G32G04G25G21G11G03
 112071321.789 7  87328318.52046  21326460.930    21326462.9534
        47.000          38.1004
 111676693.864 8  87020835.27146  21251367.477    21251375.4494
        48.200          39.4004
 123450307.460 6  96195102.80043  23491806.547    23491815.2074
        38.300          22.6004
 107503776.406 7  83769197.77646  20457286.359    20457290.2544
        47.300          40.3004
 120024785.914 7  93525834.13145  22839958.406    22839965.4844
        44.600          30.7004
 125138693.832 7  97510708.44944  23813096.719    23813103.6914
        42.000          26.1004
 128941077.853 5 100473601.71044  24536670.320    24536678.3954
        35.400          27.4004
 124502980.016 6  97015321.06842  23692134.125    23692138.6954
        36.500          17.4004
 121682870.296 6  94817836.72644  23155482.594    23155487.5784
        41.100          26.7004
 117484786.238 7  91546642.02945  22356606.992    22356614.1094
        44.500          33.8004
 20  9  1  1 34  0.0000000  0 10G22G01G26G31G32G04G25G21G11G03
 112019195.234 7  87287700.44346  21316541.563    21316543.5394
        47.900          38.3004
 111696343.765 8  87036146.87846  21255106.727    21255114.6954
        48.000          38.6004
 123366996.473 6  96130185.18443  23475952.914    23475961.5944
        39.200          22.8004
 107536213.691 7  83794473.58946  20463458.961    20463462.8484
        47.000          40.4004
 120092210.223 7  93578372.56245  22852788.852    22852795.8714
        45.300          30.5004
 125069108.244 7  97456485.92844  23799855.023    23799861.8594
        42.100          26.5004
 128965682.921 5 100492774.52444  24541352.500    24541360.5274
        35.200          26.6004
 124598610.058 6  97089837.90542  23710331.750    23710336.5234
        36.200          17.8004
 121765296.099 6  94882064.60144  23171167.688    23171172.7704
        40.700          25.5004
 117404456.768 7  91484047.65545  22341320.781    22341327.8674
        44.100          34.2004
 20  9  1  1 34 30.0000000  0 10G22G01G26G31G32G04G25G21G11G03
 111967344.764 7  87247297.49346  21306674.734    21306676.6884
        47.300          38.5004
 111716587.095 8  87051920.89646  21258958.906    21258966.8634
        48.900          39.2004
 123283810.322 6  96065364.83543  23460123.055    23460131.7584
        38.900          22.9004
 107569223.348 7  83820195.41046  20469740.492    20469744.3674
        47.500          40.2004
 120159679.850 7  93630946.29245  22865627.898    22865634.9344
        45.600          30.8004
 124999653.225 7  97402365.15944  23786638.188    23786644.8164
        43.300          26.7004
 128990830.258 5 100512369.84344  24546137.914    24546145.9184
        34.300          27.9004
 124694320.748 6  97164417.59943  23728545.008    23728549.7274
        36.300          18.3004
 121847923.494 6  94946449.54643  23186891.141    23186896.3054
        41.400          22.9004
 117324266.604 7  91421561.83145  22326061.086    22326068.1134
        44.300          33.8004
 20  9  1  1 35  0.0000000  0 10G22G01G26G31G32G04G25G21G11G03
 111915772.082 7  87207111.00146  21296860.781    21296862.7464
        47.500          38.9004
 111737422.547 8  87068156.31546  21262923.773    21262931.7234
        48.200          39.5004
 123200751.769 6  96000643.94044  23444317.492    23444326.1254
        40.600          24.7004
 107602802.839 8  83846361.25346  20476130.453    20476134.3054
        48.400          39.9004
 120227194.068 7  93683554.80045  22878475.438    22878482.4494
        44.200          31.3004
 124930328.375 7  97348345.83344  23773446.102    23773452.5354
        42.500          26.5004
 129016519.190 5 100532387.21044  24551026.352    24551034.3984
        34.200          28.7004
 124790109.452 6  97239058.07843  23746772.930    23746777.7734
        36.800          18.3004
 121930748.903 6  95010988.80943  23202652.297    23202657.5474
        39.900          23.9004
 117244217.305 7  91359185.77545  22310828.195    22310835.1844
        44.700          33.9004
 20  9  1  1 35 30.0000000  0 10G22G01G26G31G32G04G25G21G11G03
 111864478.713 7  87167142.16146  21287099.977    21287101.9654
        47.400          39.8004
 111758848.806 8  87084852.10046  21267001.063    21267009.0084
        49.600          38.8004
 123117823.762 6  95936024.77344  23428536.813    23428545.3954
        40.300          27.7004
 107636950.194 7  83872969.59146  20482628.484    20482632.3204
        47.400          40.5004
 120294752.191 7  93736197.48345  22891331.328    22891338.3834
        43.400          31.9004
 124861133.321 7  97294427.64744  23760278.734    23760285.0204
        43.200          26.5004
 129042749.109 5 100552826.10744  24556017.695    24556025.7734
        35.800          29.0004
 124885973.199 6  97313757.05742  23765015.242    23765020.0164
        36.700          16.9004
 122013769.087 6  95075679.83643  23218450.516    23218455.8164
        41.100          23.2004
 117164310.511 7  91296920.76945  22295622.430    22295629.3794
        45.700          34.8004
 20  9  1  1 36  0.0000000  0 10G22G01G26G31G32G04G25G21G11G03
 111813467.244 8  87127392.97946  21277392.820    21277394.8594
        48.300          39.8004
 111780865.365 8  87102007.86546  21271190.680    21271198.6254
        49.000          38.8004
 123035029.940 6  95871510.15844  23412781.656    23412790.2274
        39.900          28.0004
 107671664.471 8  83900019.68046  20489234.391    20489238.1994
        48.000          40.0004
 120362354.309 7  93788874.45445  22904195.594    22904202.7034
        43.800          31.8004
 124792068.486 7  97240610.91844  23747136.117    23747142.3524
        42.000          28.2004
 129069520.117 5 100573686.64844  24561112.047    24561120.1094
        34.000          28.5004
 124981909.849 6  97388512.78042  23783271.352    23783275.9924
        37.000          16.9004
 122096981.343 6  95140520.51444  23234285.305    23234290.6644
        41.600          24.4004
 117084548.637 7  91234768.67545  22280444.258    22280451.1724
        45.500          35.4004
 20  9  1  1 36 30.0000000  0 10G22G01G26G31G32G04G25G21G11G03
 111762739.705 7  87087865.04046  21267739.680    21267741.7734
        47.700          39.4004
 111803471.012 8  87119622.65846  21275492.398    21275500.3524
        49.000          38.7004
 122952373.355 6  95807102.45644  23397052.578    23397061.2274
        40.300          29.0004
 107706943.578 7  83927509.90146  20495947.789    20495951.5664
        47.800          39.9004
 120429999.907 7  93841585.31245  22917068.133    22917075.2664
        44.700          32.1004
 124723133.588 6  97186895.46144  23734018.211    23734024.4804
        41.100          26.8004
 129096831.821 5 100594968.49844  24566309.305    24566317.3484
        32.900          26.8004
 125077916.585 6  97463323.22042  23801540.938    23801545.4344
        37.000          17.8004
 122180382.196 7  95205508.18943  23250156.008    23250161.3204
        42.900          23.2004
 117004933.494 7  91172730.92145  22265293.992    22265300.9304
        46.200          35.4004
 20  9  1  1 37  0.0000000  0 10G22G01G26G31G32G04G25G21G11G03
 111712296.581 8  87048558.71946  21258140.672    21258142.8134
        48.000          39.4004
 111826664.147 8  87137695.23646  21279905.914    21279913.8634
        48.800          39.0004
 122869856.660 6  95742803.75245  23381350.188    23381358.9534
        40.900          30.4004
 107742785.039 8  83955438.31446  20502768.195    20502771.9734
        48.100          40.8004
 120497688.085 7  93894329.33745  22929948.766    22929955.9144
        43.200          30.8004
 124654328.060 6  97133280.80444  23720924.898    23720931.3164
        39.700          25.8004
 129124683.251 5 100616670.95844  24571609.219    24571617.2114
        34.700          27.9004
 125173990.896 6  97538186.25243  23819823.320    23819827.8554
        37.200          18.6004
 122263967.854 7  95270639.82643  23266061.867    23266067.2304
        42.600          23.6004
 116925466.474 7  91110808.59645  22250171.930    22250178.8674
        46.700          35.5004
 20  9  1  1 37 30.0000000  0 10G22G01G26G31G32G04G25G21G11G03
 111662140.563 7  87009476.10946  21248596.281    21248598.4414
        47.500          39.0004
 111850444.003 8  87156224.99346  21284431.078    21284439.0274
        48.300          38.7004
 122787483.363 6  95678616.84344  23365675.047    23365683.9494
        41.000          29.1004
 107779187.389 8  83983803.79346  20509695.328    20509699.1134
        48.200          40.6004
 120565418.797 7  93947106.50345  22942837.500    22942844.6134
        42.900          30.9004
 124585652.164 6  97079767.15544  23707856.250    23707862.7384
        39.500          26.7004
 129153074.289 5 100638793.85244  24577011.828    24577019.8364
        35.000          28.0004
 125270130.358 5  97613100.00743  23838118.008    23838122.6724
        35.800          18.6004
 122347735.243 7  95335913.11344  23282002.344    23282007.5394
        43.000          24.6004
 116846149.903 7  91049003.48545  22235078.477    22235085.4344
        46.000          35.4004
 20  9  1  1 38  0.0000000  0 10G22G01G26G31G32G04G25G21G11G03
 111612274.004 7  86970619.05846  21239106.984    21239109.1564
        47.100          39.5004
 111874809.800 7  87175211.32146  21289067.734    21289075.6764
        47.900          39.1004
 122705257.021 6  95614544.40545  23350027.914    23350036.8094
        41.700          30.2004
 107816149.484 8  84012605.42946  20516728.984    20516732.7774
        48.200          40.2004
 120633192.061 7  93999916.82944  22955734.305    22955741.3914
        43.200          29.8004
 124517106.095 6  97026354.66544  23694812.320    23694818.8754
        41.300          27.2004
 129182004.857 5 100661337.13944  24582517.086    24582525.1054
        34.000          25.4004
 125366332.585 6  97688062.73842  23856424.750    23856429.3594
        36.700          17.4004
 122431681.641 7  95401325.87244  23297976.867    23297981.9774
        43.500          25.4004
 116766986.045 7  90987317.38445  22220014.078    22220021.0554
        45.900          34.8004
 20  9  1  1 38 30.0000000  0 10G22G01G26G31G32G04G25G21G11G03
 111562698.687 7  86931988.95146  21229673.102    21229675.2584
        47.400          39.7004
 111899759.990 7  87194653.03146  21293815.602    21293823.5394
        47.900          38.4004
 122623180.410 6  95550588.65844  23334409.211    23334418.0594
        40.900          28.6004
 107853668.700 7  84041841.18546  20523868.656    20523872.4694
        47.300          40.5004
 120701007.145 7  94052759.74145  22968639.094    22968646.1604
        43.400          30.1004
 124448689.399 6  96973043.00044  23681793.023    23681799.6294
        41.100          27.0004
 129211474.151 5 100684300.22944  24588124.891    24588132.9104
        33.900          26.2004
 125462594.732 6  97763072.12842  23874742.938    23874747.4614
        36.300          17.8004
 122515803.447 7  95466875.31444  23313984.766    23313989.7584
        43.100          24.8004
 116687976.513 7  90925751.53145  22204979.055    22204986.0084
        45.900          35.1004
 20  9  1  1 39  0.0000000  0 10G22G01G26G31G32G04G25G21G11G03
 111513415.985 7  86893586.85946  21220294.914    21220297.0274
        47.700          38.8004
 111925293.232 7  87214549.05646  21298674.414    21298682.3324
        47.700          38.8004
 122541256.590 6  95486751.97544  23318819.547    23318828.3484
        41.700          28.4004
 107891743.199 7  84071509.62546  20531113.992    20531117.8094
        47.700          40.2004
 120768863.489 7  94105634.80444  22981551.734    22981558.7154
        43.200          29.6004
 124380401.807 7  96919831.92944  23668798.313    23668804.8674
        42.200          27.0004
 129241481.385 5 100707682.52744  24593835.016    24593843.1134
        35.000          27.0004
 125558914.228 5  97838126.18942  23893071.898    23893076.5164
        35.500          16.9004
 122600097.233 7  95532558.75644  23330025.375    23330030.1954
        42.500          27.0004
 116609123.139 7  90864307.36845  22189973.750    22189980.6484
        45.600          34.7004
 20  9  1  1 39 30.0000000  0 10G22G01G26G31G32G04G25G21G11G03
 111464427.975 7  86855414.39246  21210972.813    21210974.8714
        47.800          39.4004
 111951408.523 7  87234898.62746  21303643.992    21303651.9224
        46.800          38.7004
 122459488.895 6  95423036.93144  23303259.633    23303268.3834
        40.100          29.1004
 107930371.087 7  84101609.27946  20538464.625    20538468.4344
        47.200          40.0004
 120836760.974 7  94158541.92644  22994472.203    22994479.2344
        43.500          29.7004
 124312243.391 7  96866721.50844  23655828.211    23655834.6684
        42.000          27.4004
 129272026.315 5 100731483.80344  24599647.523    24599655.6174
        34.200          26.0004
 125655288.548 5  97913223.00142  23911411.352    23911416.0554
        35.900          16.9004
 122684560.001 7  95598373.88044  23346098.133    23346102.9964
        42.400          27.3004
 116530428.062 7  90802986.55145  22174998.570    22175005.4184
        44.800          34.9004
 20  9  1  1 40  0.0000000  0 10G22G01G26G31G32G04G25G21G11G03
 111415736.572 7  86817473.05646  21201707.148    21201709.1374
        47.400          39.4004
 111978104.625 7  87255700.77346  21308724.086    21308732.0234
        46.700          38.6004
 122377880.548 6  95359446.07544  23287730.016    23287738.7894
        40.100          28.1004
 107969550.620 7  84132138.78446  20545920.242    20545924.0474
        47.700          40.4004
 120904699.302 7  94211480.88345  23007400.445    23007407.4804
        44.600          31.4004
 124244214.067 7  96813711.67944  23642882.656    23642889.0274
        42.100          25.1004
 129303108.470 5 100755703.67244  24605562.289    24605570.1604
        34.600          27.7004
 125751715.112 6  97988360.49642  23929760.711    23929765.5784
        36.300          17.4004
 122769188.433 7  95664318.06844  23362202.406    23362207.2854
        43.100          27.6004
 116451893.312 7  90741790.67445  22160053.883    22160060.7304
        45.800          34.4004
 20  9  1  1 40 30.0000000  0 10G22G01G26G31G32G04G25G21G11G03
 111367343.732 7  86779764.36346  21192498.289    21192500.2344
        47.400          39.6004
 112005380.272 7  87276954.52446  21313914.477    21313922.4184
        47.400          38.7004
 122296434.742 6  95295981.85344  23272231.336    23272240.1844
        40.200          27.4004
 108009279.824 7  84163096.61046  20553480.453    20553484.2544
        46.300          39.4004
 120972678.105 7  94264451.35545  23020336.383    23020343.4774
        43.800          31.6004
 124176313.718 7  96760802.35444  23629961.656    23629968.0234
        42.000          26.8004
 129334727.207 5 100780341.64344  24611579.063    24611587.1334
        31.200          26.1004
 125848191.555 5  98063536.88642  23948119.555    23948124.5234
        35.500          16.3004
 122853979.350 7  95730388.88144  23378337.617    23378342.5084
        42.700          27.4004
 116373520.828 7  90680721.22545  22145140.078    22145146.9144
        44.100          34.6004
 20  9  1  1 41  0.0000000  0 10G22G01G26G31G32G04G25G21G11G03
 111319251.014 7  86742289.52046  21183346.539    21183348.4654
        47.900          38.8004
 112033233.905 7  87298658.64946  21319214.852    21319222.7894
        47.200          38.6004
 122215154.389 6  95232646.58244  23256764.133    23256773.0394
        38.200          27.3004
 108049556.472 8  84194481.00846  20561144.844    20561148.6414
        48.000          39.9004
 121040696.797 7  94317452.94545  23033279.930    23033287.0044
        43.300          30.1004
 124108541.992 7  96707993.23844  23617065.141    23617071.4024
        42.700          24.9004
 129366875.701 5 100805390.03144  24617697.852    24617705.9024
        30.800          26.4004
 125944714.994 6  98138749.84142  23966487.453    23966492.3874
        36.900          17.4004
 122938929.343 7  95796583.65944  23394503.078    23394508.0274
        42.200          27.0004
 116295312.411 7  90619779.61645  22130257.484    22130264.3834
        44.300          34.1004
 20  9  1  1 41 30.0000000  0 10G22G01G26G31G32G04G25G21G11G03
 111271460.632 7  86705050.26146  21174252.313    21174254.2424
        46.600          38.9004
 112061664.340 7  87320812.22846  21324624.984    21324632.9224
        46.400          38.4004
 122134042.825 6  95169442.81744  23241329.078    23241337.9574
        38.800          27.1004
 108090378.769 8  84226290.59546  20568913.070    20568916.8634
        48.100          40.3004
 121108755.179 7  94370485.43845  23046231.000    23046238.1254
        43.600          30.0004
 124040898.868 7  96655284.33744  23604193.055    23604199.1684
        42.200          26.5004
 129399565.382 5 100830862.52344  24623918.375    24623926.3754
        32.000          25.9004
 126041283.137 5  98213997.71942  23984863.703    23984868.6724
        35.500          16.9004
 123024035.308 7  95862899.94844  23410698.219    23410703.2544
        42.200          26.0004
 116217270.153 7  90558967.47545  22115406.508    22115413.4844
        44.900          35.1004
 20  9  1  1 42  0.0000000  0 10G22G01G26G31G32G04G25G21G11G03
 111223974.397 7  86668048.00546  21165215.969    21165217.9104
        47.800          39.6004
 112090670.296 7  87343414.26746  21330144.641    21330152.5904
        47.800          38.1004
 122053103.238 6  95106373.08944  23225926.758    23225935.6374
        38.600          27.1004
 108131744.648 8  84258523.75146  20576784.750    20576788.5314
        48.200          39.9004
 121176852.993 7  94423548.67444  23059189.594    23059196.7234
        42.900          29.7004
 123973384.268 6  96602675.58444  23591345.438    23591351.4144
        41.300          25.8004
 129432789.693 5 100856751.61444  24630240.766    24630248.8794
        32.300          25.0004
 126137893.484 6  98289278.42042  24003248.133    24003253.1054
        36.400          16.9004
 123109293.870 6  95929335.14644  23426922.383    23426927.5394
        41.300          25.6004
 116139396.078 7  90498286.39345  22100587.539    22100594.5664
        44.600          35.0004
 20  9  1  1 42 30.0000000  0 10G22G01G26G31G32G04G25G21G11G03
 111176794.181 7  86631284.20546  21156237.875    21156239.8164
        47.400          39.7004
 112120250.272 7  87366463.58646  21335773.523    21335781.4574
        47.500          38.6004
 121972338.685 6  95043439.71044  23210557.766    23210566.5984
        39.300          25.0004
 108173652.185 8  84291178.98446  20584759.484    20584763.2544
        48.400          39.9004
 121244989.797 7  94476642.27445  23072155.602    23072162.7664
        44.600          30.9004
 123905997.900 6  96550166.77944  23578522.219    23578528.0704
        41.600          24.8004
 129466547.828 5 100883056.70544  24636664.719    24636672.9574
        32.500          26.4004
 126234543.338 6  98364589.92742  24021640.133    24021645.1484
        37.200          16.9004
 123194701.657 7  95995886.63444  23443174.977    23443180.1334
        42.400          25.5004
 116061692.144 7  90437737.88545  22085800.961    22085808.0394
        45.000          35.4004
 20  9  1  1 43  0.0000000  0 10G22G01G26G31G32G04G25G21G11G03
 111129921.433 8  86594759.99246  21147318.281    21147320.2344
        48.300          39.9004
 112150402.735 8  87389959.00146  21341511.344    21341519.2624
        48.000          37.7004
 121891752.253 6  94980645.13844  23195222.633    23195231.4574
        39.500          25.4004
 108216099.151 8  84324254.54246  20592836.875    20592840.6414
        48.700          39.5004
 121313165.109 7  94529765.88745  23085128.938    23085136.1094
        45.500          30.5004
 123838739.533 6  96497757.70844  23565723.328    23565729.1334
        41.300          24.7004
 129500838.950 5 100909777.05744  24643190.094    24643198.3674
        33.200          24.5004
 126331229.671 6  98439929.88342  24040039.102    24040044.0514
        38.800          17.4004
 123280255.590 6  96062551.98044  23459455.352    23459460.5434
        41.400          25.5004
 115984160.158 7  90377323.37945  22071047.094    22071054.2114
        45.500          35.4004
 20  9  1  1 43 30.0000000  0 10G22G01G26G31G32G04G25G21G11G03
 111083358.479 8  86558477.17646  21138457.641    21138459.5944
        48.800          39.6004
 112181126.426 7  87413899.53146  21347357.867    21347365.7704
        46.100          38.1004
 121811347.252 6  94917991.90443  23179922.016    23179930.8444
        38.300          22.6004
 108259083.480 8  84357748.82746  20601016.516    20601020.2894
        49.400          39.4004
 121381378.797 7  94582919.41944  23098109.586    23098116.7624
        44.400          28.9004
 123771609.187 6  96445448.40744  23552948.789    23552954.7304
        40.200          25.6004
 129535662.502 5 100936912.31244  24649816.758    24649825.0904
        33.000          27.5004
 126427950.605 6  98515296.71642  24058444.516    24058449.5744
        37.500          16.9004
 123365952.362 6  96129328.63544  23475762.930    23475768.1884
        41.600          24.9004
 115906802.340 7  90317044.57145  22056326.383    22056333.5084
        45.600          35.5004
 20  9  1  1 44  0.0000000  0 10G22G01G26G31G32G04G25G21G11G03
 111037106.910 8  86522437.00446  21129656.258    21129658.1914
        48.400          39.2004
 112212419.768 7  87438283.93846  21353312.789    21353320.6844
        46.300          38.2004
 121731126.758 6  94855482.46944  23164656.500    23164665.1844
        40.300          24.4004
 108302602.810 8  84391659.99546  20609297.977    20609301.7624
        48.500          39.6004
 121449630.496 7  94636102.55045  23111097.445    23111104.5474
        46.000          30.2004
 123704606.601 6  96393238.62744  23540198.555    23540204.6254
        41.400          25.8004
 129571017.686 5 100964461.81544  24656544.563    24656552.9534
        33.900          26.1004
 126524703.043 6  98590688.20842  24076855.977    24076861.2854
        37.300          14.8004
 123451788.860 7  96196214.18244  23492097.078    23492102.4614
        42.100          24.2004
 115829620.588 7  90256902.96645  22041639.180    22041646.2664
        45.700          35.7004
 20  9  1  1 44 30.0000000  0 10G22G01G26G31G32G04G25G21G11G03
 110991168.927 8  86486641.18546  21120914.547    21120916.4614
        48.300          39.2004
 112244281.526 7  87463111.27646  21359375.891    21359383.7894
        46.900          38.8004
 121651094.193 6  94793119.45443  23149426.805    23149435.2544
        41.400          23.0004
 108346655.612 8  84425986.86246  20617680.945    20617684.7464
        48.600          40.0004
 121517920.122 7  94689315.23945  23124092.531    23124099.6994
        44.100          31.0004
 123637731.858 6  96341128.49144  23527472.648    23527478.8524
        41.600          26.4004
 129606903.851 5 100992425.10344  24663373.469    24663381.7814
        33.800          24.2004
 126621484.841 6  98666102.51742  24095272.969    24095278.5354
        37.800          16.9004
 123537761.805 6  96263206.05144  23508457.242    23508462.6644
        40.900          26.2004
 115752617.189 7  90196900.34345  22026985.906    22026992.9144
        45.100          35.0004
 20  9  1  1 45  0.0000000  0 10G22G01G26G31G32G04G25G21G11G03
 110945546.086 8  86451090.92846  21112232.805    21112234.7154
        48.200          39.2004
 112276709.948 7  87488380.16646  21365546.820    21365554.7384
        47.200          38.8004
 121571252.459 6  94730905.14044  23134233.445    23134241.6094
        41.700          24.2004
 108391239.531 8  84460727.57946  20626164.977    20626168.7974
        49.000          39.8004
 121586247.110 7  94742557.05244  23137094.734    23137101.8794
        44.200          29.8004
 123570984.556 6  96289117.66644  23514771.008    23514777.3634
        41.600          25.4004
 129643320.011 5 101020801.41443  24670303.258    24670311.4574
        33.300          23.8004
 126718293.165 6  98741537.55242  24113695.078    24113700.7464
        38.500          17.4004
 123623868.238 6  96330301.92744  23524842.773    23524848.1254
        41.800          24.9004
 115675793.937 7  90137038.08945  22012366.906    22012373.8324
        45.000          35.0004
 20  9  1  1 45 30.0000000  0 10G22G01G26G31G32G04G25G21G11G03
 110900240.250 8  86415787.69246  21103611.375    21103613.2894
        48.100          39.2004
 112309703.535 7  87514089.44646  21371825.297    21371833.2584
        46.900          38.7004
 121491604.739 7  94668842.01144  23119077.000    23119084.9734
        42.900          26.0004
 108436352.270 8  84495880.36646  20634749.641    20634753.4734
        48.100          39.7004
 121654611.211 7  94795827.77244  23150103.992    23150111.1884
        43.800          28.0004
 123504364.558 6  96237206.01744  23502093.602    23502099.9224
        40.900          25.3004
 129680265.381 5 101049589.96843  24677333.742    24677341.4694
        31.300          22.9004
 126815125.685 6  98816991.39442  24132121.680    24132127.5664
        37.300          15.6004
 123710104.315 6  96397498.83544  23541253.023    23541258.4264
        40.900          25.5004
 115599152.819 7  90077317.76545  21997782.563    21997789.3554
        45.500          35.9004
 20  9  1  1 46  0.0000000  0 10G22G01G26G31G32G04G25G21G11G03
 110855253.749 7  86380733.28546  21095050.727    21095052.6524
        47.500          39.0004
 112343261.022 7  87540238.12746  21378211.086    21378219.1024
        47.000          38.6004
 121412154.531 7  94606932.78244  23103958.109    23103966.0354
        42.900          27.7004
 108481992.128 7  84531443.90146  20643434.617    20643438.4614
        47.900          40.1004
 121723012.451 7  94849127.44344  23163120.320    23163127.4574
        44.200          29.2004
 123437872.024 6  96185393.71644  23489440.477    23489446.6884
        41.600          25.7004
 129717739.350 5 101078790.45744  24684464.766    24684473.0204
        30.700          26.2004
 126911980.202 6  98892462.34442  24150552.555    24150558.5394
        37.000          16.9004
 123796467.291 7  96464794.62844  23557687.398    23557692.7304
        42.100          24.5004
 115522696.260 7  90017741.25045  21983233.336    21983240.0004
        45.300          34.8004
 20  9  1  1 46 30.0000000  0 10G22G01G26G31G32G04G25G21G11G03
 110810587.856 7  86345928.70346  21086551.078    21086553.0124
        47.100          39.9004
 112377380.430 7  87566824.66346  21384703.797    21384711.8754
        47.100          38.7004
 121332904.558 7  94545179.58744  23088877.305    23088885.3164
        43.000          27.2004
 108528156.496 7  84567416.13846  20652219.406    20652223.2624
        47.600          39.8004
 121791450.102 7  94902455.48944  23176143.578    23176150.6884
        44.100          29.4004
 123371506.360 7  96133680.27244  23476811.469    23476817.5394
        42.300          25.2004
 129755740.636 5 101108401.82744  24691696.180    24691704.4104
        30.700          27.2004
 127008853.468 6  98967947.95043  24168987.055    24168993.0984
        38.100          18.3004
 123882953.676 6  96532186.55943  23574145.234    23574150.5634
        40.900          23.9004
 115446425.827 7  89958309.76245  21968719.539    21968726.1414
        44.900          35.7004
 20  9  1  1 47  0.0000000  0 10G22G01G26G31G32G04G25G21G11G03
 110766244.704 7  86311375.60946  21078112.859    21078114.8094
        47.300          40.7004
 112412060.479 7  87593848.06746  21391303.195    21391311.3054
        47.300          38.2004
 121253858.325 7  94483585.15244  23073835.273    23073843.3284
        43.200          27.0004
 108574843.471 7  84603795.59746  20661103.641    20661107.5234
        47.500          40.0004
 121859924.260 7  94955811.96644  23189173.781    23189180.8524
        43.900          28.5004
 123305267.727 7  96082065.79544  23464206.664    23464212.5864
        43.000          26.0004
 129794268.605 5 101138423.62144  24699027.828    24699036.1024
        32.600          28.9004
 127105743.282 6  99043446.44343  24187424.625    24187430.7544
        38.200          18.3004
 123969560.534 6  96599672.39343  23590625.984    23590631.3134
        41.200          23.9004
 115370343.932 7  89899025.19246  21954241.625    21954248.2704
        46.000          37.1004
 20  9  1  1 47 30.0000000  0 10G22G01G26G31G32G04G25G21G11G03
 110722226.104 7  86277075.41546  21069736.398    21069738.3524
        47.600          40.3004
 112447299.329 7  87621306.89446  21398008.930    21398017.0434
        47.300          38.1004
 121175018.801 7  94422151.80744  23058832.578    23058840.7274
        42.600          28.0004
 108622050.455 8  84640580.26646  20670086.828    20670090.7344
        48.400          39.6004
 121928434.457 7  95009196.54044  23202210.852    23202217.8324
        43.600          28.3004
 123239155.761 7  96030550.01144  23451625.945    23451631.7304
        42.600          26.0004
 129833322.243 5 101168855.04245  24706459.555    24706467.7624
        33.800          30.7004
 127202646.903 6  99118955.69742  24205864.945    24205871.0314
        36.900          17.4004
 124056284.384 6  96667249.39143  23607128.992    23607134.1844
        41.500          22.0004
 115294452.445 7  89839888.98246  21939799.953    21939806.6724
        46.300          36.6004
 20  9  1  1 48  0.0000000  0 10G22G01G26G31G32G04G25G21G11G03
 110678533.860 7  86243029.51946  21061422.031    21061423.9924
        47.800          39.2004
 112483095.373 7  87649199.91046  21404820.695    21404828.7734
        46.900          38.8004
 121096389.182 7  94360882.01144  23043869.828    23043878.0514
        43.000          29.1004
 108669775.539 7  84677768.64746  20679168.602    20679172.5274
        47.300          40.0004
 121996980.426 7  95062608.98744  23215254.719    23215261.6484
        43.300          27.7004
 123173170.319 6  95979132.82544  23439069.281    23439074.9654
        41.900          24.3004
 129872900.543 5 101199695.27645  24713991.094    24713999.2734
        35.800          31.4004
 127299561.840 6  99194473.76842  24224307.250    24224313.4064
        37.600          17.8004
 124143122.160 6  96734915.14443  23623653.688    23623658.8324
        40.400          21.1004
 115218753.443 7  89780902.75646  21925394.914    21925401.7504
        46.000          36.6004
 20  9  1  1 48 30.0000000  0 10G22G01G26G31G32G04G25G21G11G03
 110635169.846 7  86209239.38646  21053170.133    21053172.0944
        47.500          39.6004
 112519447.024 7  87677525.86546  21411738.195    21411746.2234
        47.900          37.6004
 121017972.730 7  94299778.34044  23028947.648    23028955.9654
        42.600          28.6004
 108718016.535 7  84715359.03946  20688348.555    20688352.4844
        47.600          39.4004
 122065562.052 7  95116049.21344  23228305.375    23228312.3164
        42.300          28.1004
 123107311.373 6  95927814.18844  23426536.703    23426542.2854
        41.700          26.5004
 129913002.723 5 101230943.73945  24721622.328    24721630.4614
        35.500          32.1004
 127396485.904 6  99269998.93442  24242751.367    24242757.5354
        37.300          17.4004
 124230070.792 6  96802667.30443  23640199.469    23640204.5044
        41.700          22.5004
 115143249.108 7  89722068.22946  21911026.914    21911033.8674
        46.200          36.8004
 20  9  1  1 49  0.0000000  0 10G22G01G26G31G32G04G25G21G11G03
 110592135.932 7  86175706.47846  21044981.039    21044982.9924
        47.500          39.9004
 112556352.677 8  87706283.51246  21418761.117    21418769.1024
        48.400          38.7004
 120939772.667 7  94238843.27845  23014066.648    23014075.0704
        42.900          30.6004
 108766771.532 8  84753349.95146  20697626.320    20697630.2344
        48.000          40.1004
 122134179.141 7  95169517.06444  23241362.773    23241369.7584
        42.600          26.7004
 123041578.771 7  95876594.01644  23414028.156    23414033.6214
        42.600          25.9004
 129953627.805 5 101262599.67444  24729353.016    24729361.1094
        35.400          29.6004
 127493416.475 6  99345529.18942  24261196.664    24261202.9144
        37.600          16.9004
 124317127.227 6  96870503.44543  23656765.758    23656770.8594
        40.700          21.5004
 115067941.579 7  89663387.04546  21896696.352    21896703.3714
        47.000          36.5004
 20  9  1  1 49 30.0000000  0 10G22G01G26G31G32G04G25G21G11G03
 110549433.886 7  86142432.16846  21036855.102    21036857.0434
        46.800          39.8004
 112593810.394 8  87735471.33846  21425889.102    21425897.0514
        48.000          38.5004
 120861791.882 7  94178079.08445  22999227.383    22999235.9104
        43.300          30.5004
 108816037.609 7  84791739.10946  20707001.344    20707005.2304
        47.900          39.5004
 122202831.231 7  95223012.20244  23254426.813    23254433.7934
        43.000          27.9004
 122975972.103 7  95825471.99344  23401543.570    23401548.9574
        42.400          26.7004
 129994774.586 5 101294662.11844  24737182.938    24737191.0634
        33.800          29.1004
 127590350.727 6  99421062.31742  24279642.711    24279648.7974
        36.700          16.3004
 124404287.840 6  96938420.78743  23673351.898    23673356.8524
        40.600          21.8004
 114992832.735 7  89604860.68246  21882403.586    21882410.5904
        45.000          36.0004
 20  9  1  1 50  0.0000000  0 10G22G01G26G31G32G04G25G21G11G03
 110507065.520 7  86109417.86246  21028792.664    21028794.6094
        47.300          39.6004
 112631818.436 8  87765087.99146  21433121.797    21433129.7194
        48.100          38.7004
 120784033.634 7  94117488.29045  22984430.453    22984439.0434
        43.000          30.4004
 108865812.544 8  84830524.77446  20716473.188    20716477.0354
        48.100          39.6004
 122271518.141 7  95276534.46144  23267497.500    23267504.4614
        42.100          27.3004
 122910491.284 7  95774448.01744  23389082.938    23389088.4024
        43.100          26.5004
 130036441.999 5 101327130.25744  24745111.930    24745120.0514
        33.400          26.0004
 127687286.398 6  99496596.53742  24298089.023    24298095.1294
        36.200          16.3004
 124491549.734 6  97006417.03743  23689957.359    23689962.2734
        41.600          22.3004
 114917924.690 7  89546490.79146  21868149.047    21868156.0164
        46.500          36.4004
 20  9  1  1 50 30.0000000  0 10G22G01G26G31G32G04G25G21G11G03
 110465032.922 7  86076665.19346  21020794.125    21020796.0474
        47.500          39.9004
 112670375.310 8  87795132.30346  21440458.938    21440466.8634
        48.000          38.6004
 120706501.286 7  94057073.52045  22969676.516    22969685.0984
        42.300          30.5004
 108916094.472 7  84869705.49746  20726041.516    20726045.3554
        47.800          39.5004
 122340239.853 7  95330083.83144  23280574.797    23280581.7114
        42.100          27.6004
 122845136.378 7  95723522.15044  23376646.273    23376651.8524
        42.100          28.3004
 130078629.288 5 101360003.47544  24753139.875    24753147.9414
        30.700          24.5004
 127784220.954 5  99572129.89342  24316535.180    24316541.1134
        35.500          16.9004
 124578909.712 6  97074489.70843  23706581.422    23706586.3594
        40.500          21.5004
 114843219.772 7  89488279.17545  21853933.148    21853939.9924
        46.400          35.7004
 20  9  1  1 51  0.0000000  0 10G22G01G26G31G32G04G25G21G11G03
 110423338.017 7  86044175.67246  21012859.852    21012861.7424
        47.100          40.3004
 112709479.059 7  87825602.75146  21447900.141    21447908.0744
        47.000          38.6004
 120629197.874 7  93996837.14645  22954966.125    22954974.6954
        43.300          31.1004
 108966880.874 7  84909279.32446  20735705.844    20735709.6994
        47.000          39.9004
 122408996.023 7  95383660.07044  23293658.664    23293665.5824
        43.400          27.5004
 122779907.007 7  95672694.11144  23364233.508    23364239.1884
        42.400          29.0004
 130121333.23415 101393278.87853  24761266.461    24761274.2074
        30.700          20.6004
 127881151.908 5  99647660.42042  24334980.422    24334986.4344
        35.200          14.8004
 124666364.470 6  97142636.22143  23723223.602    23723228.4964
        39.200          22.9004
 114768719.921 7  89430227.36946  21839756.297    21839762.9924
        46.700          36.3004
 20  9  1  1 51 30.0000000  0 10G22G01G26G31G32G04G25G21G11G03
 110381981.899 7  86011950.13546  21004990.039    21004991.9064
        47.300          40.5004
 112749127.815 7  87856497.87946  21455445.047    21455452.9844
        47.600          38.1004
 120552126.442 7  93936781.52845  22940299.891    22940308.4064
        43.400          30.7004
 109018169.394 7  84949244.40946  20745465.719    20745469.5864
        47.500          39.2004
 122477786.288 7  95437262.86944  23306749.023    23306755.8914
        43.100          27.8004
 122714802.967 7  95621963.73144  23351844.602    23351850.4384
        42.400          29.1004
 130164556.658 4 101426959.49043  24769491.492    24769499.5044
        29.600          19.6004
 127978076.615 6  99723186.12542  24353424.594    24353430.5904
        36.500          17.4004
 124753910.529 6  97210853.88843  23739883.086    23739888.1374
        38.900          22.2004
 114694427.159 7  89372336.93246  21825618.852    21825625.4614
        47.200          36.6004
 20  9  1  1 52  0.0000000  0 11G22G01G26G31G32G04G25G16G21G11G03
 110340967.173 7  85979990.61446  20997185.195    20997187.0474
        47.800          40.4004
 112789319.878 7  87887816.36046  21463093.352    21463101.2774
        47.500          37.8004
 120475290.291 7  93876909.24145  22925678.453    22925686.8914
        43.800          31.3004
 109069957.827 7  84989599.03346  20755320.727    20755324.6024
        47.300          39.5004
 122546610.587 7  95490892.18344  23319845.852    23319852.7034
        43.200          27.7004
 122649824.202 7  95571330.96544  23339479.539    23339485.4884
        42.500          29.3004
 130208295.435 4 101461043.44942  24777814.828    24777823.3634
        28.300          16.9004
 132414577.084 5                  25197655.992
        33.200
 128074992.645 6  99798704.94642  24371867.211    24371873.0204
        36.500          16.3004
 124841545.373 6  97279140.74543  23756559.500    23756564.5514
        39.500          22.5004
 114620343.739 7  89314609.61646  21811521.250    21811527.8444
        47.400          37.3004
 20  9  1  1 52 30.0000000  0 10G22G01G26G31G32G04G16G21G11G03
 110300295.297 7  85948298.24946  20989445.594    20989447.4414
        47.300          40.4004
 112830053.331 7  87919556.70746  21470844.680    21470852.6134
        47.100          38.3004
 120398692.510 7  93817222.70045  22911102.375    22911110.7894
        43.200          30.7004
 109122243.893 8  85030341.42046  20765270.438    20765274.3134
        48.600          39.4004
 122615468.709 7  95544547.85144  23332949.117    23332955.9774
        42.300          28.2004
 122584970.496 7  95520795.63344  23327138.281    23327144.3164
        43.200          29.6004
 132316235.301 5 103103583.52242  25178942.313    25178948.0784
        33.200          16.9004
 128171897.556 6  99874215.20242  24390307.688    24390313.5124
        37.100          16.3004
 124929265.521 6  97347494.04443  23773252.133    23773257.2774
        39.600          22.3004
 114546471.754 7  89257047.04546  21797463.883    21797470.5434
        47.200          37.3004
 20  9  1  1 53  0.0000000  0 10G22G01G26G31G32G04G16G21G11G03
 110259967.794 7  85916874.23246  20981771.523    20981773.3794
        47.200          40.8004
 112871326.138 8  87951717.32846  21478698.641    21478706.5664
        48.100          38.1004
 120322336.102 6  93757724.24944  22896572.211    22896580.5904
        41.900          29.7004
 109175025.009 7  85071469.56046  20775314.344    20775318.1994
        47.200          39.4004
 122684360.279 7  95598229.61644  23346058.758    23346065.5864
        42.200          27.6004
 122520241.483 7  95470357.46644  23314820.734    23314826.8444
        42.900          28.6004
 132217723.720 5 103026821.42243  25160196.414    25160202.1524
        35.800          18.3004
 128268788.760 6  99949714.81542  24408745.563    24408751.3204
        37.300          17.4004
 125017067.530 6  97415911.16643  23789960.336    23789965.5354
        40.400          22.8004
 114472813.115 7  89199650.71946  21783447.102    21783453.8324
        46.500          37.3004
 20  9  1  1 53 30.0000000  0 10G22G01G26G31G32G04G16G21G11G03
 110219986.844 8  85885720.24946  20974163.406    20974165.2664
        49.000          41.0004
 112913136.602 8  87984296.90646  21486654.922    21486662.8404
        48.000          38.2004
 120246224.362 7  93698416.43044  22882088.602    22882096.9694
        42.500          29.8004
 109228298.807 7  85112981.61246  20785452.000    20785455.8554
        47.400          39.6004
 122753285.311 7  95651937.39844  23359174.750    23359181.5474
        42.400          27.6004
 122455637.202 7  95420016.50544  23302526.938    23302533.1414
        42.200          29.7004
 132119044.777 5 102949928.84242  25141418.422    25141424.1414
        34.800          16.9004
 128365663.678 6 100025201.62243  24427180.242    24427186.0274
        37.400          18.3004
 125104948.627 6  97484389.88243  23806683.586    23806688.8954
        37.700          22.2004
 114399370.219 7  89142422.50046  21769471.367    21769478.1804
        46.800          37.4004
 20  9  1  1 54  0.0000000  0 10G22G01G26G31G32G04G16G21G11G03
 110180354.793 7  85854838.13746  20966621.680    20966623.5354
        47.900          40.9004
 112955483.118 7  88017294.18246  21494713.203    21494721.1174
        47.700          37.6004
 120170360.750 7  93639301.95644  22867652.211    22867660.5474
        42.200          28.3004
 109282063.443 7  85154876.13646  20795683.070    20795686.9534
        47.900          39.6004
 122822243.904 6  95705671.37344  23372297.125    23372303.8954
        41.900          26.5004
 122391157.731 6  95369772.78844  23290256.883    23290263.1644
        41.400          29.2004
 132020201.495 5 102872908.26142  25122608.914    25122614.8914
        33.900          16.3004
 128462520.442 6 100100674.38542  24445611.414    24445617.3984
        38.400          17.8004
 125192905.998 6  97552928.03643  23823421.336    23823426.7384
        39.400          22.0004
 114326145.419 7  89085364.21846  21755537.133    21755543.9964
        46.700          36.9004
 20  9  1  1 54 30.0000000  0 10G22G01G26G31G32G04G16G21G11G03
 110141072.873 7  85824228.85946  20959146.578    20959148.4494
        47.800          40.3004
 112998363.326 7  88050707.32746  21502873.055    21502880.9694
        47.500          38.1004
 120094748.022 6  93580382.99144  22853263.547    22853271.8674
        41.000          26.9004
 109336316.207 7  85197151.01446  20806007.031    20806010.9344
        47.600          40.2004
 122891235.478 7  95759431.04544  23385425.797    23385432.5394
        42.600          25.5004
 122326802.553 7  95319625.92044  23278010.477    23278016.7734
        42.000          29.3004
 131921196.357 5 102795761.56042  25103768.742    25103774.8284
        34.900          16.9004
 128559356.179 6 100176130.66143  24464038.750    24464044.7584
        37.900          18.3004
 125280936.397 6  97621523.10643  23840172.977    23840178.4924
        39.200          23.0004
 114253140.510 7  89028477.29146  21741644.742    21741651.5944
        46.800          37.5004
 20  9  1  1 55  0.0000000  0 10G22G01G26G31G32G04G16G21G11G03
 110102142.496 7  85793893.50646  20951738.367    20951740.2584
        47.500          40.6004
 113041775.313 7  88084534.84546  21511134.086    21511141.9774
        47.900          37.9004
 120019389.330 6  93521661.96744  22838923.227    22838931.5594
        40.900          26.2004
 109391054.432 8  85239804.17846  20816423.367    20816427.2854
        48.600          39.5004
 122960259.893 7  95813216.29444  23398560.695    23398567.4694
        43.600          27.9004
 122262571.456 6  95269575.75544  23265787.688    23265793.9734
        41.900          28.0004
 131822032.458 6 102718491.08242  25084898.289    25084904.4574
        36.200          16.9004
 128656167.995 6 100251568.44443  24482461.594    24482467.6334
        38.400          18.3004
 125369036.140 6  97690172.20343  23856937.758    23856943.3674
        39.000          22.0004
 114180357.589 7  88971763.34446  21727794.594    21727801.3834
        46.400          37.1004
 20  9  1  1 55 30.0000000  0 10G22G01G26G31G32G04G16G21G11G03
 110063566.138 7  85763834.01246  20944397.523    20944399.4144
        47.900          40.2004
 113085717.384 8  88118775.40946  21519495.992    21519503.8524
        48.000          37.4004
 119944288.084 6  93463141.52844  22824631.883    22824640.1994
        39.100          25.6004
 109446275.904 7  85282833.90046  20826931.664    20826935.5824
        47.900          40.1004
 123029317.274 7  95867027.25744  23411701.875    23411708.6564
        43.600          26.9004
 122198464.608 7  95219622.39344  23253588.539    23253594.7194
        42.600          26.7004
 131722711.842 5 102641098.48342  25065997.836    25066004.1054
        34.600          15.6004
 128752953.726 6 100326985.82243  24500879.297    24500885.4694
        37.700          18.3004
 125457202.498 6  97758873.21343  23873715.281    23873720.9104
        39.600          22.2004
 114107799.144 7  88915224.32446  21713987.172    21713993.8954
        46.700          36.7004
 20  9  1  1 56  0.0000000  0 10G22G01G26G31G32G04G16G21G11G03
 110025345.350 8  85734051.59146  20937124.352    20937126.2274
        48.300          40.8004
 113130187.308 7  88153427.28746  21527958.352    21527966.2034
        47.200          37.5004
 119869447.173 6  93404823.98044  22810390.094    22810398.4454
        41.800          25.8004
 109501978.222 7  85326238.30546  20837531.469    20837535.3634
        47.900          39.3004
 123098407.153 7  95920863.54444  23424849.250    23424855.9844
        43.900          27.1004
 122134481.513 6  95169765.47044  23241412.938    23241418.9884
        41.800          28.0004
 131623237.105 5 102563585.80842  25047068.133    25047074.5124
        35.200          17.4004
 128849710.875 6 100402380.94142  24519291.609    24519297.8794
        39.800          17.4004
 125545432.212 6  97827623.60843  23890504.859    23890510.4384
        40.000          22.9004
 114035467.112 7  88858861.72246  21700222.844    21700229.4804
        46.900          36.9004
 20  9  1  1 56 30.0000000  0 10G22G01G26G31G32G04G16G21G11G03
 109987481.819 8  85704547.55246  20929919.156    20929920.9964
        48.400          40.5004
 113175182.911 7  88188488.78246  21536520.734    21536528.5744
        47.200          38.3004
 119794869.601 6  93346711.61644  22796198.422    22796206.6644
        40.000          25.7004
 109558158.885 8  85370015.45546  20848222.289    20848226.1484
        48.000          39.2004
 123167529.314 7  95974724.97744  23438002.766    23438009.4614
        43.200          26.5004
 122070621.873 6  95120004.74944  23229260.820    23229266.7274
        40.900          26.4004
 131523611.354 5 102485955.44342  25028110.070    25028116.2424
        35.900          15.6004
 128946437.153 6 100477752.00743  24537698.180    24537704.4614
        39.100          18.6004
 125633722.057 6  97896420.81644  23907305.875    23907311.5234
        40.900          24.4004
 113963363.457 7  88802677.07246  21686501.977    21686508.5434
        46.600          36.8004
 20  9  1  1 57  0.0000000  0 10G22G01G26G31G32G04G16G21G11G03
 109949976.778 8  85675322.85546  20922782.195    20922784.0164
        48.900          40.9004
 113220702.012 7  88223958.19446  21545182.734    21545190.5824
        46.700          38.0004
 119720558.333 7  93288806.74544  22782057.445    22782065.5474
        43.600          25.8004
 109614815.120 7  85414163.17046  20859003.609    20859007.4344
        47.300          39.2004
 123236683.374 7  96028611.25344  23451162.344    23451169.0164
        43.000          27.1004
 122006885.418 6  95070340.01444  23217132.148    23217137.9614
        40.300          26.8004
 131423836.494 6 102408208.86243  25009123.625    25009129.5824
        37.000          18.3004
 129043129.419 6 100553096.60242  24556098.164    24556104.4344
        38.100          16.3004
 125722068.894 6  97965262.51844  23924117.852    23924123.3094
        40.900          24.5004
 113891490.200 7  88746671.96146  21672824.938    21672831.4884
        46.600          37.5004
 20  9  1  1 57 30.0000000  0 10G22G01G26G31G32G04G16G21G11G03
 109912833.166 8  85646379.79046  20915714.000    20915715.8204
        48.100          41.0004
 113266743.198 7  88259834.42646  21553944.078    21553951.9574
        47.000          37.2004
 119646517.122 7  93231112.32644  22767967.844    22767975.7664
        43.400          26.3004
 109671944.929 7  85458679.91246  20869875.055    20869878.8524
        47.600          39.1004
 123305869.893 7  96082522.82744  23464328.102    23464334.8134
        43.400          26.2004
 121943272.535 6  95020771.57644  23205026.969    23205032.7504
        40.500          27.7004
 131323916.102 6 102330348.88142  24990109.500    24990115.3324
        36.300          16.9004
 129139785.893 6 100628413.29743  24574491.313    24574497.5704
        39.900          19.3004
 125810469.949 6  98034146.38743  23940940.047    23940945.5704
        40.600          22.3004
 113819850.177 7  88690848.57846  21659192.273    21659198.9104
        46.500          37.2004
 20  9  1  1 58  0.0000000  0 10G22G01G26G31G32G04G16G21G11G03
 109876052.309 8  85617719.38746  20908714.836    20908716.6644
        48.300          40.6004
 113313303.995 7  88296115.54346  21562804.313    21562812.2234
        47.100          37.4004
 119572748.736 7  93173630.49044  22753930.164    22753938.0314
        42.800          28.3004
 109729545.876 7  85503563.77646  20880836.156    20880839.9384
        47.900          38.4004
 123375088.357 7  96136459.28944  23477499.938    23477506.6484
        42.800          26.9004
 121879782.648 6  94971298.97344  23192945.227    23192951.0204
        41.100          27.3004
 131223852.504 5 102252377.32642  24971067.930    24971073.7704
        35.200          17.8004
 129236403.999 6 100703700.07242  24592877.195    24592883.5044
        39.900          16.9004
 125898921.813 6  98103069.90943  23957771.992    23957777.4024
        41.400          22.9004
 113748445.153 7  88635208.31246  21645604.328    21645611.0314
        46.700          37.6004
 20  9  1  1 58 30.0000000  0 10G22G01G26G31G32G04G16G21G11G03
 109839635.253 7  85589342.46446  20901784.898    20901786.7274
        47.000          40.7004
 113360382.222 7  88332799.86046  21571763.008    21571770.9694
        45.800          37.7004
 119499256.175 7  93116363.59644  22739944.961    22739952.8284
        42.700          28.2004
 109787615.308 7  85548812.69146  20891886.406    20891890.1954
        46.600          39.2004
 123444338.480 7  96190420.40444  23490677.805    23490684.5554
        43.300          26.7004
 121816415.536 6  94921922.04344  23180886.852    23180892.6604
        41.100          28.8004
 131123648.240 6 102174296.25142  24951999.594    24952005.4264
        37.000          16.3004
 129332981.017 6 100778954.83443  24611255.094    24611261.5084
        38.700          18.6004
 125987421.244 7  98172030.46643  23974612.914    23974618.1804
        42.200          22.2004
 113677277.210 7  88579752.77246  21632061.508    21632068.2664
        46.300          37.7004
 20  9  1  1 59  0.0000000  0 10G22G01G26G31G32G04G16G21G11G03
 109803584.388 8  85561250.89546  20894924.648    20894926.4654
        48.200          41.4004
 113407975.814 7  88369885.76446  21580819.773    21580827.7704
        47.200          38.4004
 119426042.632 7  93059314.12844  22726012.859    22726020.8554
        43.200          29.7004
 109846150.377 7  85594424.44446  20903025.250    20903029.0354
        47.800          38.9004
 123513620.256 7  96244406.21844  23503861.703    23503868.4924
        43.200          27.9004
 121753171.107 6  94872640.69844  23168851.836    23168857.6954
        41.200          29.3004
 131023306.308 6 102096107.74742  24932905.063    24932910.8714
        37.100          16.3004
 129429515.066 6 100854176.12442  24629625.031    24629631.2704
        39.200          16.9004
 126075965.385 6  98241025.87543  23991462.414    23991467.6644
        41.800          22.2004
 113606348.604 7  88524483.73746  21618564.227    21618571.0084
        47.000          38.4004
 20  9  1  1 59 30.0000000  0 10G22G01G26G31G32G04G16G21G11G03
 109767901.591 7  85533446.11746  20888134.438    20888136.2384
        47.700          41.4004
 113456082.823 7  88407371.72646  21589974.250    21589982.2704
        47.000          37.9004
 119353111.364 7  93002484.61545  22712134.484    22712142.5784
        43.600          30.3004
 109905149.201 7  85640397.56046  20914252.359    20914256.1214
        47.900          38.7004
 123582933.718 7  96298416.70144  23517051.625    23517058.4414
        43.800          26.4004
 121690049.325 6  94823454.93444  23156840.148    23156846.1604
        41.900          28.4004
 130922829.434 6 102017814.15042  24913784.914    24913790.5084
        37.900          15.6004
 129526003.103 6 100929361.60342  24647986.102    24647992.3714
        40.000          16.9004
 126164551.473 6  98310053.97643  24008319.828    24008325.0744
        41.300          22.3004
 113535661.719 7  88469403.05446  21605112.953    21605119.7034
        46.900          37.5004
 20  9  1  2  0  0.0000000  0 10G22G01G26G31G32G04G16G21G11G03
 109732588.564 8  85505929.47746  20881414.594    20881416.3754
        48.700          41.1004
 113504701.051 7  88445256.05146  21599226.000    21599234.0434
        47.800          38.2004
 119280465.451 7  92945877.46745  22698310.406    22698318.5824
        43.500          31.2004
 109964609.120 8  85686729.97346  20925567.203    20925570.9384
        48.700          38.8004
 123652278.714 7  96352451.76044  23530247.547    23530254.3404
        44.500          26.5004
 121627049.967 7  94774364.57344  23144851.758    23144857.8634
        42.200          29.4004
 130822220.316 6 101939417.68842  24894639.391    24894645.1024
        37.200          15.6004
 129622442.744 6 101004509.29442  24666337.930    24666344.3204
        38.700          16.9004
 126253176.112 6  98379112.10643  24025184.609    24025189.7974
        40.800          22.0004
 113465218.713 7  88414512.41646  21591708.086    21591714.7464
        47.500          37.4004
 20  9  1  2  0 30.0000000  0 10G22G01G26G31G32G04G16G21G11G03
 109697646.981 8  85478702.27546  20874765.438    20874767.2034
        48.800          41.2004
 113553828.225 7  88483536.95046  21608574.602    21608582.6414
        47.300          36.8004
 119208107.824 7  92889494.95445  22684541.195    22684549.4614
        44.300          31.6004
 110024527.681 7  85733419.75446  20936969.320    20936973.0354
        47.500          38.7004
 123721655.004 7  96406511.20544  23543449.438    23543456.2704
        43.500          27.0004
 121564172.757 6  94725369.38244  23132886.609    23132892.7814
        41.100          28.9004
 130721481.733 6 101860920.17442  24875469.234    24875475.0594
        36.900          13.9004
 129718831.937 6 101079617.77242  24684680.242    24684686.4964
        39.600          16.3004
 126341836.260 6  98448197.90443  24042056.125    24042061.3554
        40.200          21.5004
 113395021.607 8  88359813.38846  21578350.023    21578356.5784
        48.300          37.3004
 20  9  1  2  1  0.0000000  0 10G22G01G26G31G32G04G16G21G11G03
 109663078.538 7  85451765.83746  20868187.281    20868189.0314
        47.900          40.6004
 113603462.158 7  88522212.72946  21618019.633    21618027.6804
        46.600          37.1004
 119136041.620 7  92833339.52145  22670827.445    22670835.7584
        43.900          31.8004
 110084901.989 7  85780464.68346  20948458.164    20948461.8914
        47.500          39.0004
 123791062.526 7  96460594.97944  23556657.266    23556664.1764
        45.000          26.9004
 121501417.470 6  94676469.19344  23120944.648    23120950.9344
        40.600          28.6004
 130620616.423 6                  24856275.242
        37.900
 129815168.111 6 101154684.79442  24703012.453    24703018.5004
        38.700          16.9004
 126430529.220 6  98517309.27943  24058933.883    24058939.0594
        39.600          21.7004
 113325072.665 7  88305307.73146  21565039.172    21565045.6454
        47.800          36.9004
 20  9  1  2  1 30.0000000  0 10G22G01G26G31G32G04G16G21G11G03
 109628884.520 8  85425121.15946  20861680.375    20861682.1094
        48.500          40.8004
 113653600.453 7  88561281.51046  21627560.633    21627568.6764
        47.100          37.5004
 119064269.727 7  92777413.41445  22657169.688    22657178.0394
        43.500          32.6004
 110145729.413 7  85827862.67546  20960033.227    20960036.9494
        47.800          38.9004
 123860500.988 7  96514702.89244  23569870.977    23569877.9344
        43.700          27.1004
 121438783.780 6  94627663.76244  23109025.828    23109032.2194
        41.400          29.1004
 130519627.037 5 101703617.95342  24837057.625    24837063.0864
        35.400          16.3004
 129911448.645 6 101229708.56042  24721334.023    24721340.0944
        38.800          16.3004
 126519251.425 6  98586443.40943  24075817.164    24075822.4844
        37.900          19.0004
 113255373.879 8  88250997.00646  21551775.914    21551782.3754
        48.100          37.7004
 20  9  1  2  2  0.0000000  0 10G22G01G26G31G32G04G16G21G11G03
 109595067.579 8  85398770.30346  20855245.219    20855246.9264
        48.200          40.6004
 113704241.372 7  88600741.95646  21637197.289    21637205.3404
        46.600          36.9004
 118992795.754 7  92721719.44345  22643568.633    22643576.9574
        43.800          32.0004
 110207007.939 7  85875612.18446  20971694.141    20971697.8954
        47.500          38.9004
 123929970.800 7  96568835.18244  23583090.641    23583097.6604
        43.500          27.9004
 121376272.009 6  94578953.33744  23097130.203    23097136.6644
        41.200          29.4004
 130418516.558 6 101624830.63442  24817816.836    24817822.3554
        37.200          16.3004
 130007671.531 6 101304687.37642  24739644.570    24739650.6334
        38.300          15.6004
 126608000.145 6  98655598.21043  24092705.508    24092710.9024
        38.800          19.9004
 113185927.969 7  88196883.31946  21538560.781    21538567.3014
        47.400          37.3004
 20  9  1  2  2 30.0000000  0 10G22G01G26G31G32G04G16G21G11G03
 109561629.139 7  85372714.38446  20848882.086    20848883.7814
        47.600          40.1004
 113755382.507 7  88640592.17546  21646929.141    21646937.1884
        47.300          36.9004
 118921622.611 7  92666259.88945  22630024.813    22630033.0984
        43.200          30.5004
 110268735.020 8  85923711.21146  20983440.414    20983444.1804
        48.100          39.0004
 123999471.692 7  96622991.72944  23596316.227    23596323.3164
        43.000          25.2004
 121313881.814 7  94530337.62344  23085257.711    23085264.1954
        42.600          29.1004
 130317287.600 6 101545950.98142  24798553.773    24798559.0784
        37.100          15.6004
 130103834.326 6 101379619.35542  24757943.758    24757949.7304
        37.200          14.8004
 126696772.355 6  98724771.35843  24109598.305    24109603.7854
        37.700          19.6004
 113116736.989 7  88142968.27646  21525394.172    21525400.7504
        47.500          38.3004
 20  9  1  2  3  0.0000000  0 10G22G01G26G31G32G04G16G21G11G03
 109528570.525 7  85346954.42846  20842591.234    20842592.9454
        47.700          41.1004
 113807021.350 7  88680830.22046  21656755.695    21656763.7384
        47.000          37.4004
 118850753.092 6  92611036.92744  22616538.750    22616546.9964
        39.900          28.9004
 110330907.908 7  85972157.62746  20995271.516    20995275.2814
        47.500          38.8004
 124069003.416 7  96677172.29344  23609547.656    23609554.6954
        42.200          25.3004
 121251612.752 7  94481816.30544  23073408.250    23073414.8404
        42.200          28.3004
 130215943.007 5 101466981.23742  24779268.242    24779273.8874
        34.400          15.6004
 130199934.266 6 101454502.40442  24776230.883    24776236.9104
        37.500          15.6004
 126785565.294 6  98793960.59243  24126494.977    24126500.5704
        38.300          21.5004
 113047802.882 7  88089253.39046  21512276.438    21512283.0744
        46.900          38.2004
 20  9  1  2  3 30.0000000  0 10G22G01G26G31G32G04G16G21G11G03
 109495893.715 7  85321491.98346  20836373.031    20836374.7544
        47.200          41.6004
 113859155.786 7  88721454.43946  21666676.555    21666684.5864
        46.900          38.1004
 118780190.428 7  92556053.07144  22603111.086    22603119.2234
        42.600          29.1004
 110393524.042 8  86020949.41946  21007186.969    21007190.7384
        48.100          38.6004
 124138565.939 7  96731376.84044  23622784.961    23622792.0394
        42.400          26.3004
 121189464.810 7  94433389.38044  23061581.844    23061588.4414
        42.300          28.9004
 130114485.815 6 101387923.76742  24759961.383    24759967.2624
        36.600          14.8004
 130295969.522 6 101529335.00442  24794505.852    24794511.9064
        36.600          15.6004
 126874375.256 6  98863163.10943  24143394.945    24143400.6914
        37.500          20.1004
 112979128.038 7  88035740.53746  21499208.047    21499214.7234
        47.800          38.9004
 20  9  1  2  4  0.0000000  0 10G22G01G26G31G32G04G16G21G11G03
 109463600.123 8  85296328.14946  20830227.758    20830229.4844
        48.200          40.8004
 113911783.365 7  88762462.92646  21676691.266    21676699.2934
        46.800          37.5004
 118709937.546 7  92501310.59844  22589742.375    22589750.3554
        42.900          29.1004
 110456580.578 7  86070084.38746  21019186.211    21019189.9844
        47.600          38.6004
 124208159.113 7  96785605.25944  23636028.086    23636035.1414
        42.000          24.9004
 121127437.695 7  94385056.59744  23049778.422    23049784.9064
        42.500          27.4004
 130012918.617 6 101308780.58542  24740633.656    24740639.6254
        36.900          16.9004
 130391936.935 5 101604114.73942  24812767.727    24812773.9344
        35.000          16.3004
 126963199.289 6  98932376.59643  24160297.563    24160303.3484
        38.300          19.6004
 112910714.544 8  87982431.33246  21486189.391    21486196.0664
        48.200          38.8004
 20  9  1  2  4 30.0000000  0 10G22G01G26G31G32G04G16G21G11G03
 109431691.531 7  85271464.31546  20824155.750    20824157.4844
        47.200          41.4004
 113964901.794 7  88803853.90146  21686799.383    21686807.4144
        47.500          37.8004
 118639997.571 7  92446811.94644  22576433.234    22576441.1174
        43.100          29.1004
 110520075.075 7  86119560.61946  21031268.805    21031272.5904
        47.200          39.1004
 124277782.894 7  96839857.55744  23649277.047    23649284.0554
        42.100          24.7004
 121065531.258 7  94336817.84244  23037997.977    23038004.3204
        42.500          28.1004
 129911244.268 6 101229553.97842  24721285.656    24721291.4384
        37.600          17.4004
 130487834.537 5 101678840.15042  24831016.516    24831022.6914
        35.000          15.6004
 127052034.819 6  99001599.03043  24177202.500    24177208.2424
        38.300          21.1004
 112842564.641 7  87929327.52946  21473220.883    21473227.5164
        47.800          38.3004
 20  9  1  2  5  0.0000000  0 10G22G01G26G31G32G04G16G21G11G03
 109400170.043 7  85246902.12246  20818157.406    20818159.1564
        47.900          40.6004
 114018508.883 7  88845625.65246  21697000.492    21697008.5204
        46.400          37.7004
 118570373.643 7  92392559.57344  22563184.227    22563192.0434
        43.500          28.5004
 110584005.162 8  86169376.27146  21043434.297    21043438.1024
        48.400          38.5004
 124347437.366 7  96894133.77244  23662531.859    23662538.8054
        42.300          25.3004
 121003745.474 7  94288673.10144  23026240.492    23026246.6524
        43.800          28.1004
 129809465.898 6 101150246.22142  24701918.133    24701923.3204
        38.200          17.4004
 130583660.005 6 101753509.18942  24849251.438    24849257.7034
        36.400          17.4004
 127140878.843 6  99070828.01843  24194108.898    24194114.6684
        37.100          20.1004
 112774680.707 7  87876430.97646  21460302.992    21460309.5704
        47.200          38.4004
 20  9  1  2  5 30.0000000  0 10G22G01G26G31G32G04G16G21G11G03
 109369037.003 7  85222642.61246  20812232.977    20812234.7384
        47.700          41.1004
 114072602.054 7  88887776.16246  21707294.102    21707302.1134
        46.400          36.6004
 118501068.581 7  92338555.64644  22549995.891    22550003.5944
        43.400          29.9004
 110648367.971 7  86219529.11846  21055682.125    21055685.9454
        47.400          38.8004
 124417122.221 7  96948433.66444  23675792.430    23675799.3164
        43.000          26.0004
 120942079.885 7  94240622.02244  23014505.898    23014511.8714
        42.900          27.8004
 129707586.072 6 101070859.46042  24682531.234    24682535.9304
        37.500          16.3004
 130679410.611 6 101828119.98542  24867472.344    24867478.5704
        36.500          15.6004
 127229728.018 6  99140061.14443  24211016.398    24211021.9734
        38.400          20.1004
 112707064.738 7  87823743.22846  21447436.086    21447442.6254
        46.800          38.0004
 20  9  1  2  6  0.0000000  0  9G22G01G26G31G32G04G16G11G03
 109338294.277 7  85198687.24646  20806382.820    20806384.5664
        47.500          41.2004
 114127179.173 7  88930303.77446  21717679.805    21717687.7854
        46.300          36.8004
 118432085.699 7  92284802.76545  22536868.859    22536876.5164
        44.000          30.5004
 110713161.135 8  86270017.30246  21068011.859    21068015.6844
        48.100          38.7004
 124486837.667 7  97002757.39044  23689058.852    23689065.6884
        42.700          24.2004
 120880534.633 6  94192664.69344  23002794.203    23002800.0744
        41.600          28.9004
 129605608.017 6 100991396.11443  24663125.438    24663129.8634
        37.700          18.3004
 127318579.699 6  99209296.20443  24227924.375    24227929.8794
        37.700          22.2004
 112639719.235 7  87771266.23046  21434620.648    21434627.1414
        47.500          37.4004
 20  9  1  2  6 30.0000000  0  9G22G01G26G31G32G04G16G11G03
 109307942.514 8  85175036.53146  20800607.063    20800608.8014
        48.400          40.8004
 114182237.329 7  88973206.22446  21728157.023    21728164.9924
        46.600          36.0004
 118363427.479 7  92231302.88745  22523803.609    22523811.2624
        43.500          30.0004
 110778381.231 7  86320838.16246  21080422.820    21080426.6454
        47.900          37.9004
 124556583.133 7  97057104.50544  23702330.984    23702337.7664
        43.600          26.4004
 120819108.967 7  94144800.57644  22991105.281    22991111.0824
        42.300          29.0004
 129503533.769 6 100911857.90142  24643701.008    24643705.7194
        36.800          16.9004
 127407430.073 6  99278530.18043  24244832.086    24244837.6174
        40.600          21.8004
 112572645.877 7  87719001.29246  21421857.000    21421863.4774
        47.200          38.0004
 20  9  1  2  7  0.0000000  0  9G22G01G26G31G32G04G16G11G03
 109277984.167 7  85151692.37246  20794906.172    20794907.9064
        47.500          40.8004
 114237774.674 7  89016482.06346  21738725.430    21738733.3874
        45.200          36.1004
 118295097.441 7  92178058.74645  22510800.805    22510808.5124
        44.200          30.0004
 110844026.728 8  86371990.49646  21092914.742    21092918.5744
        48.000          38.8004
 124626359.104 7  97111475.39744  23715608.922    23715615.6724
        42.300          26.5004
 120757803.283 7  94097029.93444  22979439.188    22979444.9344
        42.500          29.2004
 129401366.930 6 100832247.50543  24624259.094    24624264.0204
        37.000          18.3004
 127496277.069 6  99347761.52743  24261739.172    24261744.5704
        39.500          21.5004
 112505847.449 7  87666950.59246  21409145.664    21409152.1804
        47.200          38.9004
 20  9  1  2  7 30.0000000  0  9G22G01G26G31G32G04G16G11G03
 109248421.238 7  85128656.33446  20789280.531    20789282.2464
        46.600          41.1004
 114293788.758 7  89060129.39046  21749384.563    21749392.5044
        44.600          36.1004
 118227098.621 7  92125072.68945  22497861.031    22497868.8014
        43.600          31.2004
 110910094.485 7  86423471.87246  21105487.016    21105490.8364
        47.700          38.8004
 124696165.570 7  97165870.07244  23728892.648    23728899.3554
        42.000          24.9004
 120696617.377 7  94049352.62944  22967795.891    22967801.6054
        42.900          29.6004
 129299110.355 5 100752567.12343  24604800.164    24604805.3404
        35.200          18.3004
 127585117.940 6  99416988.14743  24278645.031    24278650.4654
        37.800          22.6004
 112439326.151 7  87615115.82546  21396487.070    21396493.6564
        47.500          39.4004
 20  9  1  2  8  0.0000000  0  9G22G01G26G31G32G04G16G11G03
 109219255.675 7  85105929.93146  20783730.492    20783732.2114
        47.200          40.9004
 114350277.232 7  89104146.36646  21760133.961    21760141.9304
        45.000          36.0004
 118159434.127 7  92072347.15745  22484984.859    22484992.7344
        42.700          30.9004
 110976582.281 8  86475280.54346  21118139.227    21118143.0394
        48.400          38.7004
 124766002.583 6  97220288.51544  23742182.203    23742188.9184
        41.700          25.3004
 120635551.192 7  94001768.61144  22956175.383    22956181.0984
        42.400          29.4004
 129196767.000 5 100672819.16943  24585324.539    24585330.1294
        34.900          19.0004
 127673949.726 6  99486207.69443  24295549.305    24295554.7034
        38.600          22.8004
 112373084.343 7  87563498.85046  21383881.664    21383888.3094
        47.700          39.0004
 20  9  1  2  8 30.0000000  0  9G22G01G26G31G32G04G16G11G03
 109190488.279 7  85083513.78946  20778256.234    20778257.9494
        46.400          40.9004
 114407237.261 7  89148530.78846  21770973.094    21770981.0904
        45.200          36.1004
 118092106.513 7  92019884.12845  22472172.797    22472180.7734
        42.700          30.5004
 111043486.906 7  86527414.01546  21130870.750    21130874.5784
        47.300          38.3004
 124835869.694 6  97274730.43344  23755477.469    23755484.1884
        38.800          24.0004
 120574604.146 6  93954277.44045  22944577.539    22944583.2504
        41.400          30.1004
 129094339.502 6 100593005.62042  24565833.039    24565838.8554
        36.000          17.8004
 127762768.861 6  99555417.32543  24312450.992    24312456.4654
        39.400          22.3004
 112307123.863 8  87512101.09046  21371329.805    21371336.5084
        48.100          39.5004
 20  9  1  2  9  0.0000000  0  9G22G01G26G31G32G04G16G11G03
 109162120.553 7  85061409.07246  20772858.023    20772859.7544
        47.600          41.1004
 114464666.353 7  89193280.71246  21781901.500    21781909.5474
        44.400          37.1004
 118025118.781 7  91967685.94445  22459425.414    22459433.4614
        43.500          31.9004
 111110805.696 8  86579870.21746  21143681.086    21143684.9224
        48.000          38.5004
 124905766.872 6  97329195.76843  23768778.453    23768785.1374
        41.200          23.6004
 120513776.045 7  93906878.94745  22933002.336    22933008.1054
        43.000          30.2004
 128991831.098 5 100513129.00942  24546326.383    24546332.1254
        35.300          17.4004
 127851572.333 6  99624614.78743  24329349.758    24329355.1844
        39.400          22.2004
 112241446.936 8  87460924.27646  21358831.883    21358838.5984
        48.100          38.7004
 20  9  1  2  9 30.0000000  0  9G22G01G26G31G32G04G16G11G03
 109134154.545 7  85039617.38146  20767536.258    20767538.0004
        47.500          40.9004
 114522562.280 7  89238394.40346  21792918.734    21792926.8164
        44.800          36.8004
 117958474.182 7  91915755.14145  22446743.328    22446751.4534
        43.600          32.3004
 111178536.396 8  86632647.39446  21156569.797    21156573.6174
        48.200          38.0004
 124975694.384 6  97383684.75444  23782085.203    23782091.8714
        41.900          25.3004
 120453066.983 7  93859573.21445  22921449.766    22921455.5784
        42.100          30.4004
 128889244.521 6 100433191.55343  24526804.859    24526810.4344
        37.000          19.3004
 127940357.660 6  99693798.08543  24346245.039    24346250.5044
        37.600          21.7004
 112176056.086 7  87409970.37846  21346388.406    21346395.0984
        47.300          38.4004
 20  9  1  2 10  0.0000000  0  9G22G01G26G31G32G04G16G11G03
 109106591.624 7  85018139.78346  20762291.195    20762292.9454
        47.600          41.6004
 114580922.393 7  89283869.79546  21804024.305    21804032.4224
        45.600          37.3004
 117892175.563 7  91864093.92145  22434127.094    22434135.2344
        44.100          32.8004
 111246676.276 7  86685743.40146  21169536.383    21169540.1844
        47.800          37.9004
 125045652.052 6  97438197.23844  23795397.695    23795404.3364
        41.000          26.2004
 120392476.655 6  93812360.01245  22909919.781    22909925.6764
        40.800          30.4004
 128786582.670 6 100353195.38443  24507269.117    24507274.4734
        37.200          20.9004
 128029121.665 6  99762964.80843  24363136.320    24363141.6054
        40.900          21.7004
 112110953.415 7  87359241.03646  21333999.758    21334006.4224
        46.300          38.7004
 20  9  1  2 10 30.0000000  0  9G22G01G26G31G32G04G16G11G03
 109079433.592 7  84996977.67946  20757123.188    20757124.9304
        47.700          41.2004
 114639744.219 7  89329704.96846  21815217.742    21815225.8674
        46.300          37.4004
 117826225.892 7  91812704.60845  22421577.266    22421585.4344
        44.900          33.0004
 111315222.478 8  86739156.02446  21182580.289    21182584.0664
        48.500          38.3004
 125115639.942 6  97492733.25344  23808715.938    23808722.6134
        41.700          25.3004
 120332004.958 7  93765239.24245  22898412.375    22898418.3754
        42.500          30.2004
 128683848.578 6 100273142.95842  24487719.430    24487724.7704
        37.200          17.4004
 128117861.568 6  99832112.71543  24380023.000    24380028.2734
        38.100          20.6004
 112046141.202 7  87308738.02646  21321666.383    21321673.0124
        47.200          38.5004
 20  9  1  2 11  0.0000000  0  9G22G01G26G31G32G04G16G11G03
 109052681.757 7  84976132.09546  20752032.477    20752034.2074
        47.200          41.5004
 114699025.188 7  89375897.91146  21826498.555    21826506.6644
        46.800          37.7004
 117760628.069 7  91761589.45945  22409094.406    22409102.5664
        45.000          32.4004
 111384172.369 7  86792883.20946  21195701.023    21195704.7854
        47.900          38.2004
 125185657.898 7  97547292.68844  23822039.922    23822046.6374
        43.100          25.0004
 120271651.627 7  93718210.70044  22886927.469    22886933.5944
        42.800          29.9004
 128581045.209 6 100193036.48843  24468156.523    24468161.7304
        37.700          20.4004
 128206574.337 6  99901239.46643  24396904.500    24396909.8834
        39.000          20.9004
 111981621.644 7  87258463.05546  21309388.703    21309395.3014
        47.500          38.6004
 20  9  1  2 11 30.0000000  0  9G22G01G26G31G32G04G16G11G03
 109026338.520 8  84955604.90146  20747019.516    20747021.2274
        48.500          41.4004
 114758763.043 7  89422446.87046  21837866.313    21837874.3874
        46.300          37.3004
 117695385.374 7  91710751.02545  22396679.117    22396687.2504
        45.500          32.8004
 111453523.587 8  86846923.12146  21208898.117    21208901.8794
        48.200          38.3004
 125255706.313 7  97601875.87344  23835369.695    23835376.4454
        42.300          25.9004
 120211416.849 7  93671274.53745  22875465.133    22875471.4064
        42.300          30.3004
 128478176.024 5 100112878.78243  24448581.023    24448586.2854
        35.600          19.6004
 128295257.355 6  99970343.08543  24413780.477    24413785.6994
        40.200          22.2004
 111917397.306 8  87208418.13246  21297167.211    21297173.7734
        48.100          39.2004
 20  9  1  2 12  0.0000000  0  9G22G01G26G31G32G04G16G11G03
 109000404.119 7  84935396.28146  20742084.359    20742086.0704
        47.700          41.5004
 114818954.471 7  89469349.26146  21849320.383    21849328.4184
        45.800          37.2004
 117630499.995 7  91660191.02745  22384331.828    22384339.9344
        44.200          31.9004
 111523272.793 8  86901273.16146  21222170.953    21222174.7344
        48.300          37.9004
 125325784.407 6  97656482.17544  23848705.125    23848711.8714
        41.800          25.3004
 120151299.684 6  93624430.02544  22864025.164    22864031.5744
        41.400          29.9004
 128375243.282 6 100032671.55543  24428993.469    24428998.9304
        38.200          20.1004
 128383907.257 6 100039420.84343  24430650.008    24430655.2704
        37.500          20.1004
 111853469.682 8  87158604.41846  21285002.195    21285008.7424
        48.300          39.8004
 20  9  1  2 12 30.0000000  0  9G22G01G26G31G32G04G16G11G03
 108974880.809 8  84915507.99146  20737227.430    20737229.1484
        48.800          41.1004
 114879597.474 7  89516603.52946  21860860.375    21860868.3834
        45.600          36.8004
 117565975.416 7  91609912.16545  22372053.188    22372061.2234
        45.100          31.9004
 111593417.649 8  86955931.49146  21235519.078    21235522.8754
        48.900          38.5004
 125395892.773 7  97711112.05944  23862046.305    23862053.1254
        42.800          26.6004
 120091300.556 7  93577677.48945  22852607.656    22852614.0864
        42.300          30.2004
 128272250.397 6  99952417.43243  24409394.500    24409399.9614
        37.600          19.6004
 128472521.537 6 100108470.89543  24447512.797    24447518.0824
        37.600          20.4004
 111789841.595 8  87109024.10146  21272894.172    21272900.7034
        48.100          39.7004
 20  9  1  2 13  0.0000000  0  9G22G01G26G31G32G04G16G11G03
 108949769.939 8  84895941.07946  20732448.977    20732450.6954
        48.400          41.4004
 114940689.246 7  89564207.48546  21872485.766    21872493.7664
        45.200          36.0004
 117501814.383 7  91559916.56845  22359843.711    22359851.6294
        44.000          30.4004
 111663955.515 8  87010896.06846  21248941.992    21248945.7664
        48.900          38.3004
 125466031.183 7  97765765.36644  23875393.211    23875400.0704
        42.100          25.4004
 120031419.097 7  93531016.63445  22841212.555    22841218.9064
        42.500          30.4004
 128169200.149 6  99872118.61243  24389784.586    24389790.1054
        38.300          20.6004
 128561096.937 6 100177490.67543  24464368.188    24464373.3444
        37.200          18.3004
 111726515.114 7  87059678.79946  21260843.539    21260850.0784
        47.600          39.2004
 20  9  1  2 13 30.0000000  0  9G22G01G26G31G32G04G16G11G03
 108925073.995 8  84876697.50046  20727749.492    20727751.2034
        48.200          40.6004
 115002227.635 7  89612159.46345  21884196.141    21884204.1334
        45.300          34.8004
 117438020.209 7  91510206.86144  22347704.063    22347711.8164
        43.800          28.9004
 111734884.029 8  87066165.03746  21262439.250    21262442.9804
        49.000          37.5004
 125536200.145 6  97820442.49744  23888745.945    23888752.8014
        41.800          24.6004
 119971655.571 7  93484447.68645  22829839.898    22829846.1644
        42.000          30.0004
 128066095.871 6  99791777.67443  24370164.398    24370169.9654
        38.400          19.0004
 128649631.372 6 100246478.43743  24481215.695    24481220.9144
        37.900          18.6004
 111663492.914 7  87010570.59946  21248850.797    21248857.3794
        46.800          39.4004
 20  9  1  2 14  0.0000000  0  9G22G01G26G31G32G04G16G11G03
 108900793.172 8  84857777.38246  20723128.992    20723130.6914
        48.700          41.8004
 115064209.379 7  89660456.91645  21895990.883    21895998.8834
        44.800          35.7004
 117374595.130 7  91460784.74744  22335634.648    22335642.2854
        43.200          29.1004
 111806199.796 8  87121735.76646  21276010.188    21276013.8754
        48.800          38.2004
 125606399.008 6  97875142.90744  23902104.352    23902111.1954
        41.600          25.2004
 119912009.234 7  93437970.05145  22818489.555    22818495.7384
        43.000          31.0004
 127962940.210 6  99711396.71743  24350534.555    24350540.0274
        39.700          21.3004
 128738121.239 6 100315431.56443  24498054.922    24498060.2624
        36.900          19.3004
 111600776.596 7  86961700.74346  21236916.258    21236922.8634
        46.900          39.4004
 20  9  1  2 14 30.0000000  0  9G22G01G26G31G32G04G16G11G03
 108876929.420 7  84839182.25546  20718587.867    20718589.5744
        47.900          41.7004
 115126632.080 7  89709097.96745  21907869.547    21907877.5634
        45.200          34.9004
 117311542.288 7  91411652.68845  22323636.070    22323643.6684
        43.400          30.6004
 111877900.370 8  87177606.34546  21289654.352    21289658.0004
        48.900          37.9004
 125676628.054 6  97929866.82244  23915468.484    23915475.3244
        40.500          26.1004
 119852480.076 6  93391583.72545  22807161.523    22807167.6764
        41.900          30.4004
 127859736.315 6  99630978.21443  24330895.430    24330900.9924
        40.100          20.1004
 128826564.002 6 100384347.88842  24514884.828    24514890.3444
        36.000          16.3004
 111538368.688 7  86913071.20946  21225040.414    21225047.0434
        47.200          40.0004
 20  9  1  2 15  0.0000000  0  9G22G01G26G31G32G04G16G11G03
 108853485.200 8  84820914.04146  20714126.578    20714128.3014
        48.200          41.8004
 115189493.516 7  89758080.89545  21919831.688    21919839.7384
        45.300          35.8004
 117248865.054 7  91362813.31245  22311708.969    22311716.6134
        42.900          30.8004
 111949983.515 8  87233775.04246  21303371.313    21303374.9414
        48.200          38.1004
 125746887.752 6  97984614.63644  23928838.453    23928845.3244
        40.700          24.8004
 119793068.447 6  93345288.98045  22795855.859    22795861.9964
        41.700          30.5004
 127756487.793 6  99550524.83443  24311247.922    24311253.1724
        40.400          19.9004
 128914957.124 6 100453225.65343  24531705.539    24531710.9534
        36.100          18.3004
 111476271.875 7  86864684.09346  21213223.773    21213230.3914
        47.000          40.3004
 20  9  1  2 15 30.0000000  0  9G22G01G26G31G32G04G16G11G03
 108830460.528 8  84802972.73946  20709745.125    20709746.8554
        48.100          41.8004
 115252790.141 7  89807402.92845  21931876.648    21931884.7464
        45.500          35.8004
 117186565.379 6  91314268.14145  22299853.703    22299861.4024
        41.700          30.8004
 112022445.980 8  87290239.28946  21317160.469    21317164.0824
        48.600          37.8004
 125817177.221 6  98039385.63543  23942214.070    23942220.8984
        40.600          22.3004
 119733773.290 7  93299084.98745  22784572.359    22784578.4614
        42.900          30.1004
 127653196.713 6  99470038.37943  24291592.242    24291597.3054
        40.500          20.1004
 129003297.320 5 100522062.07342  24548516.117    24548521.8674
        35.200          16.3004
 111414487.502 7  86816540.44746  21201466.609    21201473.1804
        47.900          40.0004
 20  9  1  2 16  0.0000000  0  9G22G01G26G31G32G04G16G11G03
 108807857.634 8  84785360.10146  20705443.930    20705445.6684
        48.600          41.9004
 115316519.880 7  89857062.45046  21944004.016    21944012.1484
        45.300          36.1004
 117124646.716 6  91266019.87845  22288070.922    22288078.7274
        41.400          31.2004
 112095285.215 8  87346997.15046  21331021.328    21331024.9414
        48.200          37.9004
 125887497.123 6  98094180.36843  23955595.477    23955602.3244
        37.300          21.7004
 119674595.067 7  93252972.10145  22773311.109    22773317.1684
        42.400          30.7004
 127549866.829 6  99389521.63143  24271929.195    24271934.1214
        40.900          20.4004
 129091581.991 6 100590855.28542  24565316.086    24565322.0514
        38.200          17.4004
 111353018.452 7  86768642.50446  21189769.438    21189775.9264
        47.800          39.2004
 20  9  1  2 16 30.0000000  0  9G22G01G26G31G32G04G16G11G03
 108785678.249 7  84768077.47046  20701223.336    20701225.0784
        47.900          41.7004
 115380680.104 7  89907057.41045  21956213.313    21956221.5084
        45.700          35.4004
 117063111.979 6  91218070.77945  22276361.203    22276369.1254
        41.700          32.3004
 112168498.895 8  87404046.76346  21344953.438    21344957.0354
        48.200          36.6004
 125957847.563 6  98148998.86043  23968982.695    23968989.5864
        40.200          23.2004
 119615533.663 7  93206950.26345  22762072.094    22762078.1684
        43.600          30.2004
 127446501.161 6  99308977.03143  24252259.305    24252264.2154
        39.600          19.0004
 129179808.151 6 100659602.91743  24582105.141    24582111.0354
        38.400          18.3004
 111291867.025 7  86720992.05946  21178132.711    21178139.1254
        47.700          39.7004
 20  9  1  2 17  0.0000000  0  9G22G01G26G31G32G04G16G11G03
 108763923.107 7  84751125.41447  20697083.461    20697085.2114
        47.900          42.0004
 115445267.675 7  89957385.37146  21968503.945    21968512.1764
        46.300          37.3004
 117001963.576 7  91170422.71945  22264725.008    22264733.0434
        42.600          33.0004
 112242083.351 8  87461385.30746  21358956.094    21358959.6564
        48.100          37.3004
 126028228.130 6  98203840.85644  23982375.672    23982382.5594
        41.800          25.2004
 119556588.495 7  93161018.99945  22750855.188    22750861.1844
        43.200          30.2004
 127343102.719 6  99228406.87043  24232583.164    24232587.9774
        40.700          21.5004
 129267973.093 5 100728302.78142  24598882.438    24598888.3594
        34.600          16.3004
 111231035.035 7  86673590.52646  21166556.766    21166563.1134
        47.500          38.9004
 20  9  1  2 17 30.0000000  0  9G22G01G26G31G32G04G16G11G03
 108742594.390 7  84734505.62946  20693024.742    20693026.5004
        47.100          41.0004
 115510280.333 7  90008044.56746  21980875.453    21980883.6954
        44.300          36.2004
 116941204.766 7  91123078.23345  22253162.945    22253171.0124
        43.000          32.8004
 112316036.450 7  87519011.10446  21373028.898    21373032.4184
        45.100          36.5004
 126098639.286 6  98258706.68744  23995774.461    23995781.3364
        40.500          26.6004
 119497759.874 6  93115178.53844  22739660.461    22739666.3204
        41.800          29.7004
 127239674.690 6  99147813.63343  24212901.469    24212906.2544
        39.900          21.1004
 129356074.167 6 100796952.93542  24615647.563    24615653.6054
        37.400          16.9004
 111170525.201 7  86626440.02146  21155042.117    21155048.4534
        45.700          39.3004
 20  9  1  2 18  0.0000000  0  9G22G01G26G31G32G04G16G11G03
 108721693.236 8  84718219.01546  20689047.383    20689049.1334
        48.800          41.7004
 115575715.071 7  90059032.65346  21993327.297    21993335.5124
        46.100          36.4004
 116880838.069 7  91076039.28145  22241675.531    22241683.5744
        44.500          33.6004
 112390355.714 8  87576922.20946  21387171.375    21387174.8754
        48.100          36.4004
 126169080.839 7  98313596.19044  24009179.047    24009185.9304
        42.400          26.4004
 119439047.380 6  93069428.57244  22728487.828    22728493.5234
        41.800          29.5004
 127136219.924 6  99067199.58343  24193214.688    24193219.5314
        40.500          21.3004
 129444108.428 6 100865551.04942  24632400.070    24632405.8954
        36.800          15.6004
 111110339.493 8  86579542.07946  21143589.141    21143595.5164
        48.000          39.7004
 20  9  1  2 18 30.0000000  0  9G22G01G26G31G32G04G16G11G03
 108701220.822 8  84702266.49247  20685151.609    20685153.3404
        48.400          42.0004
 115641569.003 7  90110347.38846  22005858.906    22005867.1374
        46.800          37.1004
 116820866.178 7  91029307.96045  22230263.258    22230271.2504
        45.700          33.2004
 112465038.049 7  87635116.23546  21401382.961    21401386.4614
        47.900          37.3004
 126239552.705 6  98368509.32444  24022589.398    24022596.2734
        41.700          26.1004
 119380450.743 7  93023768.87244  22717337.242    22717342.8134
        43.700          29.1004
 127032741.540 6  98986567.07443  24173523.398    24173528.2934
        40.000          19.6004
 129532073.038 6 100934094.85943  24649139.211    24649144.7854
        37.700          18.3004
 111050480.019 8  86532898.33546  21132198.250    21132204.6804
        48.100          39.8004
 20  9  1  2 19  0.0000000  0  9G22G01G26G31G32G04G16G11G03
 108681178.973 8  84686649.47446  20681337.766    20681339.4734
        49.200          41.6004
 115707839.639 7  90161986.82746  22018469.820    22018478.0514
        46.600          36.6004
 116761292.152 7  90982886.66245  22218926.688    22218934.5944
        46.000          34.0004
 112540080.854 8  87693591.15446  21415663.133    21415666.6844
        48.000          38.1004
 126310055.199 7  98423446.32644  24036005.578    24036012.4064
        42.900          24.1004
 119321970.053 7  92978199.52645  22706208.703    22706214.2274
        43.900          30.5004
 126929242.826 6  98905918.79843  24153828.133    24153833.2974
        39.800          19.6004
 129619965.537 6 101002582.45242  24665864.594    24665870.4494
        38.100          17.4004
 110990949.305 8  86486510.77446  21120869.914    21120876.3984
        48.300          39.6004
 20  9  1  2 19 30.0000000  0  9G22G01G26G31G32G04G16G11G03
 108661569.244 8  84671369.16946  20677606.148    20677607.8444
        48.800          41.8004
 115774524.223 7  90213948.81446  22031159.477    22031167.7154
        46.700          36.3004
 116702118.763 7  90936777.55645  22207666.359    22207674.1684
        44.700          31.8004
 112615481.395 7  87752344.82246  21430011.375    21430014.9774
        47.500          37.5004
 126380588.402 7  98478407.27544  24049427.609    24049434.3874
        42.900          25.6004
 119263605.148 7  92932720.41144  22695102.195    22695107.7664
        43.100          29.0004
 126825727.059 6  98825257.17843  24134129.680    24134134.8914
        39.100          19.6004
 129707782.731 6 101071011.43342  24682575.820    24682581.6644
        37.100          17.4004
 110931749.554 7  86440381.10346  21109604.578    21109611.0984
        47.900          40.3004
 20  9  1  2 20  0.0000000  0  9G22G01G26G31G32G04G16G11G03
 108642392.311 8  84656426.11247  20673956.898    20673958.5864
        49.400          42.0004
 115841619.671 7  90266230.95846  22043927.328    22043935.5634
        46.300          36.1004
 116643348.490 7  90890982.55745  22196482.727    22196490.4384
        44.300          31.9004
 112691236.691 8  87811374.92546  21444427.117    21444430.7624
        48.100          37.5004
 126451152.050 7  98533391.94444  24062855.430    24062862.2194
        42.500          27.1004
 119205355.657 7  92887331.22544  22684017.648    22684023.3404
        42.700          29.3004
 126722196.947 6  98744584.39443  24114428.445    24114433.6414
        38.700          18.6004
 129795521.995 6 101139379.59142  24699271.914    24699277.8134
        36.900          17.8004
 110872882.783 8  86394510.90546  21098402.586    21098409.1174
        48.200          40.3004
 20  9  1  2 20 30.0000000  0  9G22G01G26G31G32G04G16G11G03
 108623650.001 8  84641821.72147  20670390.344    20670392.0354
        48.500          42.1004
 115909123.421 7  90318831.26345  22056772.875    22056781.1054
        45.900          35.8004
 116584984.303 7  90845504.01045  22185376.367    22185383.9844
        44.000          31.4004
 112767344.133 7  87870679.43246  21458909.883    21458913.5274
        47.900          37.1004
 126521746.460 7  98588400.56844  24076289.109    24076295.9144
        42.300          25.8004
 119147221.660 7  92842032.03145  22672955.086    22672960.8794
        43.400          31.4004
 126618655.893 6  98663903.08543  24094725.234    24094730.4264
        38.600          19.0004
 129883180.766 6 101207685.11843  24715952.961    24715958.6094
        40.000          20.1004
 110814351.450 7  86348902.08346  21087264.445    21087270.9494
        47.700          39.9004
 20  9  1  2 21  0.0000000  0  9G22G01G26G31G32G04G16G11G03
 108605344.162 8  84627557.43047  20666906.859    20666908.5594
        48.900          42.1004
 115977032.878 7  90371747.70045  22069695.617    22069703.8244
        45.800          35.5004
 116527029.113 7  90800344.13945  22174347.828    22174355.3954
        42.600          30.8004
 112843801.375 8  87930256.50046  21473459.219    21473462.8444
        48.500          37.0004
 126592371.950 6  98643433.39944  24089728.680    24089735.5784
        40.300          25.2004
 119089203.182 7  92796822.84645  22661914.516    22661920.4104
        43.100          31.5004
 126515107.280 6  98583215.95943  24075020.539    24075025.7274
        37.400          18.3004
 129970756.514 6 101275925.88843  24732618.063    24732623.7304
        38.000          19.6004
 110756157.963 8  86303556.51946  21076190.570    21076197.0394
        48.100          39.0004
 20  9  1  2 21 30.0000000  0  9G22G01G26G31G32G04G16G11G03
 108587475.300 8  84613633.64147  20663506.523    20663508.2274
        48.900          42.0004
 116045344.808 7  90424977.74945  22082694.953    22082703.1564
        45.800          34.8004
 116469485.275 7  90755504.80945  22163397.547    22163405.0704
        42.200          30.7004
 112920605.190 7  87990103.62746  21488074.500    21488078.0944
        47.700          37.2004
 126663028.118 6  98698490.11844  24103174.094    24103181.0234
        40.700          26.9004
 119031299.674 7  92751703.26945  22650895.820    22650901.7934
        43.200          31.5004
 126411553.963 6  98502525.10443  24055315.070    24055319.9924
        38.800          19.6004
 130058246.236 6 101344099.62343  24749266.828    24749272.4964
        38.900          19.3004
 110698304.180 8  86258475.66146  21065181.352    21065187.7624
        48.200          39.2004
 20  9  1  2 22  0.0000000  0  9G22G01G26G31G32G04G16G11G03
 108570045.348 8  84600051.85447  20660189.719    20660191.4384
        48.600          42.2004
 116114056.689 7  90478519.44845  22095770.391    22095778.5984
        44.900          34.4004
 116412355.755 7  90710988.32945  22152526.125    22152533.6334
        42.100          30.8004
 112997753.084 7  88050218.86346  21502755.250    21502758.8444
        47.300          36.7004
 126733715.347 6  98753571.06744  24116625.422    24116632.4734
        40.700          26.1004
 118973511.325 7  92706673.40345  22639899.039    22639905.0554
        44.100          31.9004
 126307999.128 5  98421833.08743  24035609.180    24035613.9384
        35.500          18.6004
 130145647.488 6 101412204.45243  24765898.789    24765904.3054
        39.800          21.5004
 110640792.614 7  86213661.46646  21054237.242    21054243.6134
        47.800          39.9004
 20  9  1  2 22 30.0000000  0  9G22G01G26G31G32G04G16G11G03
 108553055.736 8  84586813.19247  20656956.703    20656958.4454
        48.900          42.2004
 116183165.716 7  90532370.63145  22108921.406    22108929.5944
        44.500          33.3004
 116355643.356 7  90666796.87545  22141734.094    22141741.6374
        43.300          31.9004
 113075242.457 7  88110600.19346  21517500.969    21517504.6134
        46.700          37.3004
 126804433.743 6  98808676.30844  24130082.680    24130089.7854
        40.200          25.5004
 118915838.055 7  92661733.21645  22628924.164    22628930.2704
        43.500          31.1004
 126204446.276 6  98341142.64943  24015903.680    24015908.3594
        37.100          18.6004
 130232957.104 6 101480237.85743  24782513.484    24782519.0394
        39.400          19.6004
 110583625.551 7  86169115.71546  21043358.703    21043365.0864
        47.500          39.9004
 20  9  1  2 23  0.0000000  0  9G22G01G26G31G32G04G16G11G03
 108536507.363 8  84573918.35547  20653807.648    20653809.4064
        48.400          42.1004
 116252668.748 7  90586528.81945  22122147.398    22122155.5274
        45.200          32.6004
 116299350.398 7  90622932.25945  22131021.883    22131029.5004
        44.300          34.0004
 113153070.253 7  88171245.23346  21532311.094    21532314.8164
        47.200          36.6004
 126875183.069 6  98863805.65444  24143545.820    24143552.9414
        40.800          25.6004
 118858279.395 7  92616882.33945  22617971.094    22617977.2624
        43.400          31.8004
 126100898.192 5  98260455.90342  23996199.016    23996203.7424
        35.200          17.4004
 130320172.732 6 101548198.04343  24799110.008    24799115.5824
        39.000          20.6004
 110526804.946 7  86124839.92546  21032546.094    21032552.5354
        47.400          40.2004
